ATT_Roll,ATT_Pitch,ATT_Yaw,ATT_RollRate,ATT_PitchRate,ATT_YawRate,ATT_GX,ATT_GY,ATT_GZ,ATSP_RollSP,ATSP_PitchSP,ATSP_YawSP,ATSP_ThrustSP,IMU_AccX,IMU_AccY,IMU_AccZ,IMU_GyroX,IMU_GyroY,IMU_GyroZ,IMU_MagX,IMU_MagY,IMU_MagZ,IMU1_AccX,IMU1_AccY,IMU1_AccZ,IMU1_GyroX,IMU1_GyroY,IMU1_GyroZ,IMU1_MagX,IMU1_MagY,IMU1_MagZ,IMU2_AccX,IMU2_AccY,IMU2_AccZ,IMU2_GyroX,IMU2_GyroY,IMU2_GyroZ,IMU2_MagX,IMU2_MagY,IMU2_MagZ,SENS_BaroPres,SENS_BaroAlt,SENS_BaroTemp,SENS_DiffPres,SENS_DiffPresFilt,LPOS_X,LPOS_Y,LPOS_Z,LPOS_Dist,LPOS_DistR,LPOS_VX,LPOS_VY,LPOS_VZ,LPOS_RLat,LPOS_RLon,LPOS_RAlt,LPOS_PFlg,LPOS_LFlg,LPOS_GFlg,LPOS_EPH,LPOS_EPV,LPSP_X,LPSP_Y,LPSP_Z,LPSP_Yaw,GPS_GPSTime,GPS_Fix,GPS_EPH,GPS_EPV,GPS_Lat,GPS_Lon,GPS_Alt,GPS_VelN,GPS_VelE,GPS_VelD,GPS_Cog,GPS_nSat,GPS_SNR,GPS_N,GPS_J,ATTC_Roll,ATTC_Pitch,ATTC_Yaw,ATTC_Thrust,STAT_MainState,STAT_ArmState,STAT_FailsafeState,STAT_BatRem,STAT_BatWarn,STAT_Landed,RC_Ch0,RC_Ch1,RC_Ch2,RC_Ch3,RC_Ch4,RC_Ch5,RC_Ch6,RC_Ch7,RC_Count,RC_SignalLost,OUT0_Out0,OUT0_Out1,OUT0_Out2,OUT0_Out3,OUT0_Out4,OUT0_Out5,OUT0_Out6,OUT0_Out7,AIRS_IndSpeed,AIRS_TrueSpeed,AIRS_AirTemp,ARSP_RollRateSP,ARSP_PitchRateSP,ARSP_YawRateSP,FLOW_RawX,FLOW_RawY,FLOW_CompX,FLOW_CompY,FLOW_Dist,FLOW_Q,FLOW_SensID,GPOS_Lat,GPOS_Lon,GPOS_Alt,GPOS_VelN,GPOS_VelE,GPOS_VelD,GPOS_EPH,GPOS_EPV,GPOS_TALT,GPSP_NavState,GPSP_Lat,GPSP_Lon,GPSP_Alt,GPSP_Yaw,GPSP_Type,GPSP_LoitR,GPSP_LoitDir,GPSP_PitMin,ESC_count,ESC_nESC,ESC_Conn,ESC_N,ESC_Ver,ESC_Adr,ESC_Volt,ESC_Amp,ESC_RPM,ESC_Temp,ESC_SetP,ESC_SetPRAW,GVSP_VX,GVSP_VY,GVSP_VZ,BATT_V,BATT_VFilt,BATT_C,BATT_Discharged,DIST_Bottom,DIST_BottomRate,DIST_Flags,TEL0_RSSI,TEL0_RemRSSI,TEL0_Noise,TEL0_RemNoise,TEL0_RXErr,TEL0_Fixed,TEL0_TXBuf,TEL0_HbTime,TEL1_RSSI,TEL1_RemRSSI,TEL1_Noise,TEL1_RemNoise,TEL1_RXErr,TEL1_Fixed,TEL1_TXBuf,TEL1_HbTime,TEL2_RSSI,TEL2_RemRSSI,TEL2_Noise,TEL2_RemNoise,TEL2_RXErr,TEL2_Fixed,TEL2_TXBuf,TEL2_HbTime,TEL3_RSSI,TEL3_RemRSSI,TEL3_Noise,TEL3_RemNoise,TEL3_RXErr,TEL3_Fixed,TEL3_TXBuf,TEL3_HbTime,EST0_s0,EST0_s1,EST0_s2,EST0_s3,EST0_s4,EST0_s5,EST0_s6,EST0_s7,EST0_s8,EST0_s9,EST0_s10,EST0_s11,EST0_nStat,EST0_fNaN,EST0_fHealth,EST0_fTOut,EST1_s12,EST1_s13,EST1_s14,EST1_s15,EST1_s16,EST1_s17,EST1_s18,EST1_s19,EST1_s20,EST1_s21,EST1_s22,EST1_s23,EST1_s24,EST1_s25,EST1_s26,EST1_s27,PWR_Periph5V,PWR_Servo5V,PWR_RSSI,PWR_UsbOk,PWR_BrickOk,PWR_ServoOk,PWR_PeriphOC,PWR_HipwrOC,VICN_X,VICN_Y,VICN_Z,VICN_Roll,VICN_Pitch,VICN_Yaw,VISN_X,VISN_Y,VISN_Z,VISN_VX,VISN_VY,VISN_VZ,VISN_QuatX,VISN_QuatY,VISN_QuatZ,VISN_QuatW,GS0A_s0,GS0A_s1,GS0A_s2,GS0A_s3,GS0A_s4,GS0A_s5,GS0A_s6,GS0A_s7,GS0A_s8,GS0A_s9,GS0A_s10,GS0A_s11,GS0A_s12,GS0A_s13,GS0A_s14,GS0A_s15,GS0B_s0,GS0B_s1,GS0B_s2,GS0B_s3,GS0B_s4,GS0B_s5,GS0B_s6,GS0B_s7,GS0B_s8,GS0B_s9,GS0B_s10,GS0B_s11,GS0B_s12,GS0B_s13,GS0B_s14,GS0B_s15,GS1A_s0,GS1A_s1,GS1A_s2,GS1A_s3,GS1A_s4,GS1A_s5,GS1A_s6,GS1A_s7,GS1A_s8,GS1A_s9,GS1A_s10,GS1A_s11,GS1A_s12,GS1A_s13,GS1A_s14,GS1A_s15,GS1B_s0,GS1B_s1,GS1B_s2,GS1B_s3,GS1B_s4,GS1B_s5,GS1B_s6,GS1B_s7,GS1B_s8,GS1B_s9,GS1B_s10,GS1B_s11,GS1B_s12,GS1B_s13,GS1B_s14,GS1B_s15,TECS_ASP,TECS_AF,TECS_FSP,TECS_F,TECS_FF,TECS_AsSP,TECS_AsF,TECS_AsDSP,TECS_AsD,TECS_TERSP,TECS_TER,TECS_EDRSP,TECS_EDR,TECS_M,WIND_X,WIND_Y,WIND_CovX,WIND_CovY,ENCD_cnt0,ENCD_vel0,ENCD_cnt1,ENCD_vel1,OUT1_Out0,OUT1_Out1,OUT1_Out2,OUT1_Out3,OUT1_Out4,OUT1_Out5,OUT1_Out6,OUT1_Out7,TIME_StartTime,VER_Arch,VER_FwGit,PARM_Name,PARM_Value
,,,,,,,,,,,,,,,,,,,,,,,,,,,,,,,,,,,,,,,,,,,,,,,,,,,,,,,,,,,,,,,,,,,,,,,,,,,,,,,,,,,,,,,,,,,,,,,,,,,,,,,,,,,,,,,,,,,,,,,,,,,,,,,,,,,,,,,,,,,,,,,,,,,,,,,,,,,,,,,,,,,,,,,,,,,,,,,,,,,,,,,,,,,,,,,,,,,,,,,,,,,,,,,,,,,,,,,,,,,,,,,,,,,,,,,,,,,,,,,,,,,,,,,,,,,,,,,,,,,,,,,,,,,,,,,,,,,,,,,,,,,,,,,,,,,,,,,,,,,,,,,,,,,,,,,,,,,,,,,,,,,,,,,,,,,,,,,,,,,,,,,,PX4FMU_V2,c17f0b6885b5678d25510dd57a90f80b05115e37,test,305419904.0
0.0263315960765,0.033734023571,2.173817873,0.0006440099678,-0.00398730114102,0.00135610089637,0.525896549225,-0.356579303741,-9.77661514282,0.0,-0.0,0.0,0.0,0.525896549225,-0.356579303741,-9.77661514282,0.000555719889235,-0.00391705660149,0.000441367301391,-0.1277987957,-0.150206997991,0.427357286215,0.525896549225,-0.356579303741,-9.77661514282,-0.00433793710545,0.0321455784142,0.00476045906544,0.0,0.0,0.0,,,,,,,,,,995.049987793,152.613006592,44.1800003052,0.0,0.0,1.55440115929,0.0,-10.0,0.0,0.0,0.0,0.0,0.0,0.0,0.0,0.0,63,0,1,1.0,1.0,,,,,,,,,,,,,,,,,,,,,,,,0,2,0,0.450956970453,0,0,0.0,0.0,0.0,-0.0103359175846,-1.0,-0.800000011921,-1.0,0.0,7,0,0.0,0.0,0.0,0.0,0.0,0.0,0.0,0.0,,,,0.0,0.0,0.0,,,,,,,,0.0,0.0,0.0,0.0,0.0,0.0,1.0,1.0,0.0,,,,,,,,,,,,,,,,,,,,,,0.0,0.0,0.0,11.1520004272,11.2771806717,0.0,3.04967308044,,,,166,167,34,36,0,0,92,259953029,,,,,,,,,,,,,,,,,,,,,,,,,,,,,,,,,,,,,,,,,,,,,,,,,,,,,,,,,5.19814443588,0.0670000016689,1.51100003719,0,1,0,0,0,,,,,,,,,,,,,,,,,,,,,,,,,,,,,,,,,,,,,,,,,,,,,,,,,,,,,,,,,,,,,,,,,,,,,,,,,,,,,,,,,,,,,,,,,,,,,,,,,,,7933,0.0,7900,0.0,1500.0,1500.0,0.0,0.0,0.0,0.0,0.0,0.0,260140017,PX4FMU_V2,c17f0b6885b5678d25510dd57a90f80b05115e37,test,305419904.0
0.0263408049941,0.0337369814515,2.17377281189,0.000530622375663,-0.00407223217189,0.000912455492653,0.519367158413,-0.350886464119,-9.78414916992,0.0,-0.0,0.0,0.0,0.519367158413,-0.350886464119,-9.78414916992,-6.49048452033e-05,-0.00396704068407,-0.000222980495892,-0.1277987957,-0.150206997991,0.427357286215,0.519367158413,-0.350886464119,-9.78414916992,0.000255963968812,0.0304342061281,0.00533025152981,0.0,0.0,0.0,,,,,,,,,,995.059997559,152.528533936,44.1800003052,0.0,0.0,1.55440115929,0.0,-10.0,0.0,0.0,0.0,0.0,0.0,0.0,0.0,0.0,63,0,1,1.0,1.0,,,,,,,,,,,,,,,,,,,,,,,,0,2,0,0.448973327875,0,0,0.0,0.0,0.0,-0.0103359175846,-1.0,-0.800000011921,-1.0,0.0,7,0,0.0,0.0,0.0,0.0,0.0,0.0,0.0,0.0,,,,0.0,0.0,0.0,,,,,,,,0.0,0.0,0.0,0.0,0.0,0.0,1.0,1.0,0.0,,,,,,,,,,,,,,,,,,,,,,0.0,0.0,0.0,11.2012004852,11.2771043777,0.0,3.04967308044,,,,166,167,34,36,0,0,92,259953029,,,,,,,,,,,,,,,,,,,,,,,,,,,,,,,,,,,,,,,,,,,,,,,,,,,,,,,,,5.2013669014,0.0670000016689,1.51100003719,0,1,0,0,0,,,,,,,,,,,,,,,,,,,,,,,,,,,,,,,,,,,,,,,,,,,,,,,,,,,,,,,,,,,,,,,,,,,,,,,,,,,,,,,,,,,,,,,,,,,,,,,,,,,7933,0.0,7900,0.0,1500.0,1500.0,0.0,0.0,0.0,0.0,0.0,0.0,260145928,PX4FMU_V2,c17f0b6885b5678d25510dd57a90f80b05115e37,test,305419904.0
0.0263577960432,0.0337386503816,2.17373037338,0.000358185527148,-0.00458786590025,-0.000184416610864,0.519904434681,-0.345881789923,-9.78337192535,0.0,-0.0,0.0,0.0,0.519904434681,-0.345881789923,-9.78337192535,3.29420872731e-05,-0.00487277656794,-0.00139839772601,-0.128198802471,-0.152447000146,0.428477287292,0.519904434681,-0.345881789923,-9.78337192535,0.00129345431924,0.021671179682,0.00516309449449,0.0,0.0,0.0,,,,,,,,,,995.059997559,152.528533936,44.1800003052,0.0,0.0,1.55440115929,0.0,-10.0,0.0,0.0,0.0,0.0,0.0,0.0,0.0,0.0,63,0,1,1.0,1.0,,,,,,,,,,,,,,,,,,,,,,,,0,2,0,0.448973327875,0,0,0.0,0.0,0.0,-0.0103359175846,-1.0,-0.800000011921,-1.0,0.0,7,0,0.0,0.0,0.0,0.0,0.0,0.0,0.0,0.0,,,,0.0,0.0,0.0,,,,,,,,0.0,0.0,0.0,0.0,0.0,0.0,1.0,1.0,0.0,,,,,,,,,,,,,,,,,,,,,,0.0,0.0,0.0,11.2012004852,11.2771043777,0.0,3.04967308044,,,,166,167,34,36,0,0,92,259953029,,,,,,,,,,,,,,,,,,,,,,,,,,,,,,,,,,,,,,,,,,,,,,,,,,,,,,,,,5.2013669014,0.0670000016689,1.51100003719,0,1,0,0,0,,,,,,,,,,,,,,,,,,,,,,,,,,,,,,,,,,,,,,,,,,,,,,,,,,,,,,,,,,,,,,,,,,,,,,,,,,,,,,,,,,,,,,,,,,,,,,,,,,,7933,0.0,7900,0.0,1500.0,1500.0,0.0,0.0,0.0,0.0,0.0,0.0,260151989,PX4FMU_V2,c17f0b6885b5678d25510dd57a90f80b05115e37,test,305419904.0
0.0263668652624,0.0337395891547,2.17367744446,0.000454516411992,-0.00481927627698,-0.00085576006677,0.530343949795,-0.342700183392,-9.77540016174,0.0,-0.0,0.0,0.0,0.530343949795,-0.342700183392,-9.77540016174,0.000361570593668,-0.00494688563049,-0.00209350022487,-0.128198802471,-0.152447000146,0.428477287292,0.530343949795,-0.342700183392,-9.77540016174,0.00262907100841,0.0195011962205,0.00394241139293,0.0,0.0,0.0,,,,,,,,,,995.059997559,152.528533936,44.1800003052,0.0,0.0,1.55440115929,0.0,-10.0,0.0,0.0,0.0,0.0,0.0,0.0,0.0,0.0,63,0,1,1.0,1.0,,,,,,,,,,,,,,,,,,,,,,,,0,2,0,0.448973327875,0,0,0.0,0.0,0.0,-0.0129198962823,-1.0,-0.800000011921,-1.0,0.0,7,0,0.0,0.0,0.0,0.0,0.0,0.0,0.0,0.0,,,,0.0,0.0,0.0,,,,,,,,0.0,0.0,0.0,0.0,0.0,0.0,1.0,1.0,0.0,,,,,,,,,,,,,,,,,,,,,,0.0,0.0,0.0,11.2012004852,11.2770280838,0.0,3.04967308044,,,,166,167,34,36,0,0,92,259953029,,,,,,,,,,,,,,,,,,,,,,,,,,,,,,,,,,,,,,,,,,,,,,,,,,,,,,,,,5.19492197037,0.0650000050664,1.22900009155,0,1,0,0,0,,,,,,,,,,,,,,,,,,,,,,,,,,,,,,,,,,,,,,,,,,,,,,,,,,,,,,,,,,,,,,,,,,,,,,,,,,,,,,,,,,,,,,,,,,,,,,,,,,,7933,0.0,7900,0.0,1500.0,1500.0,0.0,0.0,0.0,0.0,0.0,0.0,260158035,PX4FMU_V2,c17f0b6885b5678d25510dd57a90f80b05115e37,test,305419904.0
0.0263818912208,0.0337420478463,2.17370653152,0.000254582933849,-0.00493024801835,-0.00187160912901,0.528938949108,-0.333871632814,-9.77031707764,0.0,-0.0,0.0,0.0,0.528938949108,-0.333871632814,-9.77031707764,-0.000342559302226,-0.00465519167483,-0.00250342884101,-0.127718791366,-0.149086996913,0.429037302732,0.528938949108,-0.333871632814,-9.77031707764,0.00633348710835,0.0165638849139,0.000418093957705,0.0,0.0,0.0,,,,,,,,,,995.059997559,152.528533936,44.1800003052,0.0,0.0,1.55440115929,0.0,-10.0,0.0,0.0,0.0,0.0,0.0,0.0,0.0,0.0,63,0,1,1.0,1.0,,,,,,,,,,,,,,,,,,,,,,,,0,2,0,0.448973327875,0,0,0.0,0.0,0.0,-0.0129198962823,-1.0,-0.800000011921,-1.0,0.0,7,0,0.0,0.0,0.0,0.0,0.0,0.0,0.0,0.0,,,,0.0,0.0,0.0,,,,,,,,0.0,0.0,0.0,0.0,0.0,0.0,1.0,1.0,0.0,,,,,,,,,,,,,,,,,,,,,,0.0,0.0,0.0,11.2012004852,11.2770280838,0.0,3.04967308044,,,,166,167,34,36,0,0,92,259953029,,,,,,,,,,,,,,,,,,,,,,,,,,,,,,,,,,,,,,,,,,,,,,,,,,,,,,,,,5.19492197037,0.0650000050664,1.22900009155,0,1,0,0,0,,,,,,,,,,,,,,,,,,,,,,,,,,,,,,,,,,,,,,,,,,,,,,,,,,,,,,,,,,,,,,,,,,,,,,,,,,,,,,,,,,,,,,,,,,,,,,,,,,,7933,0.0,7900,0.0,1500.0,1500.0,0.0,0.0,0.0,0.0,0.0,0.0,260163995,PX4FMU_V2,c17f0b6885b5678d25510dd57a90f80b05115e37,test,305419904.0
0.0263861902058,0.0337421111763,2.17380070686,-5.41822810192e-05,-0.00490426179022,-0.00223471131176,0.516683578491,-0.324961602688,-9.77543544769,0.0,-0.0,0.0,0.0,0.516683578491,-0.324961602688,-9.77543544769,-0.000780745584052,-0.00459952931851,-0.00268256734125,-0.128118798137,-0.149487003684,0.427677303553,0.516683578491,-0.324961602688,-9.77543544769,0.00623080413789,0.0178804956377,0.000629045534879,0.0,0.0,0.0,,,,,,,,,,995.019958496,152.866424561,44.1800003052,0.0,0.0,1.55440115929,0.0,-10.0,0.0,0.0,0.0,0.0,0.0,0.0,0.0,0.0,63,0,1,1.0,1.0,,,,,,,,,,,,,,,,,,,,,,,,0,2,0,0.448973327875,0,0,0.0,0.0,0.0,-0.0129198962823,-1.0,-0.800000011921,-1.0,0.0,7,0,0.0,0.0,0.0,0.0,0.0,0.0,0.0,0.0,,,,0.0,0.0,0.0,,,,,,,,0.0,0.0,0.0,0.0,0.0,0.0,1.0,1.0,0.0,,,,,,,,,,,,,,,,,,,,,,0.0,0.0,0.0,11.2175998688,11.276968956,0.0,3.04967308044,,,,166,167,34,36,0,0,92,259953029,,,,,,,,,,,,,,,,,,,,,,,,,,,,,,,,,,,,,,,,,,,,,,,,,,,,,,,,,5.18525362015,0.0650000050664,1.22900009155,0,1,0,0,0,,,,,,,,,,,,,,,,,,,,,,,,,,,,,,,,,,,,,,,,,,,,,,,,,,,,,,,,,,,,,,,,,,,,,,,,,,,,,,,,,,,,,,,,,,,,,,,,,,,7933,0.0,7900,0.0,1500.0,1500.0,0.0,0.0,0.0,0.0,0.0,0.0,260170024,PX4FMU_V2,c17f0b6885b5678d25510dd57a90f80b05115e37,test,305419904.0
0.0263882335275,0.0337378866971,2.17370605469,-0.000908457557671,-0.0050003756769,-0.00274869450368,0.495028316975,-0.315718501806,-9.77949142456,0.0,-0.0,0.0,0.0,0.495028316975,-0.315718501806,-9.77949142456,-0.00178141193464,-0.00491952244192,-0.00286746909842,-0.128118798137,-0.149487003684,0.427677303553,0.495028316975,-0.315718501806,-9.77949142456,8.2720989667e-06,0.0205460116267,0.00321551226079,0.0,0.0,0.0,,,,,,,,,,995.019958496,152.866424561,44.1800003052,0.0,0.0,1.55440115929,0.0,-10.0,0.0,0.0,0.0,0.0,0.0,0.0,0.0,0.0,63,0,1,1.0,1.0,,,,,,,,,,,,,,,,,,,,,,,,0,2,0,0.448973327875,0,0,0.0,0.0,0.0,-0.0129198962823,-1.0,-0.800000011921,-1.0,0.0,7,0,0.0,0.0,0.0,0.0,0.0,0.0,0.0,0.0,,,,0.0,0.0,0.0,,,,,,,,0.0,0.0,0.0,0.0,0.0,0.0,1.0,1.0,0.0,,,,,,,,,,,,,,,,,,,,,,0.0,0.0,0.0,11.2175998688,11.276968956,0.0,3.04967308044,,,,166,167,34,36,0,0,92,259953029,,,,,,,,,,,,,,,,,,,,,,,,,,,,,,,,,,,,,,,,,,,,,,,,,,,,,,,,,5.19169902802,0.0650000050664,1.22800004482,0,1,0,0,0,,,,,,,,,,,,,,,,,,,,,,,,,,,,,,,,,,,,,,,,,,,,,,,,,,,,,,,,,,,,,,,,,,,,,,,,,,,,,,,,,,,,,,,,,,,,,,,,,,,7933,0.0,7900,0.0,1500.0,1500.0,0.0,0.0,0.0,0.0,0.0,0.0,260177034,PX4FMU_V2,c17f0b6885b5678d25510dd57a90f80b05115e37,test,305419904.0
0.0263838786632,0.0337258391082,2.17374777794,-0.00165811774787,-0.00559360114858,-0.00246762856841,0.485748082399,-0.305273324251,-9.77627849579,0.0,-0.0,0.0,0.0,0.485748082399,-0.305273324251,-9.77627849579,-0.00211982429028,-0.00596630293876,-0.00175521429628,-0.129638791084,-0.152286991477,0.428397297859,0.485748082399,-0.305273324251,-9.77627849579,-0.0121756894514,0.0212519541383,0.00170306686778,0.0,0.0,0.0,,,,,,,,,,995.019958496,152.866424561,44.1800003052,0.0,0.0,1.55440115929,0.0,-10.0,0.0,0.0,0.0,0.0,0.0,0.0,0.0,0.0,63,0,1,1.0,1.0,,,,,,,,,,,,,,,,,,,,,,,,0,2,0,0.448973327875,0,0,0.0,0.0,0.0,-0.0129198962823,-1.0,-0.800000011921,-1.0,0.0,7,0,0.0,0.0,0.0,0.0,0.0,0.0,0.0,0.0,,,,0.0,0.0,0.0,,,,,,,,0.0,0.0,0.0,0.0,0.0,0.0,1.0,1.0,0.0,,,,,,,,,,,,,,,,,,,,,,0.0,0.0,0.0,11.209400177,11.2769012451,0.0,3.04967308044,,,,166,167,34,36,0,0,92,259953029,,,,,,,,,,,,,,,,,,,,,,,,,,,,,,,,,,,,,,,,,,,,,,,,,,,,,,,,,5.19169902802,0.0650000050664,1.22800004482,0,1,0,0,0,,,,,,,,,,,,,,,,,,,,,,,,,,,,,,,,,,,,,,,,,,,,,,,,,,,,,,,,,,,,,,,,,,,,,,,,,,,,,,,,,,,,,,,,,,,,,,,,,,,7933,0.0,7900,0.0,1500.0,1500.0,0.0,0.0,0.0,0.0,0.0,0.0,260184004,PX4FMU_V2,c17f0b6885b5678d25510dd57a90f80b05115e37,test,305419904.0
0.02638098225,0.0337175689638,2.17368721962,-0.00178616552148,-0.00598223414272,-0.00193316279911,0.488286554813,-0.301620185375,-9.77787208557,0.0,-0.0,0.0,0.0,0.488286554813,-0.301620185375,-9.77787208557,-0.00188133865595,-0.00640596263111,-0.000811011414044,-0.126198798418,-0.152046993375,0.427037298679,0.488286554813,-0.301620185375,-9.77787208557,-0.0113124651834,0.0204374995083,0.00345928920433,0.0,0.0,0.0,,,,,,,,,,995.019958496,152.866424561,44.1800003052,0.0,0.0,1.55440115929,0.0,-10.0,0.0,0.0,0.0,0.0,0.0,0.0,0.0,0.0,63,0,1,1.0,1.0,,,,,,,,,,,,,,,,,,,,,,,,0,2,0,0.448973327875,0,0,0.0,0.0,0.0,-0.0129198962823,-1.0,-0.800000011921,-1.0,0.0,7,0,0.0,0.0,0.0,0.0,0.0,0.0,0.0,0.0,,,,0.0,0.0,0.0,,,,,,,,0.0,0.0,0.0,0.0,0.0,0.0,1.0,1.0,0.0,,,,,,,,,,,,,,,,,,,,,,0.0,0.0,0.0,11.209400177,11.2769012451,0.0,3.04967308044,,,,166,167,34,36,0,0,92,259953029,,,,,,,,,,,,,,,,,,,,,,,,,,,,,,,,,,,,,,,,,,,,,,,,,,,,,,,,,5.18203115463,0.0650000050664,1.22800004482,0,1,0,0,0,,,,,,,,,,,,,,,,,,,,,,,,,,,,,,,,,,,,,,,,,,,,,,,,,,,,,,,,,,,,,,,,,,,,,,,,,,,,,,,,,,,,,,,,,,,,,,,,,,,7933,0.0,7900,0.0,1500.0,1500.0,0.0,0.0,0.0,0.0,0.0,0.0,260190285,PX4FMU_V2,c17f0b6885b5678d25510dd57a90f80b05115e37,test,305419904.0
0.0263755880296,0.0336895249784,2.17361593246,-0.0019672208,-0.00689311698079,-0.000374055700377,0.502809166908,-0.324172884226,-9.78532600403,0.0,-0.0,0.0,0.0,0.502809166908,-0.324172884226,-9.78532600403,-0.00202470179647,-0.00721856579185,0.000962193007581,-0.126198798418,-0.152046993375,0.427037298679,0.502809166908,-0.324172884226,-9.78532600403,-0.0079044541344,0.0134919602424,0.00935514736921,0.0,0.0,0.0,,,,,,,,,,995.049987793,152.613006592,44.1800003052,0.0,0.0,1.55440115929,0.0,-10.0,0.0,0.0,0.0,0.0,0.0,0.0,0.0,0.0,63,0,1,1.0,1.0,,,,,,,,,,,,,,,,,,,,,,,,0,2,0,0.448973327875,0,0,0.0,0.0,0.0,-0.0129198962823,-1.0,-0.800000011921,-1.0,0.0,7,0,0.0,0.0,0.0,0.0,0.0,0.0,0.0,0.0,,,,0.0,0.0,0.0,,,,,,,,0.0,0.0,0.0,0.0,0.0,0.0,1.0,1.0,0.0,,,,,,,,,,,,,,,,,,,,,,0.0,0.0,0.0,11.1191997528,11.2767438889,0.0,3.04967308044,,,,166,167,34,36,0,0,92,259953029,,,,,,,,,,,,,,,,,,,,,,,,,,,,,,,,,,,,,,,,,,,,,,,,,,,,,,,,,5.20620107651,0.0650000050664,1.22800004482,0,1,0,0,0,,,,,,,,,,,,,,,,,,,,,,,,,,,,,,,,,,,,,,,,,,,,,,,,,,,,,,,,,,,,,,,,,,,,,,,,,,,,,,,,,,,,,,,,,,,,,,,,,,,7933,0.0,7900,0.0,1500.0,1500.0,0.0,0.0,0.0,0.0,0.0,0.0,260196614,PX4FMU_V2,c17f0b6885b5678d25510dd57a90f80b05115e37,test,305419904.0
0.0263739004731,0.0336795896292,2.17360687256,-0.00219996599481,-0.00703509524465,0.000270925753284,0.506548523903,-0.332736372948,-9.7835559845,0.0,-0.0,0.0,0.0,0.506548523903,-0.332736372948,-9.7835559845,-0.00245951674879,-0.00691211223602,0.00120477867313,-0.127958804369,-0.15292699635,0.429197281599,0.506548523903,-0.332736372948,-9.7835559845,-0.00600019143894,0.0153585197404,0.00765088945627,0.0,0.0,0.0,,,,,,,,,,995.049987793,152.613006592,44.1800003052,0.0,0.0,1.55440115929,0.0,-10.0,0.0,0.0,0.0,0.0,0.0,0.0,0.0,0.0,63,0,1,1.0,1.0,,,,,,,,,,,,,,,,,,,,,,,,0,2,0,0.448973327875,0,0,0.0,0.0,0.0,-0.0129198962823,-1.0,-0.800000011921,-1.0,0.0,7,0,0.0,0.0,0.0,0.0,0.0,0.0,0.0,0.0,,,,0.0,0.0,0.0,,,,,,,,0.0,0.0,0.0,0.0,0.0,0.0,1.0,1.0,0.0,,,,,,,,,,,,,,,,,,,,,,0.0,0.0,0.0,11.1191997528,11.2767438889,0.0,3.04967308044,,,,166,167,34,36,0,0,92,259953029,,,,,,,,,,,,,,,,,,,,,,,,,,,,,,,,,,,,,,,,,,,,,,,,,,,,,,,,,5.20620107651,0.0650000050664,1.22800004482,0,1,0,0,0,,,,,,,,,,,,,,,,,,,,,,,,,,,,,,,,,,,,,,,,,,,,,,,,,,,,,,,,,,,,,,,,,,,,,,,,,,,,,,,,,,,,,,,,,,,,,,,,,,,7933,0.0,7900,0.0,1500.0,1500.0,0.0,0.0,0.0,0.0,0.0,0.0,260202438,PX4FMU_V2,c17f0b6885b5678d25510dd57a90f80b05115e37,test,305419904.0
0.0263688918203,0.0336627066135,2.17364549637,-0.00272355857305,-0.00679422542453,0.000910753558856,0.500444293022,-0.339269250631,-9.77979850769,0.0,-0.0,0.0,0.0,0.500444293022,-0.339269250631,-9.77979850769,-0.0029881009832,-0.00622094096616,0.00107411411591,-0.128358796239,-0.150847002864,0.429517298937,0.500444293022,-0.339269250631,-9.77979850769,-0.00705162994564,0.0180033370852,0.000529488374013,0.0,0.0,0.0,,,,,,,,,,995.039978027,152.697479248,44.1800003052,0.0,0.0,1.55440115929,0.0,-10.0,0.0,0.0,0.0,0.0,0.0,0.0,0.0,0.0,63,0,1,1.0,1.0,,,,,,,,,,,,,,,,,,,,,,,,0,2,0,0.448973327875,0,0,0.0,0.0,0.0,-0.0129198962823,-1.0,-0.800000011921,-1.0,0.0,7,0,0.0,0.0,0.0,0.0,0.0,0.0,0.0,0.0,,,,0.0,0.0,0.0,,,,,,,,0.0,0.0,0.0,0.0,0.0,0.0,1.0,1.0,0.0,,,,,,,,,,,,,,,,,,,,,,0.0,0.0,0.0,11.2175998688,11.276684761,0.0,3.04967308044,,,,166,167,34,36,0,0,92,259953029,,,,,,,,,,,,,,,,,,,,,,,,,,,,,,,,,,,,,,,,,,,,,,,,,,,,,,,,,5.20942354202,0.0670000016689,1.21300005913,0,1,0,0,0,,,,,,,,,,,,,,,,,,,,,,,,,,,,,,,,,,,,,,,,,,,,,,,,,,,,,,,,,,,,,,,,,,,,,,,,,,,,,,,,,,,,,,,,,,,,,,,,,,,7933,0.0,7900,0.0,1500.0,1500.0,0.0,0.0,0.0,0.0,0.0,0.0,260208558,PX4FMU_V2,c17f0b6885b5678d25510dd57a90f80b05115e37,test,305419904.0
0.0263666976243,0.0336550399661,2.17361140251,-0.00279695843346,-0.00653475383297,0.00121888227295,0.496421158314,-0.340687185526,-9.77713012695,0.0,-0.0,0.0,0.0,0.496421158314,-0.340687185526,-9.77713012695,-0.00271534104832,-0.00581311341375,0.00146078341641,-0.128358796239,-0.150847002864,0.429517298937,0.496421158314,-0.340687185526,-9.77713012695,-0.00999665912241,0.0177102629095,-0.000177779904334,0.0,0.0,0.0,,,,,,,,,,995.039978027,152.697479248,44.1800003052,0.0,0.0,1.55440115929,0.0,-10.0,0.0,0.0,0.0,0.0,0.0,0.0,0.0,0.0,63,0,1,1.0,1.0,,,,,,,,,,,,,,,,,,,,,,,,0,2,0,0.448973327875,0,0,0.0,0.0,0.0,-0.0129198962823,-1.0,-0.800000011921,-1.0,0.0,7,0,0.0,0.0,0.0,0.0,0.0,0.0,0.0,0.0,,,,0.0,0.0,0.0,,,,,,,,0.0,0.0,0.0,0.0,0.0,0.0,1.0,1.0,0.0,,,,,,,,,,,,,,,,,,,,,,0.0,0.0,0.0,11.2175998688,11.276684761,0.0,3.04967308044,,,,166,167,34,36,0,0,92,259953029,,,,,,,,,,,,,,,,,,,,,,,,,,,,,,,,,,,,,,,,,,,,,,,,,,,,,,,,,5.20942354202,0.0670000016689,1.21300005913,0,1,0,0,0,,,,,,,,,,,,,,,,,,,,,,,,,,,,,,,,,,,,,,,,,,,,,,,,,,,,,,,,,,,,,,,,,,,,,,,,,,,,,,,,,,,,,,,,,,,,,,,,,,,7933,0.0,7900,0.0,1500.0,1500.0,0.0,0.0,0.0,0.0,0.0,0.0,260214420,PX4FMU_V2,c17f0b6885b5678d25510dd57a90f80b05115e37,test,305419904.0
0.0263653192669,0.0336432084441,2.17352986336,-0.00240535498597,-0.00599400606006,0.00180412072223,0.504372298717,-0.338236480951,-9.77492332458,0.0,-0.0,0.0,0.0,0.504372298717,-0.338236480951,-9.77492332458,-0.00177255109884,-0.00548981269822,0.00170519738458,-0.126198798418,-0.151806995273,0.427997291088,0.504372298717,-0.338236480951,-9.77492332458,-0.0114416023716,0.0156584829092,0.00463798828423,0.0,0.0,0.0,,,,,,,,,,995.029968262,152.781951904,44.1800003052,0.0,0.0,1.55440115929,0.0,-10.0,0.0,0.0,0.0,0.0,0.0,0.0,0.0,0.0,63,0,1,1.0,1.0,,,,,,,,,,,,,,,,,,,,,,,,0,2,0,0.448973327875,0,0,0.0,0.0,0.0,-0.0129198962823,-1.0,-0.800000011921,-1.0,0.0,7,0,0.0,0.0,0.0,0.0,0.0,0.0,0.0,0.0,,,,0.0,0.0,0.0,,,,,,,,0.0,0.0,0.0,0.0,0.0,0.0,1.0,1.0,0.0,,,,,,,,,,,,,,,,,,,,,,0.0,0.0,0.0,11.2913999557,11.2766990662,0.0,3.04967308044,,,,166,167,34,36,0,0,92,259953029,,,,,,,,,,,,,,,,,,,,,,,,,,,,,,,,,,,,,,,,,,,,,,,,,,,,,,,,,5.20620107651,0.0670000016689,1.21400010586,0,1,0,0,0,,,,,,,,,,,,,,,,,,,,,,,,,,,,,,,,,,,,,,,,,,,,,,,,,,,,,,,,,,,,,,,,,,,,,,,,,,,,,,,,,,,,,,,,,,,,,,,,,,,7933,0.0,7900,0.0,1500.0,1500.0,0.0,0.0,0.0,0.0,0.0,0.0,260220328,PX4FMU_V2,c17f0b6885b5678d25510dd57a90f80b05115e37,test,305419904.0
0.0263669099659,0.0336376912892,2.17349004745,-0.0021638837643,-0.00587788131088,0.00153959298041,0.508487820625,-0.35005030036,-9.77675819397,0.0,-0.0,0.0,0.0,0.508487820625,-0.35005030036,-9.77675819397,-0.00162186368834,-0.00557695282623,0.000715173839126,-0.126198798418,-0.151806995273,0.427997291088,0.508487820625,-0.35005030036,-9.77675819397,-0.00841576699167,0.0175276212394,0.00756403570995,0.0,0.0,0.0,,,,,,,,,,995.029968262,152.781951904,44.1800003052,0.0,0.0,1.55440115929,0.0,-10.0,0.0,0.0,0.0,0.0,0.0,0.0,0.0,0.0,63,0,1,1.0,1.0,,,,,,,,,,,,,,,,,,,,,,,,0,2,0,0.448973327875,0,0,0.0,0.0,0.0,-0.0129198962823,-1.0,-0.800000011921,-1.0,0.0,7,0,0.0,0.0,0.0,0.0,0.0,0.0,0.0,0.0,,,,0.0,0.0,0.0,,,,,,,,0.0,0.0,0.0,0.0,0.0,0.0,1.0,1.0,0.0,,,,,,,,,,,,,,,,,,,,,,0.0,0.0,0.0,11.2913999557,11.2766990662,0.0,3.04967308044,,,,166,167,34,36,0,0,92,259953029,,,,,,,,,,,,,,,,,,,,,,,,,,,,,,,,,,,,,,,,,,,,,,,,,,,,,,,,,5.220703125,0.0670000016689,1.21400010586,0,1,0,0,0,,,,,,,,,,,,,,,,,,,,,,,,,,,,,,,,,,,,,,,,,,,,,,,,,,,,,,,,,,,,,,,,,,,,,,,,,,,,,,,,,,,,,,,,,,,,,,,,,,,7933,0.0,7900,0.0,1500.0,1500.0,0.0,0.0,0.0,0.0,0.0,0.0,260226580,PX4FMU_V2,c17f0b6885b5678d25510dd57a90f80b05115e37,test,305419904.0
0.0263728797436,0.0336292460561,2.17344880104,-0.0020153161604,-0.00574030540884,0.000185647513717,0.517669320107,-0.369537651539,-9.78644275665,0.0,-0.0,0.0,0.0,0.517669320107,-0.369537651539,-9.78644275665,-0.00191598455422,-0.00557930581272,-0.00132320472039,-0.127078801394,-0.150847002864,0.428637295961,0.517669320107,-0.369537651539,-9.78644275665,-0.00318422866985,0.0232086144388,0.00790002755821,0.0,0.0,0.0,,,,,,,,,,995.029968262,152.781951904,44.1800003052,0.0,0.0,1.55440115929,0.0,-10.0,0.0,0.0,0.0,0.0,0.0,0.0,0.0,0.0,63,0,1,1.0,1.0,,,,,,,,,,,,,,,,,,,,,,,,0,2,0,0.448973327875,0,0,0.0,0.0,0.0,-0.0129198962823,-1.0,-0.800000011921,-1.0,0.0,7,0,0.0,0.0,0.0,0.0,0.0,0.0,0.0,0.0,,,,0.0,0.0,0.0,,,,,,,,0.0,0.0,0.0,0.0,0.0,0.0,1.0,1.0,0.0,,,,,,,,,,,,,,,,,,,,,,0.0,0.0,0.0,11.2421998978,11.2766647339,0.0,3.04967308044,,,,166,167,34,36,0,0,92,259953029,,,,,,,,,,,,,,,,,,,,,,,,,,,,,,,,,,,,,,,,,,,,,,,,,,,,,,,,,5.220703125,0.0670000016689,1.21400010586,0,1,0,0,0,,,,,,,,,,,,,,,,,,,,,,,,,,,,,,,,,,,,,,,,,,,,,,,,,,,,,,,,,,,,,,,,,,,,,,,,,,,,,,,,,,,,,,,,,,,,,,,,,,,7933,0.0,7900,0.0,1500.0,1500.0,0.0,0.0,0.0,0.0,0.0,0.0,260232501,PX4FMU_V2,c17f0b6885b5678d25510dd57a90f80b05115e37,test,305419904.0
0.0263749137521,0.0336266681552,2.17339491844,-0.00205016415566,-0.0056009371765,-0.00055596686434,0.523850858212,-0.364107996225,-9.787068367,0.0,-0.0,0.0,0.0,0.523850858212,-0.364107996225,-9.787068367,-0.00207568937913,-0.00531656807289,-0.00190614257008,-0.127078801394,-0.150847002864,0.428637295961,0.523850858212,-0.364107996225,-9.787068367,-0.00482442043722,0.0237252637744,0.00684920698404,0.0,0.0,0.0,,,,,,,,,,995.029968262,152.781951904,44.1800003052,0.0,0.0,1.55440115929,0.0,-10.0,0.0,0.0,0.0,0.0,0.0,0.0,0.0,0.0,63,0,1,1.0,1.0,,,,,,,,,,,,,,,,,,,,,,,,0,2,0,0.448973327875,0,0,0.0,0.0,0.0,-0.0129198962823,-1.0,-0.800000011921,-1.0,0.0,7,0,0.0,0.0,0.0,0.0,0.0,0.0,0.0,0.0,,,,0.0,0.0,0.0,,,,,,,,0.0,0.0,0.0,0.0,0.0,0.0,1.0,1.0,0.0,,,,,,,,,,,,,,,,,,,,,,0.0,0.0,0.0,11.2421998978,11.2766647339,0.0,3.04967308044,,,,166,167,34,36,0,0,92,259953029,,,,,,,,,,,,,,,,,,,,,,,,,,,,,,,,,,,,,,,,,,,,,,,,,,,,,,,,,5.21748018265,0.0670000016689,1.21400010586,0,1,0,0,0,,,,,,,,,,,,,,,,,,,,,,,,,,,,,,,,,,,,,,,,,,,,,,,,,,,,,,,,,,,,,,,,,,,,,,,,,,,,,,,,,,,,,,,,,,,,,,,,,,,7933,0.0,7900,0.0,1500.0,1500.0,0.0,0.0,0.0,0.0,0.0,0.0,260238549,PX4FMU_V2,c17f0b6885b5678d25510dd57a90f80b05115e37,test,305419904.0
0.0263741835952,0.0336227305233,2.17347598076,-0.0023070119787,-0.0052086901851,-0.00159934628755,0.515569925308,-0.346919357777,-9.78036308289,0.0,-0.0,0.0,0.0,0.515569925308,-0.346919357777,-9.78036308289,-0.00243907654658,-0.00490042055026,-0.00223063351586,-0.127958804369,-0.148286983371,0.426317304373,0.515569925308,-0.346919357777,-9.78036308289,-0.00424275593832,0.0268543418497,0.00209471769631,0.0,0.0,0.0,,,,,,,,,,995.059997559,152.528533936,44.1800003052,0.0,0.0,1.55440115929,0.0,-10.0,0.0,0.0,0.0,0.0,0.0,0.0,0.0,0.0,63,0,1,1.0,1.0,,,,,,,,,,,,,,,,,,,,,,,,0,2,0,0.448973327875,0,0,0.0,0.0,0.0,-0.0129198962823,-1.0,-0.800000011921,-1.0,0.0,7,0,0.0,0.0,0.0,0.0,0.0,0.0,0.0,0.0,,,,0.0,0.0,0.0,,,,,,,,0.0,0.0,0.0,0.0,0.0,0.0,1.0,1.0,0.0,,,,,,,,,,,,,,,,,,,,,,0.0,0.0,0.0,11.2421998978,11.2766304016,0.0,3.04967308044,,,,166,167,34,36,0,0,92,259953029,,,,,,,,,,,,,,,,,,,,,,,,,,,,,,,,,,,,,,,,,,,,,,,,,,,,,,,,,5.21748018265,0.0670000016689,1.21400010586,0,1,0,0,0,,,,,,,,,,,,,,,,,,,,,,,,,,,,,,,,,,,,,,,,,,,,,,,,,,,,,,,,,,,,,,,,,,,,,,,,,,,,,,,,,,,,,,,,,,,,,,,,,,,7933,0.0,7900,0.0,1500.0,1500.0,0.0,0.0,0.0,0.0,0.0,0.0,260244607,PX4FMU_V2,c17f0b6885b5678d25510dd57a90f80b05115e37,test,305419904.0
0.0263739842921,0.0336215831339,2.17356967926,-0.00228757900186,-0.00498298322782,-0.00202574487776,0.510402441025,-0.347551554441,-9.76965904236,0.0,-0.0,0.0,0.0,0.510402441025,-0.347551554441,-9.76965904236,-0.00218482199125,-0.00462981499732,-0.00256530568004,-0.128998801112,-0.150926992297,0.427517294884,0.510402441025,-0.347551554441,-9.76965904236,0.000380410201615,0.0275284834206,-0.00050417741295,0.0,0.0,0.0,,,,,,,,,,995.059997559,152.528533936,44.1800003052,0.0,0.0,1.55440115929,0.0,-10.0,0.0,0.0,0.0,0.0,0.0,0.0,0.0,0.0,63,0,1,1.0,1.0,,,,,,,,,,,,,,,,,,,,,,,,0,2,0,0.448973327875,0,0,0.0,0.0,0.0,-0.0129198962823,-1.0,-0.800000011921,-1.0,0.0,7,0,0.0,0.0,0.0,0.0,0.0,0.0,0.0,0.0,,,,0.0,0.0,0.0,,,,,,,,0.0,0.0,0.0,0.0,0.0,0.0,1.0,1.0,0.0,,,,,,,,,,,,,,,,,,,,,,0.0,0.0,0.0,11.2421998978,11.2766304016,0.0,3.04967308044,,,,166,167,34,36,0,0,92,259953029,,,,,,,,,,,,,,,,,,,,,,,,,,,,,,,,,,,,,,,,,,,,,,,,,,,,,,,,,5.20781230927,0.0650000050664,1.54300010204,0,1,0,0,0,,,,,,,,,,,,,,,,,,,,,,,,,,,,,,,,,,,,,,,,,,,,,,,,,,,,,,,,,,,,,,,,,,,,,,,,,,,,,,,,,,,,,,,,,,,,,,,,,,,7933,0.0,7900,0.0,1500.0,1500.0,0.0,0.0,0.0,0.0,0.0,0.0,260250623,PX4FMU_V2,c17f0b6885b5678d25510dd57a90f80b05115e37,test,305419904.0
0.0263761747628,0.0336222015321,2.17346119881,-0.00197932706214,-0.00430090446025,-0.00304546603002,0.504265427589,-0.351142793894,-9.75622081757,0.0,-0.0,0.0,0.0,0.504265427589,-0.351142793894,-9.75622081757,-0.00165007880423,-0.00375604000874,-0.00363679626025,-0.128998801112,-0.150926992297,0.427517294884,0.504265427589,-0.351142793894,-9.75622081757,0.00485191121697,0.0270125828683,-0.000757528992835,0.0,0.0,0.0,,,,,,,,,,995.039978027,152.697479248,44.1800003052,0.0,0.0,1.55440115929,0.0,-10.0,0.0,0.0,0.0,0.0,0.0,0.0,0.0,0.0,63,0,1,1.0,1.0,,,,,,,,,,,,,,,,,,,,,,,,0,2,0,0.448973327875,0,0,0.0,0.0,0.0,-0.0129198962823,-1.0,-0.800000011921,-1.0,0.0,7,0,0.0,0.0,0.0,0.0,0.0,0.0,0.0,0.0,,,,0.0,0.0,0.0,,,,,,,,0.0,0.0,0.0,0.0,0.0,0.0,1.0,1.0,0.0,,,,,,,,,,,,,,,,,,,,,,0.0,0.0,0.0,11.234000206,11.2765874863,0.0,3.04967308044,,,,166,167,34,36,0,0,92,259953029,,,,,,,,,,,,,,,,,,,,,,,,,,,,,,,,,,,,,,,,,,,,,,,,,,,,,,,,,5.22392559052,0.0650000050664,1.54300010204,0,1,0,0,0,,,,,,,,,,,,,,,,,,,,,,,,,,,,,,,,,,,,,,,,,,,,,,,,,,,,,,,,,,,,,,,,,,,,,,,,,,,,,,,,,,,,,,,,,,,,,,,,,,,7933,0.0,7900,0.0,1500.0,1500.0,0.0,0.0,0.0,0.0,0.0,0.0,260256903,PX4FMU_V2,c17f0b6885b5678d25510dd57a90f80b05115e37,test,305419904.0
0.0263787321746,0.0336247161031,2.17345333099,-0.00185897841584,-0.00392293184996,-0.00335988076404,0.505761563778,-0.360295206308,-9.76281070709,0.0,-0.0,0.0,0.0,0.505761563778,-0.360295206308,-9.76281070709,-0.00164205383044,-0.00342065398581,-0.00354683282785,-0.126838803291,-0.150766983628,0.428477287292,0.505761563778,-0.360295206308,-9.76281070709,0.000506099604536,0.028355171904,-0.00243560085073,0.0,0.0,0.0,,,,,,,,,,995.039978027,152.697479248,44.1800003052,0.0,0.0,1.55440115929,0.0,-10.0,0.0,0.0,0.0,0.0,0.0,0.0,0.0,0.0,63,0,1,1.0,1.0,,,,,,,,,,,,,,,,,,,,,,,,0,2,0,0.448973327875,0,0,0.0,0.0,0.0,-0.0129198962823,-1.0,-0.800000011921,-1.0,0.0,7,0,0.0,0.0,0.0,0.0,0.0,0.0,0.0,0.0,,,,0.0,0.0,0.0,,,,,,,,0.0,0.0,0.0,0.0,0.0,0.0,1.0,1.0,0.0,,,,,,,,,,,,,,,,,,,,,,0.0,0.0,0.0,11.234000206,11.2765874863,0.0,3.04967308044,,,,166,167,34,36,0,0,92,259953029,,,,,,,,,,,,,,,,,,,,,,,,,,,,,,,,,,,,,,,,,,,,,,,,,,,,,,,,,5.22392559052,0.0650000050664,1.54300010204,0,1,0,0,0,,,,,,,,,,,,,,,,,,,,,,,,,,,,,,,,,,,,,,,,,,,,,,,,,,,,,,,,,,,,,,,,,,,,,,,,,,,,,,,,,,,,,,,,,,,,,,,,,,,7933,0.0,7900,0.0,1500.0,1500.0,0.0,0.0,0.0,0.0,0.0,0.0,260262688,PX4FMU_V2,c17f0b6885b5678d25510dd57a90f80b05115e37,test,305419904.0
0.0263852737844,0.0336346291006,2.17343020439,-0.00174126378261,-0.00342398253269,-0.00329676177353,0.527100801468,-0.366071075201,-9.74798774719,0.0,-0.0,0.0,0.0,0.527100801468,-0.366071075201,-9.74798774719,-0.00164334790315,-0.0033049620688,-0.00270947418176,-0.127558797598,-0.150446996093,0.42879730463,0.527100801468,-0.366071075201,-9.74798774719,-0.00302896811627,0.0332891196012,-0.00364176975563,0.0,0.0,0.0,,,,,,,,,,995.029968262,152.781951904,44.1800003052,0.0,0.0,1.55440115929,0.0,-10.0,0.0,0.0,0.0,0.0,0.0,0.0,0.0,0.0,63,0,1,1.0,1.0,,,,,,,,,,,,,,,,,,,,,,,,0,2,0,0.448973327875,0,0,0.0,0.0,0.0,-0.0129198962823,-1.0,-0.800000011921,-1.0,0.0,7,0,0.0,0.0,0.0,0.0,0.0,0.0,0.0,0.0,,,,0.0,0.0,0.0,,,,,,,,0.0,0.0,0.0,0.0,0.0,0.0,1.0,1.0,0.0,,,,,,,,,,,,,,,,,,,,,,0.0,0.0,0.0,11.2913999557,11.2766027451,0.0,3.04967308044,,,,166,167,34,36,0,0,92,259953029,,,,,,,,,,,,,,,,,,,,,,,,,,,,,,,,,,,,,,,,,,,,,,,,,,,,,,,,,5.20458984375,0.0650000050664,1.54200005531,0,1,0,0,0,,,,,,,,,,,,,,,,,,,,,,,,,,,,,,,,,,,,,,,,,,,,,,,,,,,,,,,,,,,,,,,,,,,,,,,,,,,,,,,,,,,,,,,,,,,,,,,,,,,7933,0.0,7900,0.0,1500.0,1500.0,0.0,0.0,0.0,0.0,0.0,0.0,260269197,PX4FMU_V2,c17f0b6885b5678d25510dd57a90f80b05115e37,test,305419904.0
0.0263864099979,0.0336361639202,2.17337036133,-0.00164640916046,-0.00319086876698,-0.00318059511483,0.52206748724,-0.362952798605,-9.73795223236,0.0,-0.0,0.0,0.0,0.52206748724,-0.362952798605,-9.73795223236,-0.0015252957819,-0.00311184907332,-0.00259949965402,-0.127558797598,-0.150446996093,0.42879730463,0.52206748724,-0.362952798605,-9.73795223236,-0.00364869856276,0.0322366692126,-0.0030908936169,0.0,0.0,0.0,,,,,,,,,,995.029968262,152.781951904,44.1800003052,0.0,0.0,1.55440115929,0.0,-10.0,0.0,0.0,0.0,0.0,0.0,0.0,0.0,0.0,63,0,1,1.0,1.0,,,,,,,,,,,,,,,,,,,,,,,,0,2,0,0.448973327875,0,0,0.0,0.0,0.0,-0.0129198962823,-1.0,-0.800000011921,-1.0,0.0,7,0,0.0,0.0,0.0,0.0,0.0,0.0,0.0,0.0,,,,0.0,0.0,0.0,,,,,,,,0.0,0.0,0.0,0.0,0.0,0.0,1.0,1.0,0.0,,,,,,,,,,,,,,,,,,,,,,0.0,0.0,0.0,11.2913999557,11.2766027451,0.0,3.04967308044,,,,166,167,34,36,0,0,92,259953029,,,,,,,,,,,,,,,,,,,,,,,,,,,,,,,,,,,,,,,,,,,,,,,,,,,,,,,,,5.20458984375,0.0650000050664,1.54200005531,0,1,0,0,0,,,,,,,,,,,,,,,,,,,,,,,,,,,,,,,,,,,,,,,,,,,,,,,,,,,,,,,,,,,,,,,,,,,,,,,,,,,,,,,,,,,,,,,,,,,,,,,,,,,7933,0.0,7900,0.0,1500.0,1500.0,0.0,0.0,0.0,0.0,0.0,0.0,260274673,PX4FMU_V2,c17f0b6885b5678d25510dd57a90f80b05115e37,test,305419904.0
0.0263929534703,0.0336471796036,2.17340421677,-0.00143845716957,-0.00277072028257,-0.00300752487965,0.497095197439,-0.351835429668,-9.74296474457,0.0,-0.0,0.0,0.0,0.497095197439,-0.351835429668,-9.74296474457,-0.00124950066675,-0.00264799990691,-0.00270922388881,-0.128118798137,-0.149966999888,0.427037298679,0.497095197439,-0.351835429668,-9.74296474457,-0.00330500560813,0.0278338566422,0.000428181723692,0.0,0.0,0.0,,,,,,,,,,995.029968262,152.781951904,44.1800003052,0.0,0.0,1.55440115929,0.0,-10.0,0.0,0.0,0.0,0.0,0.0,0.0,0.0,0.0,63,0,1,1.0,1.0,,,,,,,,,,,,,,,,,,,,,,,,0,2,0,0.448566436768,0,0,0.0,0.0,0.0,-0.0129198962823,-1.0,-0.800000011921,-1.0,0.0,7,0,0.0,0.0,0.0,0.0,0.0,0.0,0.0,0.0,,,,0.0,0.0,0.0,,,,,,,,0.0,0.0,0.0,0.0,0.0,0.0,1.0,1.0,0.0,,,,,,,,,,,,,,,,,,,,,,0.0,0.0,0.0,11.234000206,11.2765598297,0.0,3.04967308044,,,,166,167,34,36,0,0,92,259953029,,,,,,,,,,,,,,,,,,,,,,,,,,,,,,,,,,,,,,,,,,,,,,,,,,,,,,,,,5.19814443588,0.0650000050664,1.54200005531,0,1,0,0,0,,,,,,,,,,,,,,,,,,,,,,,,,,,,,,,,,,,,,,,,,,,,,,,,,,,,,,,,,,,,,,,,,,,,,,,,,,,,,,,,,,,,,,,,,,,,,,,,,,,7933,0.0,7900,0.0,1500.0,1500.0,0.0,0.0,0.0,0.0,0.0,0.0,260280942,PX4FMU_V2,c17f0b6885b5678d25510dd57a90f80b05115e37,test,305419904.0
0.0263967216015,0.0336519293487,2.17335581779,-0.00128982134629,-0.00261755706742,-0.00291856750846,0.487728744745,-0.350451648235,-9.75340461731,0.0,-0.0,0.0,0.0,0.487728744745,-0.350451648235,-9.75340461731,-0.00109444127884,-0.00262024789117,-0.00257947808132,-0.128118798137,-0.149966999888,0.427037298679,0.487728744745,-0.350451648235,-9.75340461731,-0.00203931797296,0.026240201667,0.00200168299489,0.0,0.0,0.0,,,,,,,,,,995.029968262,152.781951904,44.1800003052,0.0,0.0,1.55440115929,0.0,-10.0,0.0,0.0,0.0,0.0,0.0,0.0,0.0,0.0,63,0,1,1.0,1.0,,,,,,,,,,,,,,,,,,,,,,,,0,2,0,0.448566436768,0,0,0.0,0.0,0.0,-0.0129198962823,-1.0,-0.800000011921,-1.0,0.0,7,0,0.0,0.0,0.0,0.0,0.0,0.0,0.0,0.0,,,,0.0,0.0,0.0,,,,,,,,0.0,0.0,0.0,0.0,0.0,0.0,1.0,1.0,0.0,,,,,,,,,,,,,,,,,,,,,,0.0,0.0,0.0,11.234000206,11.2765598297,0.0,3.04967308044,,,,166,167,34,36,0,0,92,259953029,,,,,,,,,,,,,,,,,,,,,,,,,,,,,,,,,,,,,,,,,,,,,,,,,,,,,,,,,5.19814443588,0.0650000050664,1.54200005531,0,1,0,0,0,,,,,,,,,,,,,,,,,,,,,,,,,,,,,,,,,,,,,,,,,,,,,,,,,,,,,,,,,,,,,,,,,,,,,,,,,,,,,,,,,,,,,,,,,,,,,,,,,,,7933,0.0,7900,0.0,1500.0,1500.0,0.0,0.0,0.0,0.0,0.0,0.0,260286893,PX4FMU_V2,c17f0b6885b5678d25510dd57a90f80b05115e37,test,305419904.0
0.0264052990824,0.0336599312723,2.17348670959,-0.00097807799466,-0.00265604234301,-0.00260701030493,0.486954391003,-0.344877272844,-9.77924442291,0.0,-0.0,0.0,0.0,0.486954391003,-0.344877272844,-9.77924442291,-0.000849440461025,-0.00302187586203,-0.00223034759983,-0.130358800292,-0.150286987424,0.429517298937,0.486954391003,-0.344877272844,-9.77924442291,-0.00435195956379,0.0277985688299,0.00312468502671,0.0,0.0,0.0,,,,,,,,,,995.059997559,152.528533936,44.1800003052,0.0,0.0,1.55440115929,0.0,-10.0,0.0,0.0,0.0,0.0,0.0,0.0,0.0,0.0,63,0,1,1.0,1.0,,,,,,,,,,,,,,,,,,,,,,,,0,2,0,0.448566436768,0,0,0.0,0.0,0.0,-0.0129198962823,-1.0,-0.800000011921,-1.0,0.0,7,0,0.0,0.0,0.0,0.0,0.0,0.0,0.0,0.0,,,,0.0,0.0,0.0,,,,,,,,0.0,0.0,0.0,0.0,0.0,0.0,1.0,1.0,0.0,,,,,,,,,,,,,,,,,,,,,,0.0,0.0,0.0,11.2175998688,11.2765007019,0.0,3.04967308044,,,,166,167,34,36,0,0,92,259953029,,,,,,,,,,,,,,,,,,,,,,,,,,,,,,,,,,,,,,,,,,,,,,,,,,,,,,,,,5.19814443588,0.0650000050664,1.54200005531,0,1,0,0,0,,,,,,,,,,,,,,,,,,,,,,,,,,,,,,,,,,,,,,,,,,,,,,,,,,,,,,,,,,,,,,,,,,,,,,,,,,,,,,,,,,,,,,,,,,,,,,,,,,,7933,0.0,7900,0.0,1500.0,1500.0,0.0,0.0,0.0,0.0,0.0,0.0,260292717,PX4FMU_V2,c17f0b6885b5678d25510dd57a90f80b05115e37,test,305419904.0
0.0264098271728,0.0336634330451,2.17344069481,-0.000833004247397,-0.00275848736055,-0.00249832728878,0.488503485918,-0.342742532492,-9.79454421997,0.0,-0.0,0.0,0.0,0.488503485918,-0.342742532492,-9.79454421997,-0.000690062588546,-0.00316173862666,-0.00222059409134,-0.130358800292,-0.150286987424,0.429517298937,0.488503485918,-0.342742532492,-9.79454421997,-0.00392762059346,0.0299889594316,0.00457798317075,0.0,0.0,0.0,,,,,,,,,,995.059997559,152.528533936,44.1800003052,0.0,0.0,1.55440115929,0.0,-10.0,0.0,0.0,0.0,0.0,0.0,0.0,0.0,0.0,63,0,1,1.0,1.0,,,,,,,,,,,,,,,,,,,,,,,,0,2,0,0.448566436768,0,0,0.0,0.0,0.0,-0.0129198962823,-1.0,-0.800000011921,-1.0,0.0,7,0,0.0,0.0,0.0,0.0,0.0,0.0,0.0,0.0,,,,0.0,0.0,0.0,,,,,,,,0.0,0.0,0.0,0.0,0.0,0.0,1.0,1.0,0.0,,,,,,,,,,,,,,,,,,,,,,0.0,0.0,0.0,11.2175998688,11.2765007019,0.0,3.04967308044,,,,166,167,34,36,0,0,92,259953029,,,,,,,,,,,,,,,,,,,,,,,,,,,,,,,,,,,,,,,,,,,,,,,,,,,,,,,,,5.19653320312,0.070000000298,1.52100002766,0,1,0,0,0,,,,,,,,,,,,,,,,,,,,,,,,,,,,,,,,,,,,,,,,,,,,,,,,,,,,,,,,,,,,,,,,,,,,,,,,,,,,,,,,,,,,,,,,,,,,,,,,,,,7933,0.0,7900,0.0,1500.0,1500.0,0.0,0.0,0.0,0.0,0.0,0.0,260298937,PX4FMU_V2,c17f0b6885b5678d25510dd57a90f80b05115e37,test,305419904.0
0.0264212843031,0.0336731560528,2.17335057259,-0.000645098858513,-0.0027786642313,-0.00203812937252,0.503174722195,-0.35279071331,-9.80093765259,0.0,-0.0,0.0,0.0,0.503174722195,-0.35279071331,-9.80093765259,-0.000676127965562,-0.00289970543236,-0.00159777677618,-0.126838803291,-0.152046993375,0.429277300835,0.503174722195,-0.35279071331,-9.80093765259,-0.00343383313157,0.0291972700506,0.00624049128965,0.0,0.0,0.0,,,,,,,,,,995.049987793,152.613006592,44.1800003052,0.0,0.0,1.55440115929,0.0,-10.0,0.0,0.0,0.0,0.0,0.0,0.0,0.0,0.0,63,0,1,1.0,1.0,,,,,,,,,,,,,,,,,,,,,,,,0,2,0,0.448566436768,0,0,0.0,0.0,0.0,-0.0129198962823,-1.0,-0.800000011921,-1.0,0.0,7,0,0.0,0.0,0.0,0.0,0.0,0.0,0.0,0.0,,,,0.0,0.0,0.0,,,,,,,,0.0,0.0,0.0,0.0,0.0,0.0,1.0,1.0,0.0,,,,,,,,,,,,,,,,,,,,,,0.0,0.0,0.0,11.2012004852,11.2764253616,0.0,3.04967308044,,,,166,167,34,36,0,0,92,259953029,,,,,,,,,,,,,,,,,,,,,,,,,,,,,,,,,,,,,,,,,,,,,,,,,,,,,,,,,5.19653320312,0.070000000298,1.52100002766,0,1,0,0,0,,,,,,,,,,,,,,,,,,,,,,,,,,,,,,,,,,,,,,,,,,,,,,,,,,,,,,,,,,,,,,,,,,,,,,,,,,,,,,,,,,,,,,,,,,,,,,,,,,,7933,0.0,7900,0.0,1500.0,1500.0,0.0,0.0,0.0,0.0,0.0,0.0,260304778,PX4FMU_V2,c17f0b6885b5678d25510dd57a90f80b05115e37,test,305419904.0
0.0264314450324,0.0336816944182,2.17341089249,-0.000601523497608,-0.00309747317806,-0.00178108538967,0.501059472561,-0.338274091482,-9.78518676758,0.0,-0.0,0.0,0.0,0.501059472561,-0.338274091482,-9.78518676758,-0.000751668238081,-0.00366567191668,-0.00164086325094,-0.128198802471,-0.149487003684,0.427357286215,0.501059472561,-0.338274091482,-9.78518676758,-0.00415471708402,0.0263216346502,0.00678297504783,0.0,0.0,0.0,,,,,,,,,,995.019958496,152.866424561,44.1800003052,0.0,0.0,1.55440115929,0.0,-10.0,0.0,0.0,0.0,0.0,0.0,0.0,0.0,0.0,63,0,1,1.0,1.0,,,,,,,,,,,,,,,,,,,,,,,,0,2,0,0.448566436768,0,0,0.0,0.0,0.0,-0.0129198962823,-1.0,-0.800000011921,-1.0,0.0,7,0,0.0,0.0,0.0,0.0,0.0,0.0,0.0,0.0,,,,0.0,0.0,0.0,,,,,,,,0.0,0.0,0.0,0.0,0.0,0.0,1.0,1.0,0.0,,,,,,,,,,,,,,,,,,,,,,0.0,0.0,0.0,11.283200264,11.2764320374,0.0,3.04967308044,,,,166,167,34,36,0,0,92,259953029,,,,,,,,,,,,,,,,,,,,,,,,,,,,,,,,,,,,,,,,,,,,,,,,,,,,,,,,,5.21586894989,0.0650000050664,1.23800003529,0,1,0,0,0,,,,,,,,,,,,,,,,,,,,,,,,,,,,,,,,,,,,,,,,,,,,,,,,,,,,,,,,,,,,,,,,,,,,,,,,,,,,,,,,,,,,,,,,,,,,,,,,,,,7933,0.0,7900,0.0,1500.0,1500.0,0.0,0.0,0.0,0.0,0.0,0.0,260312403,PX4FMU_V2,c17f0b6885b5678d25510dd57a90f80b05115e37,test,305419904.0
0.0264345556498,0.0336828716099,2.17336821556,-0.000735366018489,-0.00346906506456,-0.00153747946024,0.496310055256,-0.33137986064,-9.77271080017,0.0,-0.0,0.0,0.0,0.496310055256,-0.33137986064,-9.77271080017,-0.00108758057468,-0.00420675659552,-0.00115679833107,-0.128198802471,-0.149487003684,0.427357286215,0.496310055256,-0.33137986064,-9.77271080017,-0.00763110769913,0.0267873667181,0.00609085615724,0.0,0.0,0.0,,,,,,,,,,995.019958496,152.866424561,44.1800003052,0.0,0.0,1.55440115929,0.0,-10.0,0.0,0.0,0.0,0.0,0.0,0.0,0.0,0.0,63,0,1,1.0,1.0,,,,,,,,,,,,,,,,,,,,,,,,0,2,0,0.448566436768,0,0,0.0,0.0,0.0,-0.0129198962823,-1.0,-0.800000011921,-1.0,0.0,7,0,0.0,0.0,0.0,0.0,0.0,0.0,0.0,0.0,,,,0.0,0.0,0.0,,,,,,,,0.0,0.0,0.0,0.0,0.0,0.0,1.0,1.0,0.0,,,,,,,,,,,,,,,,,,,,,,0.0,0.0,0.0,11.283200264,11.2764320374,0.0,3.04967308044,,,,166,167,34,36,0,0,92,259953029,,,,,,,,,,,,,,,,,,,,,,,,,,,,,,,,,,,,,,,,,,,,,,,,,,,,,,,,,5.220703125,0.0650000050664,1.23800003529,0,1,0,0,0,,,,,,,,,,,,,,,,,,,,,,,,,,,,,,,,,,,,,,,,,,,,,,,,,,,,,,,,,,,,,,,,,,,,,,,,,,,,,,,,,,,,,,,,,,,,,,,,,,,7933,0.0,7900,0.0,1500.0,1500.0,0.0,0.0,0.0,0.0,0.0,0.0,260317829,PX4FMU_V2,c17f0b6885b5678d25510dd57a90f80b05115e37,test,305419904.0
0.026437504217,0.0336844846606,2.17335247993,-0.00106152123772,-0.00382518069819,-0.000519556808285,0.497124403715,-0.319620072842,-9.75464820862,0.0,-0.0,0.0,0.0,0.497124403715,-0.319620072842,-9.75464820862,-0.00138516072184,-0.00394153501838,0.000283153989585,-0.126278802752,-0.149487003684,0.429677307606,0.497124403715,-0.319620072842,-9.75464820862,-0.00981461070478,0.0244689621031,0.00858747959137,0.0,0.0,0.0,,,,,,,,,,995.019958496,152.866424561,44.1800003052,0.0,0.0,1.55440115929,0.0,-10.0,0.0,0.0,0.0,0.0,0.0,0.0,0.0,0.0,63,0,1,1.0,1.0,,,,,,,,,,,,,,,,,,,,,,,,0,2,0,0.448566436768,0,0,0.0,0.0,0.0,-0.0129198962823,-1.0,-0.800000011921,-1.0,0.0,7,0,0.0,0.0,0.0,0.0,0.0,0.0,0.0,0.0,,,,0.0,0.0,0.0,,,,,,,,0.0,0.0,0.0,0.0,0.0,0.0,1.0,1.0,0.0,,,,,,,,,,,,,,,,,,,,,,0.0,0.0,0.0,11.2503995895,11.2764062881,0.0,3.04967308044,,,,166,167,34,36,0,0,92,259953029,,,,,,,,,,,,,,,,,,,,,,,,,,,,,,,,,,,,,,,,,,,,,,,,,,,,,,,,,5.220703125,0.0650000050664,1.23800003529,0,1,0,0,0,,,,,,,,,,,,,,,,,,,,,,,,,,,,,,,,,,,,,,,,,,,,,,,,,,,,,,,,,,,,,,,,,,,,,,,,,,,,,,,,,,,,,,,,,,,,,,,,,,,7933,0.0,7900,0.0,1500.0,1500.0,0.0,0.0,0.0,0.0,0.0,0.0,260324442,PX4FMU_V2,c17f0b6885b5678d25510dd57a90f80b05115e37,test,305419904.0
0.0264380760491,0.0336865521967,2.17348241806,-0.00118138606194,-0.00377880851738,-8.25525348773e-05,0.502361357212,-0.317071944475,-9.75603199005,0.0,-0.0,0.0,0.0,0.502361357212,-0.317071944475,-9.75603199005,-0.00141642126255,-0.00366128445603,0.000468447513413,-0.127878800035,-0.148607000709,0.427597284317,0.502361357212,-0.317071944475,-9.75603199005,-0.0068938662298,0.0191934928298,0.0104487687349,0.0,0.0,0.0,,,,,,,,,,995.019958496,152.866424561,44.1800003052,0.0,0.0,1.55440115929,0.0,-10.0,0.0,0.0,0.0,0.0,0.0,0.0,0.0,0.0,63,0,1,1.0,1.0,,,,,,,,,,,,,,,,,,,,,,,,0,2,0,0.448566436768,0,0,0.0,0.0,0.0,-0.0129198962823,-1.0,-0.800000011921,-1.0,0.0,7,0,0.0,0.0,0.0,0.0,0.0,0.0,0.0,0.0,,,,0.0,0.0,0.0,,,,,,,,0.0,0.0,0.0,0.0,0.0,0.0,1.0,1.0,0.0,,,,,,,,,,,,,,,,,,,,,,0.0,0.0,0.0,11.2503995895,11.2764062881,0.0,3.04967308044,,,,166,167,34,36,0,0,92,259953029,,,,,,,,,,,,,,,,,,,,,,,,,,,,,,,,,,,,,,,,,,,,,,,,,,,,,,,,,5.21425771713,0.0650000050664,1.23800003529,0,1,0,0,0,,,,,,,,,,,,,,,,,,,,,,,,,,,,,,,,,,,,,,,,,,,,,,,,,,,,,,,,,,,,,,,,,,,,,,,,,,,,,,,,,,,,,,,,,,,,,,,,,,,7933,0.0,7900,0.0,1500.0,1500.0,0.0,0.0,0.0,0.0,0.0,0.0,260329897,PX4FMU_V2,c17f0b6885b5678d25510dd57a90f80b05115e37,test,305419904.0
0.0264336820692,0.0336834676564,2.17341303825,-0.00158755329903,-0.00394139857963,0.000454794499092,0.497653245926,-0.309418171644,-9.76545524597,0.0,-0.0,0.0,0.0,0.497653245926,-0.309418171644,-9.76545524597,-0.00196153763682,-0.00414981553331,0.000501557660755,-0.127878800035,-0.148607000709,0.427597284317,0.497653245926,-0.309418171644,-9.76545524597,-0.00247204559855,0.0255501978099,0.0054675466381,0.0,0.0,0.0,,,,,,,,,,995.059997559,152.528533936,44.1800003052,0.0,0.0,1.55440115929,0.0,-10.0,0.0,0.0,0.0,0.0,0.0,0.0,0.0,0.0,63,0,1,1.0,1.0,,,,,,,,,,,,,,,,,,,,,,,,0,2,0,0.448566436768,0,0,0.0,0.0,0.0,-0.0129198962823,-1.0,-0.800000011921,-1.0,0.0,7,0,0.0,0.0,0.0,0.0,0.0,0.0,0.0,0.0,,,,0.0,0.0,0.0,,,,,,,,0.0,0.0,0.0,0.0,0.0,0.0,1.0,1.0,0.0,,,,,,,,,,,,,,,,,,,,,,0.0,0.0,0.0,11.184800148,11.2763147354,0.0,3.04967308044,,,,166,167,34,36,0,0,92,259953029,,,,,,,,,,,,,,,,,,,,,,,,,,,,,,,,,,,,,,,,,,,,,,,,,,,,,,,,,5.22231435776,0.070000000298,1.21400010586,0,1,0,0,0,,,,,,,,,,,,,,,,,,,,,,,,,,,,,,,,,,,,,,,,,,,,,,,,,,,,,,,,,,,,,,,,,,,,,,,,,,,,,,,,,,,,,,,,,,,,,,,,,,,7933,0.0,7900,0.0,1500.0,1500.0,0.0,0.0,0.0,0.0,0.0,0.0,260337269,PX4FMU_V2,c17f0b6885b5678d25510dd57a90f80b05115e37,test,305419904.0
0.0264309998602,0.033684130758,2.17344975471,-0.00183869805187,-0.00402383040637,0.000650349771604,0.5007635355,-0.310771405697,-9.76395893097,0.0,-0.0,0.0,0.0,0.5007635355,-0.310771405697,-9.76395893097,-0.0022099071648,-0.00411963975057,0.000703047146089,-0.125958800316,-0.148846998811,0.426957309246,0.5007635355,-0.310771405697,-9.76395893097,-0.00167554907966,0.0293045155704,0.00549137219787,0.0,0.0,0.0,,,,,,,,,,995.059997559,152.528533936,44.1800003052,0.0,0.0,1.55440115929,0.0,-10.0,0.0,0.0,0.0,0.0,0.0,0.0,0.0,0.0,63,0,1,1.0,1.0,,,,,,,,,,,,,,,,,,,,,,,,0,2,0,0.448566436768,0,0,0.0,0.0,0.0,-0.0129198962823,-1.0,-0.800000011921,-1.0,0.0,7,0,0.0,0.0,0.0,0.0,0.0,0.0,0.0,0.0,,,,0.0,0.0,0.0,,,,,,,,0.0,0.0,0.0,0.0,0.0,0.0,1.0,1.0,0.0,,,,,,,,,,,,,,,,,,,,,,0.0,0.0,0.0,11.184800148,11.2763147354,0.0,3.04967308044,,,,166,167,34,36,0,0,92,259953029,,,,,,,,,,,,,,,,,,,,,,,,,,,,,,,,,,,,,,,,,,,,,,,,,,,,,,,,,5.22231435776,0.070000000298,1.21400010586,0,1,0,0,0,,,,,,,,,,,,,,,,,,,,,,,,,,,,,,,,,,,,,,,,,,,,,,,,,,,,,,,,,,,,,,,,,,,,,,,,,,,,,,,,,,,,,,,,,,,,,,,,,,,7933,0.0,7900,0.0,1500.0,1500.0,0.0,0.0,0.0,0.0,0.0,0.0,260342980,PX4FMU_V2,c17f0b6885b5678d25510dd57a90f80b05115e37,test,305419904.0
0.0264232195914,0.0336865745485,2.17359566689,-0.00241017341614,-0.00411575939506,0.000639144040179,0.509857416153,-0.316499948502,-9.77130126953,0.0,-0.0,0.0,0.0,0.509857416153,-0.316499948502,-9.77130126953,-0.00276303780265,-0.00412700418383,0.000274885445833,-0.129478797317,-0.149166986346,0.428397297859,0.509857416153,-0.316499948502,-9.77130126953,-0.00399621762335,0.026084408164,0.00304247206077,0.0,0.0,0.0,,,,,,,,,,995.059997559,152.528533936,44.1800003052,0.0,0.0,1.55440115929,0.0,-10.0,0.0,0.0,0.0,0.0,0.0,0.0,0.0,0.0,63,0,1,1.0,1.0,,,,,,,,,,,,,,,,,,,,,,,,0,2,0,0.448566436768,0,0,0.0,0.0,0.0,-0.0129198962823,-1.0,-0.800000011921,-1.0,0.0,7,0,0.0,0.0,0.0,0.0,0.0,0.0,0.0,0.0,,,,0.0,0.0,0.0,,,,,,,,0.0,0.0,0.0,0.0,0.0,0.0,1.0,1.0,0.0,,,,,,,,,,,,,,,,,,,,,,0.0,0.0,0.0,11.2749996185,11.2763137817,0.0,3.04967308044,,,,166,167,34,36,0,0,92,259953029,,,,,,,,,,,,,,,,,,,,,,,,,,,,,,,,,,,,,,,,,,,,,,,,,,,,,,,,,5.22392559052,0.070000000298,1.21400010586,0,1,0,0,0,,,,,,,,,,,,,,,,,,,,,,,,,,,,,,,,,,,,,,,,,,,,,,,,,,,,,,,,,,,,,,,,,,,,,,,,,,,,,,,,,,,,,,,,,,,,,,,,,,,7933,0.0,7900,0.0,1500.0,1500.0,0.0,0.0,0.0,0.0,0.0,0.0,260351025,PX4FMU_V2,c17f0b6885b5678d25510dd57a90f80b05115e37,test,305419904.0
0.0264157336205,0.0336902141571,2.17351675034,-0.00280650681816,-0.00409111566842,0.000572553602979,0.513193666935,-0.334698945284,-9.78547096252,0.0,-0.0,0.0,0.0,0.513193666935,-0.334698945284,-9.78547096252,-0.00298651307821,-0.00402507605031,0.000275749858702,-0.129478797317,-0.149166986346,0.428397297859,0.513193666935,-0.334698945284,-9.78547096252,-0.0106182061136,0.0244618989527,0.00126808090135,0.0,0.0,0.0,,,,,,,,,,995.059997559,152.528533936,44.1800003052,0.0,0.0,1.55440115929,0.0,-10.0,0.0,0.0,0.0,0.0,0.0,0.0,0.0,0.0,63,0,1,1.0,1.0,,,,,,,,,,,,,,,,,,,,,,,,0,2,0,0.448566436768,0,0,0.0,0.0,0.0,-0.0129198962823,-1.0,-0.800000011921,-1.0,0.0,7,0,0.0,0.0,0.0,0.0,0.0,0.0,0.0,0.0,,,,0.0,0.0,0.0,,,,,,,,0.0,0.0,0.0,0.0,0.0,0.0,1.0,1.0,0.0,,,,,,,,,,,,,,,,,,,,,,0.0,0.0,0.0,11.2749996185,11.2763137817,0.0,3.04967308044,,,,166,167,34,36,0,0,92,259953029,,,,,,,,,,,,,,,,,,,,,,,,,,,,,,,,,,,,,,,,,,,,,,,,,,,,,,,,,5.22714853287,0.070000000298,1.21400010586,0,1,0,0,0,,,,,,,,,,,,,,,,,,,,,,,,,,,,,,,,,,,,,,,,,,,,,,,,,,,,,,,,,,,,,,,,,,,,,,,,,,,,,,,,,,,,,,,,,,,,,,,,,,,7933,0.0,7900,0.0,1500.0,1500.0,0.0,0.0,0.0,0.0,0.0,0.0,260358203,PX4FMU_V2,c17f0b6885b5678d25510dd57a90f80b05115e37,test,305419904.0
0.0264091771096,0.0336919054389,2.17354059219,-0.00303138163872,-0.00417610630393,0.000335462682415,0.506430506706,-0.343238174915,-9.79372692108,0.0,-0.0,0.0,0.0,0.506430506706,-0.343238174915,-9.79372692108,-0.00289135426283,-0.00418805610389,-0.000102492711449,-0.12875880301,-0.151727005839,0.427517294884,0.506430506706,-0.343238174915,-9.79372692108,-0.00352312531322,0.0245178807527,0.0011282749474,0.0,0.0,0.0,,,,,,,,,,995.070007324,152.444061279,44.1800003052,0.0,0.0,1.55440115929,0.0,-10.0,0.0,0.0,0.0,0.0,0.0,0.0,0.0,0.0,63,0,1,1.0,1.0,,,,,,,,,,,,,,,,,,,,,,,,0,2,0,0.448566436768,0,0,0.0,0.0,0.0,-0.0129198962823,-1.0,-0.800000011921,-1.0,0.0,7,0,0.0,0.0,0.0,0.0,0.0,0.0,0.0,0.0,,,,0.0,0.0,0.0,,,,,,,,0.0,0.0,0.0,0.0,0.0,0.0,1.0,1.0,0.0,,,,,,,,,,,,,,,,,,,,,,0.0,0.0,0.0,11.2749996185,11.2763128281,0.0,3.04967308044,,,,166,167,34,36,0,0,92,259953029,,,,,,,,,,,,,,,,,,,,,,,,,,,,,,,,,,,,,,,,,,,,,,,,,,,,,,,,,5.22714853287,0.070000000298,1.21400010586,0,1,0,0,0,,,,,,,,,,,,,,,,,,,,,,,,,,,,,,,,,,,,,,,,,,,,,,,,,,,,,,,,,,,,,,,,,,,,,,,,,,,,,,,,,,,,,,,,,,,,,,,,,,,7933,0.0,7900,0.0,1500.0,1500.0,0.0,0.0,0.0,0.0,0.0,0.0,260364639,PX4FMU_V2,c17f0b6885b5678d25510dd57a90f80b05115e37,test,305419904.0
0.0264061838388,0.0336931422353,2.17366695404,-0.00301382527687,-0.0041159982793,-3.98762203986e-05,0.50579637289,-0.342526137829,-9.78436565399,0.0,-0.0,0.0,0.0,0.50579637289,-0.342526137829,-9.78436565399,-0.00279109575786,-0.00395888276398,-0.000832869089209,-0.128598794341,-0.149406984448,0.428477287292,0.50579637289,-0.342526137829,-9.78436565399,-0.00267517403699,0.0274052787572,0.00312614347786,0.0,0.0,0.0,,,,,,,,,,995.070007324,152.444061279,44.1800003052,0.0,0.0,1.55440115929,0.0,-10.0,0.0,0.0,0.0,0.0,0.0,0.0,0.0,0.0,63,0,1,1.0,1.0,,,,,,,,,,,,,,,,,,,,,,,,0,2,0,0.448566436768,0,0,0.0,0.0,0.0,-0.0129198962823,-1.0,-0.800000011921,-1.0,0.0,7,0,0.0,0.0,0.0,0.0,0.0,0.0,0.0,0.0,,,,0.0,0.0,0.0,,,,,,,,0.0,0.0,0.0,0.0,0.0,0.0,1.0,1.0,0.0,,,,,,,,,,,,,,,,,,,,,,0.0,0.0,0.0,11.2749996185,11.2763128281,0.0,3.04967308044,,,,166,167,34,36,0,0,92,259953029,,,,,,,,,,,,,,,,,,,,,,,,,,,,,,,,,,,,,,,,,,,,,,,,,,,,,,,,,5.22392559052,0.0670000016689,1.50900006294,0,1,0,0,0,,,,,,,,,,,,,,,,,,,,,,,,,,,,,,,,,,,,,,,,,,,,,,,,,,,,,,,,,,,,,,,,,,,,,,,,,,,,,,,,,,,,,,,,,,,,,,,,,,,7933,0.0,7900,0.0,1500.0,1500.0,0.0,0.0,0.0,0.0,0.0,0.0,260370130,PX4FMU_V2,c17f0b6885b5678d25510dd57a90f80b05115e37,test,305419904.0
0.0263994839042,0.033699106425,2.17356586456,-0.00317239249125,-0.00387597503141,-0.00126990722492,0.518879055977,-0.351056873798,-9.76723194122,0.0,-0.0,0.0,0.0,0.518879055977,-0.351056873798,-9.76723194122,-0.00320258387364,-0.00361224706285,-0.00246096774936,-0.128598794341,-0.149406984448,0.428477287292,0.518879055977,-0.351056873798,-9.76723194122,-0.00193680333905,0.0277595408261,-0.00117216235958,0.0,0.0,0.0,,,,,,,,,,995.070007324,152.444061279,44.1800003052,0.0,0.0,1.55440115929,0.0,-10.0,0.0,0.0,0.0,0.0,0.0,0.0,0.0,0.0,63,0,1,1.0,1.0,,,,,,,,,,,,,,,,,,,,,,,,0,2,0,0.448566436768,0,0,0.0,0.0,0.0,-0.0129198962823,-1.0,-0.800000011921,-1.0,0.0,7,0,0.0,0.0,0.0,0.0,0.0,0.0,0.0,0.0,,,,0.0,0.0,0.0,,,,,,,,0.0,0.0,0.0,0.0,0.0,0.0,1.0,1.0,0.0,,,,,,,,,,,,,,,,,,,,,,0.0,0.0,0.0,11.283200264,11.2763195038,0.0,3.04967308044,,,,166,167,34,36,0,0,92,259953029,,,,,,,,,,,,,,,,,,,,,,,,,,,,,,,,,,,,,,,,,,,,,,,,,,,,,,,,,5.20458984375,0.0670000016689,1.50900006294,0,1,0,0,0,,,,,,,,,,,,,,,,,,,,,,,,,,,,,,,,,,,,,,,,,,,,,,,,,,,,,,,,,,,,,,,,,,,,,,,,,,,,,,,,,,,,,,,,,,,,,,,,,,,7933,0.0,7900,0.0,1500.0,1500.0,0.0,0.0,0.0,0.0,0.0,0.0,260376816,PX4FMU_V2,c17f0b6885b5678d25510dd57a90f80b05115e37,test,305419904.0
0.0263953041285,0.0337046682835,2.17347884178,-0.00336001324467,-0.00364403543063,-0.00204035569914,0.525306105614,-0.353845089674,-9.75668430328,0.0,-0.0,0.0,0.0,0.525306105614,-0.353845089674,-9.75668430328,-0.00352369924076,-0.00323852826841,-0.00327187636867,-0.125318795443,-0.150926992297,0.427997291088,0.525306105614,-0.353845089674,-9.75668430328,-0.00379643519409,0.0261304490268,0.00050584715791,0.0,0.0,0.0,,,,,,,,,,995.070007324,152.444061279,44.1800003052,0.0,0.0,1.55440115929,0.0,-10.0,0.0,0.0,0.0,0.0,0.0,0.0,0.0,0.0,63,0,1,1.0,1.0,,,,,,,,,,,,,,,,,,,,,,,,0,2,0,0.448566436768,0,0,0.0,0.0,0.0,-0.0129198962823,-1.0,-0.800000011921,-1.0,0.0,7,0,0.0,0.0,0.0,0.0,0.0,0.0,0.0,0.0,,,,0.0,0.0,0.0,,,,,,,,0.0,0.0,0.0,0.0,0.0,0.0,1.0,1.0,0.0,,,,,,,,,,,,,,,,,,,,,,0.0,0.0,0.0,11.283200264,11.2763195038,0.0,3.04967308044,,,,166,167,34,36,0,0,92,259953029,,,,,,,,,,,,,,,,,,,,,,,,,,,,,,,,,,,,,,,,,,,,,,,,,,,,,,,,,5.20458984375,0.0670000016689,1.50900006294,0,1,0,0,0,,,,,,,,,,,,,,,,,,,,,,,,,,,,,,,,,,,,,,,,,,,,,,,,,,,,,,,,,,,,,,,,,,,,,,,,,,,,,,,,,,,,,,,,,,,,,,,,,,,7933,0.0,7900,0.0,1500.0,1500.0,0.0,0.0,0.0,0.0,0.0,0.0,260382532,PX4FMU_V2,c17f0b6885b5678d25510dd57a90f80b05115e37,test,305419904.0
0.0263818241656,0.0337195023894,2.17351913452,-0.00396397011355,-0.00308293523267,-0.0035042273812,0.526966392994,-0.349091619253,-9.76208782196,0.0,-0.0,0.0,0.0,0.526966392994,-0.349091619253,-9.76208782196,-0.00432017166167,-0.0027181901969,-0.00444312021136,-0.128598794341,-0.149727001786,0.428557306528,0.526966392994,-0.349091619253,-9.76208782196,-0.0119240703061,0.0256265606731,-3.78597032977e-05,0.0,0.0,0.0,,,,,,,,,,995.029968262,152.781951904,44.1800003052,0.0,0.0,1.55440115929,0.0,-10.0,0.0,0.0,0.0,0.0,0.0,0.0,0.0,0.0,63,0,1,1.0,1.0,,,,,,,,,,,,,,,,,,,,,,,,0,2,0,0.448566436768,0,0,0.0,0.0,0.0,-0.0129198962823,-1.0,-0.800000011921,-1.0,0.0,7,0,0.0,0.0,0.0,0.0,0.0,0.0,0.0,0.0,,,,0.0,0.0,0.0,,,,,,,,0.0,0.0,0.0,0.0,0.0,0.0,1.0,1.0,0.0,,,,,,,,,,,,,,,,,,,,,,0.0,0.0,0.0,11.209400177,11.2762527466,0.0,3.04967308044,,,,166,167,34,36,0,0,92,259953029,,,,,,,,,,,,,,,,,,,,,,,,,,,,,,,,,,,,,,,,,,,,,,,,,,,,,,,,,5.20620107651,0.062000002712,1.48400008678,0,1,0,0,0,,,,,,,,,,,,,,,,,,,,,,,,,,,,,,,,,,,,,,,,,,,,,,,,,,,,,,,,,,,,,,,,,,,,,,,,,,,,,,,,,,,,,,,,,,,,,,,,,,,7933,0.0,7900,0.0,1500.0,1500.0,0.0,0.0,0.0,0.0,0.0,0.0,260388749,PX4FMU_V2,c17f0b6885b5678d25510dd57a90f80b05115e37,test,305419904.0
0.0263628829271,0.0337352752686,2.17339205742,-0.00469446694478,-0.00277950242162,-0.00477286754176,0.519792318344,-0.35202601552,-9.76611804962,0.0,-0.0,0.0,0.0,0.519792318344,-0.35202601552,-9.76611804962,-0.00504280347377,-0.00271950196475,-0.00540459621698,-0.128598794341,-0.149727001786,0.428557306528,0.519792318344,-0.35202601552,-9.76611804962,-0.00990658719093,0.0251666549593,0.000273906072835,0.0,0.0,0.0,,,,,,,,,,995.039978027,152.697479248,44.1800003052,0.0,0.0,1.55440115929,0.0,-10.0,0.0,0.0,0.0,0.0,0.0,0.0,0.0,0.0,63,0,1,1.0,1.0,,,,,,,,,,,,,,,,,,,,,,,,0,2,0,0.448566436768,0,0,0.0,0.0,0.0,-0.0129198962823,-1.0,-0.800000011921,-1.0,0.0,7,0,0.0,0.0,0.0,0.0,0.0,0.0,0.0,0.0,,,,0.0,0.0,0.0,,,,,,,,0.0,0.0,0.0,0.0,0.0,0.0,1.0,1.0,0.0,,,,,,,,,,,,,,,,,,,,,,0.0,0.0,0.0,11.1929998398,11.2761697769,0.0,3.04967308044,,,,166,167,34,36,0,0,92,259953029,,,,,,,,,,,,,,,,,,,,,,,,,,,,,,,,,,,,,,,,,,,,,,,,,,,,,,,,,5.19653320312,0.062000002712,1.48400008678,0,1,0,0,0,,,,,,,,,,,,,,,,,,,,,,,,,,,,,,,,,,,,,,,,,,,,,,,,,,,,,,,,,,,,,,,,,,,,,,,,,,,,,,,,,,,,,,,,,,,,,,,,,,,7933,0.0,7900,0.0,1500.0,1500.0,0.0,0.0,0.0,0.0,0.0,0.0,260397504,PX4FMU_V2,c17f0b6885b5678d25510dd57a90f80b05115e37,test,305419904.0
0.0263523440808,0.0337422601879,2.17359876633,-0.00496391998604,-0.00270904484205,-0.00546298827976,0.510103344917,-0.354334205389,-9.77017879486,0.0,-0.0,0.0,0.0,0.510103344917,-0.354334205389,-9.77017879486,-0.00513232499361,-0.00272366474383,-0.00615282403305,-0.131238803267,-0.150126978755,0.428397297859,0.510103344917,-0.354334205389,-9.77017879486,-0.00727258250117,0.0265762787312,-0.000449440674856,0.0,0.0,0.0,,,,,,,,,,995.039978027,152.697479248,44.1800003052,0.0,0.0,1.55440115929,0.0,-10.0,0.0,0.0,0.0,0.0,0.0,0.0,0.0,0.0,63,0,1,1.0,1.0,,,,,,,,,,,,,,,,,,,,,,,,0,2,0,0.448566436768,0,0,0.0,0.0,0.0,-0.0129198962823,-1.0,-0.800000011921,-1.0,0.0,7,0,0.0,0.0,0.0,0.0,0.0,0.0,0.0,0.0,,,,0.0,0.0,0.0,,,,,,,,0.0,0.0,0.0,0.0,0.0,0.0,1.0,1.0,0.0,,,,,,,,,,,,,,,,,,,,,,0.0,0.0,0.0,11.1929998398,11.2761697769,0.0,3.04967308044,,,,166,167,34,36,0,0,92,259953029,,,,,,,,,,,,,,,,,,,,,,,,,,,,,,,,,,,,,,,,,,,,,,,,,,,,,,,,,5.19653320312,0.062000002712,1.48400008678,0,1,0,0,0,,,,,,,,,,,,,,,,,,,,,,,,,,,,,,,,,,,,,,,,,,,,,,,,,,,,,,,,,,,,,,,,,,,,,,,,,,,,,,,,,,,,,,,,,,,,,,,,,,,7933,0.0,7900,0.0,1500.0,1500.0,0.0,0.0,0.0,0.0,0.0,0.0,260403383,PX4FMU_V2,c17f0b6885b5678d25510dd57a90f80b05115e37,test,305419904.0
0.0263307262212,0.0337566100061,2.17369508743,-0.00514744175598,-0.00258070020936,-0.00665582111105,0.512979388237,-0.352524518967,-9.78503513336,0.0,-0.0,0.0,0.0,0.512979388237,-0.352524518967,-9.78503513336,-0.00481776380911,-0.00264330720529,-0.00695177260786,-0.130278795958,-0.149886980653,0.428877294064,0.512979388237,-0.352524518967,-9.78503513336,-0.00727275852114,0.0251992400736,-0.00257558841258,0.0,0.0,0.0,,,,,,,,,,995.039978027,152.697479248,44.1800003052,0.0,0.0,1.55440115929,0.0,-10.0,0.0,0.0,0.0,0.0,0.0,0.0,0.0,0.0,63,0,1,1.0,1.0,,,,,,,,,,,,,,,,,,,,,,,,0,2,0,0.448566436768,0,0,0.0,0.0,0.0,-0.0155038759112,-1.0,-0.800000011921,-1.0,0.0,7,0,0.0,0.0,0.0,0.0,0.0,0.0,0.0,0.0,,,,0.0,0.0,0.0,,,,,,,,0.0,0.0,0.0,0.0,0.0,0.0,1.0,1.0,0.0,,,,,,,,,,,,,,,,,,,,,,0.0,0.0,0.0,11.2258005142,11.2761192322,0.0,3.04967308044,,,,166,167,34,36,0,0,92,259953029,,,,,,,,,,,,,,,,,,,,,,,,,,,,,,,,,,,,,,,,,,,,,,,,,,,,,,,,,5.21748018265,0.0650000050664,1.24300003052,0,1,0,0,0,,,,,,,,,,,,,,,,,,,,,,,,,,,,,,,,,,,,,,,,,,,,,,,,,,,,,,,,,,,,,,,,,,,,,,,,,,,,,,,,,,,,,,,,,,,,,,,,,,,7933,0.0,7900,0.0,1500.0,1500.0,0.0,0.0,0.0,0.0,0.0,0.0,260409752,PX4FMU_V2,c17f0b6885b5678d25510dd57a90f80b05115e37,test,305419904.0
0.0263062398881,0.0337703973055,2.17354559898,-0.00469171907753,-0.00264876708388,-0.00726738665253,0.526736497879,-0.352556467056,-9.78111171722,0.0,-0.0,0.0,0.0,0.526736497879,-0.352556467056,-9.78111171722,-0.00404363917187,-0.00287361396477,-0.00690492708236,-0.130278795958,-0.149886980653,0.428877294064,0.526736497879,-0.352556467056,-9.78111171722,-0.0135723119602,0.0237609744072,-0.00637607695535,0.0,0.0,0.0,,,,,,,,,,995.059997559,152.528533936,44.1800003052,0.0,0.0,1.55440115929,0.0,-10.0,0.0,0.0,0.0,0.0,0.0,0.0,0.0,0.0,63,0,1,1.0,1.0,,,,,,,,,,,,,,,,,,,,,,,,0,2,0,0.448566436768,0,0,0.0,0.0,0.0,-0.0155038759112,-1.0,-0.800000011921,-1.0,0.0,7,0,0.0,0.0,0.0,0.0,0.0,0.0,0.0,0.0,,,,0.0,0.0,0.0,,,,,,,,0.0,0.0,0.0,0.0,0.0,0.0,1.0,1.0,0.0,,,,,,,,,,,,,,,,,,,,,,0.0,0.0,0.0,11.2258005142,11.2761192322,0.0,3.04967308044,,,,166,167,34,36,0,0,92,259953029,,,,,,,,,,,,,,,,,,,,,,,,,,,,,,,,,,,,,,,,,,,,,,,,,,,,,,,,,5.21425771713,0.0650000050664,1.24300003052,0,1,0,0,0,,,,,,,,,,,,,,,,,,,,,,,,,,,,,,,,,,,,,,,,,,,,,,,,,,,,,,,,,,,,,,,,,,,,,,,,,,,,,,,,,,,,,,,,,,,,,,,,,,,7933,0.0,7900,0.0,1500.0,1500.0,0.0,0.0,0.0,0.0,0.0,0.0,260415776,PX4FMU_V2,c17f0b6885b5678d25510dd57a90f80b05115e37,test,305419904.0
0.0262989625335,0.0337788201869,2.17368817329,-0.00442201923579,-0.00271171401255,-0.00725002167746,0.528499305248,-0.357088297606,-9.78439712524,0.0,-0.0,0.0,0.0,0.528499305248,-0.357088297606,-9.78439712524,-0.00379241327755,-0.00291545316577,-0.00660484237596,-0.129638791084,-0.149566993117,0.428477287292,0.528499305248,-0.357088297606,-9.78439712524,-0.0134969111532,0.021038370207,-0.00575144542381,0.0,0.0,0.0,,,,,,,,,,995.059997559,152.528533936,44.1800003052,0.0,0.0,1.55440115929,0.0,-10.0,0.0,0.0,0.0,0.0,0.0,0.0,0.0,0.0,63,0,1,1.0,1.0,,,,,,,,,,,,,,,,,,,,,,,,0,2,0,0.448566436768,0,0,0.0,0.0,0.0,-0.0155038759112,-1.0,-0.800000011921,-1.0,0.0,7,0,0.0,0.0,0.0,0.0,0.0,0.0,0.0,0.0,,,,0.0,0.0,0.0,,,,,,,,0.0,0.0,0.0,0.0,0.0,0.0,1.0,1.0,0.0,,,,,,,,,,,,,,,,,,,,,,0.0,0.0,0.0,11.307800293,11.2761507034,0.0,3.04967308044,,,,166,167,34,36,0,0,92,259953029,,,,,,,,,,,,,,,,,,,,,,,,,,,,,,,,,,,,,,,,,,,,,,,,,,,,,,,,,5.21425771713,0.0650000050664,1.24300003052,0,1,0,0,0,,,,,,,,,,,,,,,,,,,,,,,,,,,,,,,,,,,,,,,,,,,,,,,,,,,,,,,,,,,,,,,,,,,,,,,,,,,,,,,,,,,,,,,,,,,,,,,,,,,7933,0.0,7900,0.0,1500.0,1500.0,0.0,0.0,0.0,0.0,0.0,0.0,260422408,PX4FMU_V2,c17f0b6885b5678d25510dd57a90f80b05115e37,test,305419904.0
