ATT_Roll,ATT_Pitch,ATT_Yaw,ATT_RollRate,ATT_PitchRate,ATT_YawRate,ATT_GX,ATT_GY,ATT_GZ,ATSP_RollSP,ATSP_PitchSP,ATSP_YawSP,ATSP_ThrustSP,IMU_AccX,IMU_AccY,IMU_AccZ,IMU_GyroX,IMU_GyroY,IMU_GyroZ,IMU_MagX,IMU_MagY,IMU_MagZ,IMU1_AccX,IMU1_AccY,IMU1_AccZ,IMU1_GyroX,IMU1_GyroY,IMU1_GyroZ,IMU1_MagX,IMU1_MagY,IMU1_MagZ,IMU2_AccX,IMU2_AccY,IMU2_AccZ,IMU2_GyroX,IMU2_GyroY,IMU2_GyroZ,IMU2_MagX,IMU2_MagY,IMU2_MagZ,SENS_BaroPres,SENS_BaroAlt,SENS_BaroTemp,SENS_DiffPres,SENS_DiffPresFilt,LPOS_X,LPOS_Y,LPOS_Z,LPOS_Dist,LPOS_DistR,LPOS_VX,LPOS_VY,LPOS_VZ,LPOS_RLat,LPOS_RLon,LPOS_RAlt,LPOS_PFlg,LPOS_LFlg,LPOS_GFlg,LPOS_EPH,LPOS_EPV,LPSP_X,LPSP_Y,LPSP_Z,LPSP_Yaw,GPS_GPSTime,GPS_Fix,GPS_EPH,GPS_EPV,GPS_Lat,GPS_Lon,GPS_Alt,GPS_VelN,GPS_VelE,GPS_VelD,GPS_Cog,GPS_nSat,GPS_SNR,GPS_N,GPS_J,ATTC_Roll,ATTC_Pitch,ATTC_Yaw,ATTC_Thrust,STAT_MainState,STAT_ArmState,STAT_FailsafeState,STAT_BatRem,STAT_BatWarn,STAT_Landed,RC_Ch0,RC_Ch1,RC_Ch2,RC_Ch3,RC_Ch4,RC_Ch5,RC_Ch6,RC_Ch7,RC_Count,RC_SignalLost,OUT0_Out0,OUT0_Out1,OUT0_Out2,OUT0_Out3,OUT0_Out4,OUT0_Out5,OUT0_Out6,OUT0_Out7,AIRS_IndSpeed,AIRS_TrueSpeed,AIRS_AirTemp,ARSP_RollRateSP,ARSP_PitchRateSP,ARSP_YawRateSP,FLOW_RawX,FLOW_RawY,FLOW_CompX,FLOW_CompY,FLOW_Dist,FLOW_Q,FLOW_SensID,GPOS_Lat,GPOS_Lon,GPOS_Alt,GPOS_VelN,GPOS_VelE,GPOS_VelD,GPOS_EPH,GPOS_EPV,GPOS_TALT,GPSP_NavState,GPSP_Lat,GPSP_Lon,GPSP_Alt,GPSP_Yaw,GPSP_Type,GPSP_LoitR,GPSP_LoitDir,GPSP_PitMin,ESC_count,ESC_nESC,ESC_Conn,ESC_N,ESC_Ver,ESC_Adr,ESC_Volt,ESC_Amp,ESC_RPM,ESC_Temp,ESC_SetP,ESC_SetPRAW,GVSP_VX,GVSP_VY,GVSP_VZ,BATT_V,BATT_VFilt,BATT_C,BATT_Discharged,DIST_Bottom,DIST_BottomRate,DIST_Flags,TEL0_RSSI,TEL0_RemRSSI,TEL0_Noise,TEL0_RemNoise,TEL0_RXErr,TEL0_Fixed,TEL0_TXBuf,TEL0_HbTime,TEL1_RSSI,TEL1_RemRSSI,TEL1_Noise,TEL1_RemNoise,TEL1_RXErr,TEL1_Fixed,TEL1_TXBuf,TEL1_HbTime,TEL2_RSSI,TEL2_RemRSSI,TEL2_Noise,TEL2_RemNoise,TEL2_RXErr,TEL2_Fixed,TEL2_TXBuf,TEL2_HbTime,TEL3_RSSI,TEL3_RemRSSI,TEL3_Noise,TEL3_RemNoise,TEL3_RXErr,TEL3_Fixed,TEL3_TXBuf,TEL3_HbTime,EST0_s0,EST0_s1,EST0_s2,EST0_s3,EST0_s4,EST0_s5,EST0_s6,EST0_s7,EST0_s8,EST0_s9,EST0_s10,EST0_s11,EST0_nStat,EST0_fNaN,EST0_fHealth,EST0_fTOut,EST1_s12,EST1_s13,EST1_s14,EST1_s15,EST1_s16,EST1_s17,EST1_s18,EST1_s19,EST1_s20,EST1_s21,EST1_s22,EST1_s23,EST1_s24,EST1_s25,EST1_s26,EST1_s27,PWR_Periph5V,PWR_Servo5V,PWR_RSSI,PWR_UsbOk,PWR_BrickOk,PWR_ServoOk,PWR_PeriphOC,PWR_HipwrOC,VICN_X,VICN_Y,VICN_Z,VICN_Roll,VICN_Pitch,VICN_Yaw,VISN_X,VISN_Y,VISN_Z,VISN_VX,VISN_VY,VISN_VZ,VISN_QuatX,VISN_QuatY,VISN_QuatZ,VISN_QuatW,GS0A_s0,GS0A_s1,GS0A_s2,GS0A_s3,GS0A_s4,GS0A_s5,GS0A_s6,GS0A_s7,GS0A_s8,GS0A_s9,GS0A_s10,GS0A_s11,GS0A_s12,GS0A_s13,GS0A_s14,GS0A_s15,GS0B_s0,GS0B_s1,GS0B_s2,GS0B_s3,GS0B_s4,GS0B_s5,GS0B_s6,GS0B_s7,GS0B_s8,GS0B_s9,GS0B_s10,GS0B_s11,GS0B_s12,GS0B_s13,GS0B_s14,GS0B_s15,GS1A_s0,GS1A_s1,GS1A_s2,GS1A_s3,GS1A_s4,GS1A_s5,GS1A_s6,GS1A_s7,GS1A_s8,GS1A_s9,GS1A_s10,GS1A_s11,GS1A_s12,GS1A_s13,GS1A_s14,GS1A_s15,GS1B_s0,GS1B_s1,GS1B_s2,GS1B_s3,GS1B_s4,GS1B_s5,GS1B_s6,GS1B_s7,GS1B_s8,GS1B_s9,GS1B_s10,GS1B_s11,GS1B_s12,GS1B_s13,GS1B_s14,GS1B_s15,TECS_ASP,TECS_AF,TECS_FSP,TECS_F,TECS_FF,TECS_AsSP,TECS_AsF,TECS_AsDSP,TECS_AsD,TECS_TERSP,TECS_TER,TECS_EDRSP,TECS_EDR,TECS_M,WIND_X,WIND_Y,WIND_CovX,WIND_CovY,ENCD_cnt0,ENCD_vel0,ENCD_cnt1,ENCD_vel1,OUT1_Out0,OUT1_Out1,OUT1_Out2,OUT1_Out3,OUT1_Out4,OUT1_Out5,OUT1_Out6,OUT1_Out7,TIME_StartTime,VER_Arch,VER_FwGit,PARM_Name,PARM_Value
,,,,,,,,,,,,,,,,,,,,,,,,,,,,,,,,,,,,,,,,,,,,,,,,,,,,,,,,,,,,,,,,,,,,,,,,,,,,,,,,,,,,,,,,,,,,,,,,,,,,,,,,,,,,,,,,,,,,,,,,,,,,,,,,,,,,,,,,,,,,,,,,,,,,,,,,,,,,,,,,,,,,,,,,,,,,,,,,,,,,,,,,,,,,,,,,,,,,,,,,,,,,,,,,,,,,,,,,,,,,,,,,,,,,,,,,,,,,,,,,,,,,,,,,,,,,,,,,,,,,,,,,,,,,,,,,,,,,,,,,,,,,,,,,,,,,,,,,,,,,,,,,,,,,,,,,,,,,,,,,,,,,,,,,,,,,,,,,,,,,,,,,PX4FMU_V2,c17f0b6885b5678d25510dd57a90f80b05115e37,test,305419904.0
0.0570231154561,-0.209586381912,-1.25572705269,0.00739901512861,-0.000884634733666,0.00557709950954,-1.91167092323,-0.376161515713,-9.57613658905,0.0,-0.0,0.0,0.0,-1.91167092323,-0.376161515713,-9.57613658905,0.00760479830205,-0.000981583958492,0.00160896312445,0.148281171918,0.195632994175,0.412717282772,-1.91167092323,-0.376161515713,-9.57613658905,0.00451622763649,0.0243072826415,0.00285621359944,0.0,0.0,0.0,,,,,,,,,,995.130004883,151.937255859,42.4599990845,0.0,0.0,9.81747725746e-05,0.0,-10.0,0.0,0.0,0.0,0.0,0.0,0.0,0.0,0.0,63,0,1,1.0,1.0,,,,,,,,,,,,,,,,,,,,,,,,0,2,0,0.480899184942,0,0,0.0,0.0,0.0,0.9413408041,-1.0,-0.800000011921,-1.0,0.0,7,0,0.0,0.0,0.0,0.0,0.0,0.0,0.0,0.0,,,,0.0,0.0,0.0,,,,,,,,0.0,0.0,0.0,0.0,0.0,0.0,1.0,1.0,0.0,,,,,,,,,,,,,,,,,,,,,,0.0,0.0,0.0,11.332400322,11.3532161713,0.0,0.162777781487,,,,167,169,34,27,0,0,100,19895275,,,,,,,,,,,,,,,,,,,,,,,,,,,,,,,,,,,,,,,,,,,,,,,,,,,,,,,,,5.220703125,0.0600000023842,1.4960000515,0,1,0,0,0,,,,,,,,,,,,,,,,,,,,,,,,,,,,,,,,,,,,,,,,,,,,,,,,,,,,,,,,,,,,,,,,,,,,,,,,,,,,,,,,,,,,,,,,,,,,,,,,,,,1,0.0,0,0.0,1500.0,1500.0,0.0,0.0,0.0,0.0,0.0,0.0,20136446,PX4FMU_V2,c17f0b6885b5678d25510dd57a90f80b05115e37,test,305419904.0
0.0570560730994,-0.209576889873,-1.25562047958,0.010691838339,-0.00268606306054,-0.00303940637968,-1.93426072598,-0.354779154062,-9.57397556305,0.0,-0.0,0.0,0.0,-1.93426072598,-0.354779154062,-9.57397556305,0.0119998874143,-0.00245343567804,-0.00459065288305,0.147081181407,0.195473000407,0.411437302828,-1.93426072598,-0.354779154062,-9.57397556305,0.00783357117325,0.0262202322483,-0.00522101670504,0.0,0.0,0.0,,,,,,,,,,995.130004883,151.937255859,42.4599990845,0.0,0.0,9.81747725746e-05,0.0,-10.0,0.0,0.0,0.0,0.0,0.0,0.0,0.0,0.0,63,0,1,1.0,1.0,,,,,,,,,,,,,,,,,,,,,,,,0,2,0,0.480546712875,0,0,0.0,0.0,0.0,0.9413408041,-1.0,-0.800000011921,-1.0,0.0,7,0,0.0,0.0,0.0,0.0,0.0,0.0,0.0,0.0,,,,0.0,0.0,0.0,,,,,,,,0.0,0.0,0.0,0.0,0.0,0.0,1.0,1.0,0.0,,,,,,,,,,,,,,,,,,,,,,0.0,0.0,0.0,11.2749996185,11.35313797,0.0,0.162777781487,,,,167,169,34,27,0,0,100,19895275,,,,,,,,,,,,,,,,,,,,,,,,,,,,,,,,,,,,,,,,,,,,,,,,,,,,,,,,,5.220703125,0.0600000023842,1.4960000515,0,1,0,0,0,,,,,,,,,,,,,,,,,,,,,,,,,,,,,,,,,,,,,,,,,,,,,,,,,,,,,,,,,,,,,,,,,,,,,,,,,,,,,,,,,,,,,,,,,,,,,,,,,,,1,0.0,0,0.0,1500.0,1500.0,0.0,0.0,0.0,0.0,0.0,0.0,20143647,PX4FMU_V2,c17f0b6885b5678d25510dd57a90f80b05115e37,test,305419904.0
0.0571314841509,-0.209571763873,-1.25572180748,0.0144979171455,-0.0037515393924,-0.00891809724271,-1.92554366589,-0.38613024354,-9.56510257721,0.0,-0.0,0.0,0.0,-1.92554366589,-0.38613024354,-9.56510257721,0.0156565047801,-0.00289734802209,-0.00791237223893,0.145721182227,0.196272999048,0.411197304726,-1.92554366589,-0.38613024354,-9.56510257721,0.0186087191105,0.025077059865,-0.00578192528337,0.0,0.0,0.0,,,,,,,,,,995.130004883,151.937255859,42.4599990845,0.0,0.0,9.81747725746e-05,0.0,-10.0,0.0,0.0,0.0,0.0,0.0,0.0,0.0,0.0,63,0,1,1.0,1.0,,,,,,,,,,,,,,,,,,,,,,,,0,2,0,0.480546712875,0,0,0.0,0.0,0.0,0.9413408041,-1.0,-0.800000011921,-1.0,0.0,7,0,0.0,0.0,0.0,0.0,0.0,0.0,0.0,0.0,,,,0.0,0.0,0.0,,,,,,,,0.0,0.0,0.0,0.0,0.0,0.0,1.0,1.0,0.0,,,,,,,,,,,,,,,,,,,,,,0.0,0.0,0.0,11.2749996185,11.35313797,0.0,0.162777781487,,,,167,169,34,27,0,0,100,19895275,,,,,,,,,,,,,,,,,,,,,,,,,,,,,,,,,,,,,,,,,,,,,,,,,,,,,,,,,5.23681640625,0.0600000023842,1.4960000515,0,1,0,0,0,,,,,,,,,,,,,,,,,,,,,,,,,,,,,,,,,,,,,,,,,,,,,,,,,,,,,,,,,,,,,,,,,,,,,,,,,,,,,,,,,,,,,,,,,,,,,,,,,,,1,0.0,0,0.0,1500.0,1500.0,0.0,0.0,0.0,0.0,0.0,0.0,20150382,PX4FMU_V2,c17f0b6885b5678d25510dd57a90f80b05115e37,test,305419904.0
0.0582565441728,-0.209441542625,-1.25601041317,0.00425846828148,0.014908188954,0.0253548566252,-2.00926661491,-0.526690065861,-9.49838256836,0.0,-0.0,0.0,0.0,-2.0110039711,-0.572896659374,-9.49989700317,0.00416676141322,0.0147037999704,0.0222073309124,0.147481173277,0.195872992277,0.410477310419,-2.0110039711,-0.572896659374,-9.49989700317,-0.00334917358123,0.0417564772069,0.0279965084046,0.0,0.0,0.0,,,,,,,,,,995.159973145,151.683853149,42.469997406,0.0,0.0,9.81747725746e-05,0.0,-10.0,0.0,0.0,0.0,0.0,0.0,0.0,0.0,0.0,63,0,1,1.0,1.0,,,,,,,,,,,,,,,,,,,,,,,,0,2,0,0.480546712875,0,0,0.0,0.0,0.0,0.9413408041,-1.0,-0.800000011921,-1.0,0.0,7,0,0.0,0.0,0.0,0.0,0.0,0.0,0.0,0.0,,,,0.0,0.0,0.0,,,,,,,,0.0,0.0,0.0,0.0,0.0,0.0,1.0,1.0,0.0,,,,,,,,,,,,,,,,,,,,,,0.0,0.0,0.0,11.3487997055,11.3529224396,0.223200008273,0.164853334427,,,,167,169,34,27,0,0,100,19895275,,,,,,,,,,,,,,,,,,,,,,,,,,,,,,,,,,,,,,,,,,,,,,,,,,,,,,,,,5.22392559052,0.070000000298,1.53100001812,0,1,0,0,0,,,,,,,,,,,,,,,,,,,,,,,,,,,,,,,,,,,,,,,,,,,,,,,,,,,,,,,,,,,,,,,,,,,,,,,,,,,,,,,,,,,,,,,,,,,,,,,,,,,1,0.0,0,0.0,1500.0,1500.0,0.0,0.0,0.0,0.0,0.0,0.0,20254805,PX4FMU_V2,c17f0b6885b5678d25510dd57a90f80b05115e37,test,305419904.0
0.0582353845239,-0.209323465824,-1.25570487976,0.00290338578634,0.0169250126928,0.0215232260525,-1.98882341385,-0.477747619152,-9.47914981842,0.0,-0.0,0.0,0.0,-1.98882341385,-0.477747619152,-9.47914981842,0.0027641991619,0.0168754421175,0.0174444913864,0.147001177073,0.195553004742,0.41247728467,-1.98882341385,-0.477747619152,-9.47914981842,0.000283783097984,0.040646340698,0.0190383531153,0.0,0.0,0.0,,,,,,,,,,995.130004883,151.937255859,42.469997406,0.0,0.0,9.81747725746e-05,0.0,-10.0,0.0,0.0,0.0,0.0,0.0,0.0,0.0,0.0,63,0,1,1.0,1.0,,,,,,,,,,,,,,,,,,,,,,,,0,2,0,0.480546712875,0,0,0.0,0.0,0.0,0.9413408041,-1.0,-0.800000011921,-1.0,0.0,7,0,0.0,0.0,0.0,0.0,0.0,0.0,0.0,0.0,,,,0.0,0.0,0.0,,,,,,,,0.0,0.0,0.0,0.0,0.0,0.0,1.0,1.0,0.0,,,,,,,,,,,,,,,,,,,,,,0.0,0.0,0.0,11.3487997055,11.3529224396,0.223200008273,0.164853334427,,,,167,169,34,27,0,0,100,19895275,,,,,,,,,,,,,,,,,,,,,,,,,,,,,,,,,,,,,,,,,,,,,,,,,,,,,,,,,5.220703125,0.0670000016689,1.51100003719,0,1,0,0,0,,,,,,,,,,,,,,,,,,,,,,,,,,,,,,,,,,,,,,,,,,,,,,,,,,,,,,,,,,,,,,,,,,,,,,,,,,,,,,,,,,,,,,,,,,,,,,,,,,,1,0.0,0,0.0,1500.0,1500.0,0.0,0.0,0.0,0.0,0.0,0.0,20268015,PX4FMU_V2,c17f0b6885b5678d25510dd57a90f80b05115e37,test,305419904.0
0.0582244694233,-0.209186077118,-1.2554012537,0.00293761515059,0.0181710459292,0.0161967463791,-1.93482470512,-0.497788459063,-9.49669075012,0.0,-0.0,0.0,0.0,-1.93482470512,-0.497788459063,-9.49669075012,0.00413373438641,0.0175494272262,0.0109695084393,0.147001177073,0.195553004742,0.41247728467,-1.93482470512,-0.497788459063,-9.49669075012,0.00744625320658,0.0386192947626,0.0113094169647,0.0,0.0,0.0,,,,,,,,,,995.109985352,152.106185913,42.469997406,0.0,0.0,9.81747725746e-05,0.0,-10.0,0.0,0.0,0.0,0.0,0.0,0.0,0.0,0.0,63,0,1,1.0,1.0,,,,,,,,,,,,,,,,,,,,,,,,0,2,0,0.480546712875,0,0,0.0,0.0,0.0,0.9413408041,-1.0,-0.800000011921,-1.0,0.0,7,0,0.0,0.0,0.0,0.0,0.0,0.0,0.0,0.0,,,,0.0,0.0,0.0,,,,,,,,0.0,0.0,0.0,0.0,0.0,0.0,1.0,1.0,0.0,,,,,,,,,,,,,,,,,,,,,,0.0,0.0,0.0,11.2503995895,11.3528194427,0.260399997234,0.165722221136,,,,167,169,34,27,0,0,100,19895275,,,,,,,,,,,,,,,,,,,,,,,,,,,,,,,,,,,,,,,,,,,,,,,,,,,,,,,,,5.22392559052,0.0670000016689,1.51100003719,0,1,0,0,0,,,,,,,,,,,,,,,,,,,,,,,,,,,,,,,,,,,,,,,,,,,,,,,,,,,,,,,,,,,,,,,,,,,,,,,,,,,,,,,,,,,,,,,,,,,,,,,,,,,1,0.0,0,0.0,1500.0,1500.0,0.0,0.0,0.0,0.0,0.0,0.0,20274285,PX4FMU_V2,c17f0b6885b5678d25510dd57a90f80b05115e37,test,305419904.0
0.058227609843,-0.209109529853,-1.25523889065,0.00327303633094,0.0186105333269,0.0123635604978,-1.91581499577,-0.510273873806,-9.5228433609,0.0,-0.0,0.0,0.0,-1.91581499577,-0.510273873806,-9.5228433609,0.00458738021553,0.0178474895656,0.0061417510733,0.146281182766,0.194673001766,0.410557299852,-1.91581499577,-0.510273873806,-9.5228433609,0.0083624701947,0.0401105806231,0.00329802371562,0.0,0.0,0.0,,,,,,,,,,995.109985352,152.106185913,42.469997406,0.0,0.0,9.81747725746e-05,0.0,-10.0,0.0,0.0,0.0,0.0,0.0,0.0,0.0,0.0,63,0,1,1.0,1.0,,,,,,,,,,,,,,,,,,,,,,,,0,2,0,0.480341285467,0,0,0.0,0.0,0.0,0.9413408041,-1.0,-0.800000011921,-1.0,0.0,7,0,0.0,0.0,0.0,0.0,0.0,0.0,0.0,0.0,,,,0.0,0.0,0.0,,,,,,,,0.0,0.0,0.0,0.0,0.0,0.0,1.0,1.0,0.0,,,,,,,,,,,,,,,,,,,,,,0.0,0.0,0.0,11.2503995895,11.3528194427,0.260399997234,0.165722221136,,,,167,169,34,27,0,0,100,19895275,,,,,,,,,,,,,,,,,,,,,,,,,,,,,,,,,,,,,,,,,,,,,,,,,,,,,,,,,5.22392559052,0.0670000016689,1.51100003719,0,1,0,0,0,,,,,,,,,,,,,,,,,,,,,,,,,,,,,,,,,,,,,,,,,,,,,,,,,,,,,,,,,,,,,,,,,,,,,,,,,,,,,,,,,,,,,,,,,,,,,,,,,,,1,0.0,0,0.0,1500.0,1500.0,0.0,0.0,0.0,0.0,0.0,0.0,20280090,PX4FMU_V2,c17f0b6885b5678d25510dd57a90f80b05115e37,test,305419904.0
0.0582466423512,-0.208951666951,-1.25498175621,0.00350395264104,0.0189442094415,0.00209524575621,-1.92902028561,-0.514900743961,-9.56564712524,0.0,-0.0,0.0,0.0,-1.92902028561,-0.514900743961,-9.56564712524,0.00409716973081,0.0177308656275,-0.00600696727633,0.146361172199,0.195793002844,0.413597285748,-1.92902028561,-0.514900743961,-9.56564712524,0.00219703326002,0.0398886725307,-0.0147604551166,0.0,0.0,0.0,,,,,,,,,,995.109985352,152.106185913,42.469997406,0.0,0.0,9.81747725746e-05,0.0,-10.0,0.0,0.0,0.0,0.0,0.0,0.0,0.0,0.0,63,0,1,1.0,1.0,,,,,,,,,,,,,,,,,,,,,,,,0,2,0,0.480341285467,0,0,0.0,0.0,0.0,0.9413408041,-1.0,-0.800000011921,-1.0,0.0,7,0,0.0,0.0,0.0,0.0,0.0,0.0,0.0,0.0,,,,0.0,0.0,0.0,,,,,,,,0.0,0.0,0.0,0.0,0.0,0.0,1.0,1.0,0.0,,,,,,,,,,,,,,,,,,,,,,0.0,0.0,0.0,11.3406000137,11.352807045,0.136399999261,0.166177511215,,,,167,169,34,27,0,0,100,19895275,,,,,,,,,,,,,,,,,,,,,,,,,,,,,,,,,,,,,,,,,,,,,,,,,,,,,,,,,5.23520517349,0.0670000016689,1.51100003719,0,1,0,0,0,,,,,,,,,,,,,,,,,,,,,,,,,,,,,,,,,,,,,,,,,,,,,,,,,,,,,,,,,,,,,,,,,,,,,,,,,,,,,,,,,,,,,,,,,,,,,,,,,,,1,0.0,0,0.0,1500.0,1500.0,0.0,0.0,0.0,0.0,0.0,0.0,20286420,PX4FMU_V2,c17f0b6885b5678d25510dd57a90f80b05115e37,test,305419904.0
0.0582599453628,-0.208872288465,-1.25485503674,0.00340331951156,0.0188642125577,-0.00411897432059,-1.93946361542,-0.495680689812,-9.57816696167,0.0,-0.0,0.0,0.0,-1.93946361542,-0.495680689812,-9.57816696167,0.00369982491247,0.017448130995,-0.0126721095294,0.146361172199,0.195793002844,0.413597285748,-1.93946361542,-0.495680689812,-9.57816696167,0.000979560078122,0.0439172610641,-0.0191325321794,0.0,0.0,0.0,,,,,,,,,,995.109985352,152.106185913,42.469997406,0.0,0.0,9.81747725746e-05,0.0,-10.0,0.0,0.0,0.0,0.0,0.0,0.0,0.0,0.0,63,0,1,1.0,1.0,,,,,,,,,,,,,,,,,,,,,,,,0,2,0,0.480341285467,0,0,0.0,0.0,0.0,0.9413408041,-1.0,-0.800000011921,-1.0,0.0,7,0,0.0,0.0,0.0,0.0,0.0,0.0,0.0,0.0,,,,0.0,0.0,0.0,,,,,,,,0.0,0.0,0.0,0.0,0.0,0.0,1.0,1.0,0.0,,,,,,,,,,,,,,,,,,,,,,0.0,0.0,0.0,11.3406000137,11.352807045,0.136399999261,0.166177511215,,,,167,169,34,27,0,0,100,19895275,,,,,,,,,,,,,,,,,,,,,,,,,,,,,,,,,,,,,,,,,,,,,,,,,,,,,,,,,5.23520517349,0.0670000016689,1.51100003719,0,1,0,0,0,,,,,,,,,,,,,,,,,,,,,,,,,,,,,,,,,,,,,,,,,,,,,,,,,,,,,,,,,,,,,,,,,,,,,,,,,,,,,,,,,,,,,,,,,,,,,,,,,,,1,0.0,0,0.0,1500.0,1500.0,0.0,0.0,0.0,0.0,0.0,0.0,20292217,PX4FMU_V2,c17f0b6885b5678d25510dd57a90f80b05115e37,test,305419904.0
0.0582934692502,-0.208710208535,-1.25477468967,0.00309489620849,0.0188012011349,-0.0171080715954,-1.95034146309,-0.462576121092,-9.58489131927,0.0,-0.0,0.0,0.0,-1.95034146309,-0.462576121092,-9.58489131927,0.00330470874906,0.0178639888763,-0.0246342979372,0.145961180329,0.196832999587,0.412637293339,-1.95034146309,-0.462576121092,-9.58489131927,0.00242381519638,0.04674930498,-0.0236821752042,0.0,0.0,0.0,,,,,,,,,,995.149963379,151.768325806,42.469997406,0.0,0.0,9.81747725746e-05,0.0,-10.0,0.0,0.0,0.0,0.0,0.0,0.0,0.0,0.0,63,0,1,1.0,1.0,,,,,,,,,,,,,,,,,,,,,,,,0,2,0,0.480341285467,0,0,0.0,0.0,0.0,0.932960867882,-1.0,-0.800000011921,-1.0,0.0,7,0,0.0,0.0,0.0,0.0,0.0,0.0,0.0,0.0,,,,0.0,0.0,0.0,,,,,,,,0.0,0.0,0.0,0.0,0.0,0.0,1.0,1.0,0.0,,,,,,,,,,,,,,,,,,,,,,0.0,0.0,0.0,11.2995996475,11.3527536392,0.0,0.166177511215,,,,167,169,34,27,0,0,100,19895275,,,,,,,,,,,,,,,,,,,,,,,,,,,,,,,,,,,,,,,,,,,,,,,,,,,,,,,,,5.22231435776,0.0670000016689,1.22800004482,0,1,0,0,0,,,,,,,,,,,,,,,,,,,,,,,,,,,,,,,,,,,,,,,,,,,,,,,,,,,,,,,,,,,,,,,,,,,,,,,,,,,,,,,,,,,,,,,,,,,,,,,,,,,1,0.0,0,0.0,1500.0,1500.0,0.0,0.0,0.0,0.0,0.0,0.0,20298501,PX4FMU_V2,c17f0b6885b5678d25510dd57a90f80b05115e37,test,305419904.0
0.058315590024,-0.208625212312,-1.25475895405,0.00311969220638,0.0190265290439,-0.023044668138,-1.94671261311,-0.455921709538,-9.5796546936,0.0,-0.0,0.0,0.0,-1.94671261311,-0.455921709538,-9.5796546936,0.00358167407103,0.0184717345983,-0.0289934966713,0.145961180329,0.196832999587,0.412637293339,-1.94671261311,-0.455921709538,-9.5796546936,0.0044501516968,0.0461971834302,-0.0277391523123,0.0,0.0,0.0,,,,,,,,,,995.149963379,151.768325806,42.469997406,0.0,0.0,9.81747725746e-05,0.0,-10.0,0.0,0.0,0.0,0.0,0.0,0.0,0.0,0.0,63,0,1,1.0,1.0,,,,,,,,,,,,,,,,,,,,,,,,0,2,0,0.480341285467,0,0,0.0,0.0,0.0,0.932960867882,-1.0,-0.800000011921,-1.0,0.0,7,0,0.0,0.0,0.0,0.0,0.0,0.0,0.0,0.0,,,,0.0,0.0,0.0,,,,,,,,0.0,0.0,0.0,0.0,0.0,0.0,1.0,1.0,0.0,,,,,,,,,,,,,,,,,,,,,,0.0,0.0,0.0,11.2995996475,11.3527536392,0.0,0.166177511215,,,,167,169,34,27,0,0,100,19895275,,,,,,,,,,,,,,,,,,,,,,,,,,,,,,,,,,,,,,,,,,,,,,,,,,,,,,,,,5.22231435776,0.0670000016689,1.22800004482,0,1,0,0,0,,,,,,,,,,,,,,,,,,,,,,,,,,,,,,,,,,,,,,,,,,,,,,,,,,,,,,,,,,,,,,,,,,,,,,,,,,,,,,,,,,,,,,,,,,,,,,,,,,,1,0.0,0,0.0,1500.0,1500.0,0.0,0.0,0.0,0.0,0.0,0.0,20304222,PX4FMU_V2,c17f0b6885b5678d25510dd57a90f80b05115e37,test,305419904.0
0.0583773739636,-0.208445131779,-1.25493180752,0.00403404887766,0.0198174640536,-0.0330313369632,-1.94474482536,-0.460972249508,-9.62434673309,0.0,-0.0,0.0,0.0,-1.94474482536,-0.460972249508,-9.62434673309,0.00538537837565,0.019674371928,-0.035963460803,0.145881175995,0.198112994432,0.41111728549,-1.94474482536,-0.460972249508,-9.62434673309,0.00292381783947,0.0466494262218,-0.0387403890491,0.0,0.0,0.0,,,,,,,,,,995.149963379,151.768325806,42.469997406,0.0,0.0,9.81747725746e-05,0.0,-10.0,0.0,0.0,0.0,0.0,0.0,0.0,0.0,0.0,63,0,1,1.0,1.0,,,,,,,,,,,,,,,,,,,,,,,,0,2,0,0.480341285467,0,0,0.0,0.0,0.0,0.932960867882,-1.0,-0.800000011921,-1.0,0.0,7,0,0.0,0.0,0.0,0.0,0.0,0.0,0.0,0.0,,,,0.0,0.0,0.0,,,,,,,,0.0,0.0,0.0,0.0,0.0,0.0,1.0,1.0,0.0,,,,,,,,,,,,,,,,,,,,,,0.0,0.0,0.0,11.3159999847,11.3527164459,0.0,0.166177511215,,,,167,169,34,27,0,0,100,19895275,,,,,,,,,,,,,,,,,,,,,,,,,,,,,,,,,,,,,,,,,,,,,,,,,,,,,,,,,5.21425771713,0.0670000016689,1.22100007534,0,1,0,0,0,,,,,,,,,,,,,,,,,,,,,,,,,,,,,,,,,,,,,,,,,,,,,,,,,,,,,,,,,,,,,,,,,,,,,,,,,,,,,,,,,,,,,,,,,,,,,,,,,,,1,0.0,0,0.0,1500.0,1500.0,0.0,0.0,0.0,0.0,0.0,0.0,20310939,PX4FMU_V2,c17f0b6885b5678d25510dd57a90f80b05115e37,test,305419904.0
0.0584809780121,-0.208221450448,-1.25504863262,0.00586744211614,0.0207455269992,-0.0434653237462,-1.9312671423,-0.444191306829,-9.66305160522,0.0,-0.0,0.0,0.0,-1.9312671423,-0.444191306829,-9.66305160522,0.0074565988034,0.0204402729869,-0.0458149053156,0.148601174355,0.195473000407,0.413277298212,-1.9312671423,-0.444191306829,-9.66305160522,0.00351762119681,0.0471745915711,-0.0535860359669,0.0,0.0,0.0,,,,,,,,,,995.149963379,151.768325806,42.469997406,0.0,0.0,9.81747725746e-05,0.0,-10.0,0.0,0.0,0.0,0.0,0.0,0.0,0.0,0.0,63,0,1,1.0,1.0,,,,,,,,,,,,,,,,,,,,,,,,0,2,0,0.480341285467,0,0,0.0,0.0,0.0,0.930167615414,-1.0,-0.800000011921,-1.0,0.0,7,0,0.0,0.0,0.0,0.0,0.0,0.0,0.0,0.0,,,,0.0,0.0,0.0,,,,,,,,0.0,0.0,0.0,0.0,0.0,0.0,1.0,1.0,0.0,,,,,,,,,,,,,,,,,,,,,,0.0,0.0,0.0,11.3159999847,11.3527164459,0.0,0.166177511215,,,,167,169,34,27,0,0,100,19895275,,,,,,,,,,,,,,,,,,,,,,,,,,,,,,,,,,,,,,,,,,,,,,,,,,,,,,,,,5.21103525162,0.0670000016689,1.22100007534,0,1,0,0,0,,,,,,,,,,,,,,,,,,,,,,,,,,,,,,,,,,,,,,,,,,,,,,,,,,,,,,,,,,,,,,,,,,,,,,,,,,,,,,,,,,,,,,,,,,,,,,,,,,,1,0.0,0,0.0,1500.0,1500.0,0.0,0.0,0.0,0.0,0.0,0.0,20318684,PX4FMU_V2,c17f0b6885b5678d25510dd57a90f80b05115e37,test,305419904.0
0.0585353076458,-0.208120703697,-1.25516831875,0.00681605003774,0.0208778306842,-0.0484662391245,-1.92743468285,-0.437783330679,-9.66021347046,0.0,-0.0,0.0,0.0,-1.92743468285,-0.437783330679,-9.66021347046,0.00832567550242,0.0202861987054,-0.0511261187494,0.148601174355,0.195473000407,0.413277298212,-1.92743468285,-0.437783330679,-9.66021347046,0.0011712082196,0.0457224994898,-0.0571884550154,0.0,0.0,0.0,,,,,,,,,,995.08996582,152.275131226,42.469997406,0.0,0.0,9.81747725746e-05,0.0,-10.0,0.0,0.0,0.0,0.0,0.0,0.0,0.0,0.0,63,0,1,1.0,1.0,,,,,,,,,,,,,,,,,,,,,,,,0,2,0,0.480341285467,0,0,0.0,0.0,0.0,0.930167615414,-1.0,-0.800000011921,-1.0,0.0,7,0,0.0,0.0,0.0,0.0,0.0,0.0,0.0,0.0,,,,0.0,0.0,0.0,,,,,,,,0.0,0.0,0.0,0.0,0.0,0.0,1.0,1.0,0.0,,,,,,,,,,,,,,,,,,,,,,0.0,0.0,0.0,11.283200264,11.3526468277,0.0372000001371,0.166301950812,,,,167,169,34,27,0,0,100,19895275,,,,,,,,,,,,,,,,,,,,,,,,,,,,,,,,,,,,,,,,,,,,,,,,,,,,,,,,,5.22714853287,0.0670000016689,1.22100007534,0,1,0,0,0,,,,,,,,,,,,,,,,,,,,,,,,,,,,,,,,,,,,,,,,,,,,,,,,,,,,,,,,,,,,,,,,,,,,,,,,,,,,,,,,,,,,,,,,,,,,,,,,,,,1,0.0,0,0.0,1500.0,1500.0,0.0,0.0,0.0,0.0,0.0,0.0,20324315,PX4FMU_V2,c17f0b6885b5678d25510dd57a90f80b05115e37,test,305419904.0
0.058670271188,-0.207917749882,-1.25550687313,0.00855265185237,0.0208332724869,-0.0593217425048,-1.93418943882,-0.474354743958,-9.63319587708,0.0,-0.0,0.0,0.0,-1.93418943882,-0.474354743958,-9.63319587708,0.00964989792556,0.0200177226216,-0.0624525994062,0.145161181688,0.195072993636,0.410957306623,-1.93418943882,-0.474354743958,-9.63319587708,0.00559880491346,0.0443715527654,-0.0641750916839,0.0,0.0,0.0,,,,,,,,,,995.08996582,152.275131226,42.469997406,0.0,0.0,9.81747725746e-05,0.0,-10.0,0.0,0.0,0.0,0.0,0.0,0.0,0.0,0.0,63,0,1,1.0,1.0,,,,,,,,,,,,,,,,,,,,,,,,0,2,0,0.480341285467,0,0,0.0,0.0,0.0,0.930167615414,-1.0,-0.800000011921,-1.0,0.0,7,0,0.0,0.0,0.0,0.0,0.0,0.0,0.0,0.0,,,,0.0,0.0,0.0,,,,,,,,0.0,0.0,0.0,0.0,0.0,0.0,1.0,1.0,0.0,,,,,,,,,,,,,,,,,,,,,,0.0,0.0,0.0,11.283200264,11.3526468277,0.0372000001371,0.166301950812,,,,167,169,34,27,0,0,100,19895275,,,,,,,,,,,,,,,,,,,,,,,,,,,,,,,,,,,,,,,,,,,,,,,,,,,,,,,,,5.22714853287,0.0670000016689,1.22100007534,0,1,0,0,0,,,,,,,,,,,,,,,,,,,,,,,,,,,,,,,,,,,,,,,,,,,,,,,,,,,,,,,,,,,,,,,,,,,,,,,,,,,,,,,,,,,,,,,,,,,,,,,,,,,1,0.0,0,0.0,1500.0,1500.0,0.0,0.0,0.0,0.0,0.0,0.0,20330807,PX4FMU_V2,c17f0b6885b5678d25510dd57a90f80b05115e37,test,305419904.0
0.0587505660951,-0.207815945148,-1.25568819046,0.00916891731322,0.0206650570035,-0.0649211555719,-1.93652462959,-0.497986197472,-9.62746238708,0.0,-0.0,0.0,0.0,-1.93652462959,-0.497986197472,-9.62746238708,0.00978129636496,0.0197196304798,-0.0679224282503,0.145161181688,0.195072993636,0.410957306623,-1.93652462959,-0.497986197472,-9.62746238708,0.0080423951149,0.0399492122233,-0.0699071288109,0.0,0.0,0.0,,,,,,,,,,995.08996582,152.275131226,42.469997406,0.0,0.0,9.81747725746e-05,0.0,-10.0,0.0,0.0,0.0,0.0,0.0,0.0,0.0,0.0,63,0,1,1.0,1.0,,,,,,,,,,,,,,,,,,,,,,,,0,2,0,0.480341285467,0,0,0.0,0.0,0.0,0.930167615414,-1.0,-0.800000011921,-1.0,0.0,7,0,0.0,0.0,0.0,0.0,0.0,0.0,0.0,0.0,,,,0.0,0.0,0.0,,,,,,,,0.0,0.0,0.0,0.0,0.0,0.0,1.0,1.0,0.0,,,,,,,,,,,,,,,,,,,,,,0.0,0.0,0.0,11.2913999557,11.3525857925,0.124000005424,0.166713058949,,,,167,169,34,27,0,0,100,19895275,,,,,,,,,,,,,,,,,,,,,,,,,,,,,,,,,,,,,,,,,,,,,,,,,,,,,,,,,5.24003887177,0.0670000016689,1.21500003338,0,1,0,0,0,,,,,,,,,,,,,,,,,,,,,,,,,,,,,,,,,,,,,,,,,,,,,,,,,,,,,,,,,,,,,,,,,,,,,,,,,,,,,,,,,,,,,,,,,,,,,,,,,,,1,0.0,0,0.0,1500.0,1500.0,0.0,0.0,0.0,0.0,0.0,0.0,20336488,PX4FMU_V2,c17f0b6885b5678d25510dd57a90f80b05115e37,test,305419904.0
0.0589217618108,-0.207612916827,-1.25610780716,0.00909746438265,0.0200997311622,-0.0736816972494,-1.93693614006,-0.536952674389,-9.63263511658,0.0,-0.0,0.0,0.0,-1.93693614006,-0.536952674389,-9.63263511658,0.00816614087671,0.0190958306193,-0.0731426849961,0.147641181946,0.196673005819,0.412557303905,-1.93693614006,-0.536952674389,-9.63263511658,0.00849209725857,0.0350593775511,-0.0731780380011,0.0,0.0,0.0,,,,,,,,,,995.08996582,152.275131226,42.469997406,0.0,0.0,9.81747725746e-05,0.0,-10.0,0.0,0.0,0.0,0.0,0.0,0.0,0.0,0.0,63,0,1,1.0,1.0,,,,,,,,,,,,,,,,,,,,,,,,0,2,0,0.480341285467,0,0,0.0,0.0,0.0,0.896648049355,-1.0,-0.800000011921,-1.0,0.0,7,0,0.0,0.0,0.0,0.0,0.0,0.0,0.0,0.0,,,,0.0,0.0,0.0,,,,,,,,0.0,0.0,0.0,0.0,0.0,0.0,1.0,1.0,0.0,,,,,,,,,,,,,,,,,,,,,,0.0,0.0,0.0,11.2913999557,11.3525857925,0.124000005424,0.166713058949,,,,167,169,34,27,0,0,100,19895275,,,,,,,,,,,,,,,,,,,,,,,,,,,,,,,,,,,,,,,,,,,,,,,,,,,,,,,,,5.24003887177,0.0670000016689,1.21500003338,0,1,0,0,0,,,,,,,,,,,,,,,,,,,,,,,,,,,,,,,,,,,,,,,,,,,,,,,,,,,,,,,,,,,,,,,,,,,,,,,,,,,,,,,,,,,,,,,,,,,,,,,,,,,1,0.0,0,0.0,1500.0,1500.0,0.0,0.0,0.0,0.0,0.0,0.0,20342427,PX4FMU_V2,c17f0b6885b5678d25510dd57a90f80b05115e37,test,305419904.0
0.059011131525,-0.207509458065,-1.25651419163,0.00848767254502,0.0198944844306,-0.0764869451523,-1.94111800194,-0.561594307423,-9.63584327698,0.0,-0.0,0.0,0.0,-1.94111800194,-0.561594307423,-9.63584327698,0.00697764288634,0.0191318485886,-0.0740569084883,0.143961176276,0.195632994175,0.411357283592,-1.94111800194,-0.561594307423,-9.63584327698,0.00616209162399,0.0375759005547,-0.0731705725193,0.0,0.0,0.0,,,,,,,,,,995.139953613,151.852783203,42.469997406,0.0,0.0,9.81747725746e-05,0.0,-10.0,0.0,0.0,0.0,0.0,0.0,0.0,0.0,0.0,63,0,1,1.0,1.0,,,,,,,,,,,,,,,,,,,,,,,,0,2,0,0.480341285467,0,0,0.0,0.0,0.0,0.896648049355,-1.0,-0.800000011921,-1.0,0.0,7,0,0.0,0.0,0.0,0.0,0.0,0.0,0.0,0.0,,,,0.0,0.0,0.0,,,,,,,,0.0,0.0,0.0,0.0,0.0,0.0,1.0,1.0,0.0,,,,,,,,,,,,,,,,,,,,,,0.0,0.0,0.0,11.3487997055,11.3525819778,0.173600003123,0.167293056846,,,,167,169,34,27,0,0,100,19895275,,,,,,,,,,,,,,,,,,,,,,,,,,,,,,,,,,,,,,,,,,,,,,,,,,,,,,,,,5.24003887177,0.0670000016689,1.21500003338,0,1,0,0,0,,,,,,,,,,,,,,,,,,,,,,,,,,,,,,,,,,,,,,,,,,,,,,,,,,,,,,,,,,,,,,,,,,,,,,,,,,,,,,,,,,,,,,,,,,,,,,,,,,,1,0.0,0,0.0,1500.0,1500.0,0.0,0.0,0.0,0.0,0.0,0.0,20348464,PX4FMU_V2,c17f0b6885b5678d25510dd57a90f80b05115e37,test,305419904.0
0.0591792203486,-0.207311227918,-1.25719463825,0.00651072524488,0.0196732599288,-0.0792385190725,-1.96536254883,-0.581809163094,-9.61512470245,0.0,-0.0,0.0,0.0,-1.96536254883,-0.581809163094,-9.61512470245,0.00453415559605,0.019290106371,-0.0742726176977,0.143961176276,0.195632994175,0.411357283592,-1.96536254883,-0.581809163094,-9.61512470245,0.000239489789237,0.0395716913044,-0.0754486098886,0.0,0.0,0.0,,,,,,,,,,995.139953613,151.852783203,42.469997406,0.0,0.0,9.81747725746e-05,0.0,-10.0,0.0,0.0,0.0,0.0,0.0,0.0,0.0,0.0,63,0,1,1.0,1.0,,,,,,,,,,,,,,,,,,,,,,,,0,2,0,0.480341285467,0,0,0.0,0.0,0.0,0.896648049355,-1.0,-0.800000011921,-1.0,0.0,7,0,0.0,0.0,0.0,0.0,0.0,0.0,0.0,0.0,,,,0.0,0.0,0.0,,,,,,,,0.0,0.0,0.0,0.0,0.0,0.0,1.0,1.0,0.0,,,,,,,,,,,,,,,,,,,,,,0.0,0.0,0.0,11.3487997055,11.3525819778,0.173600003123,0.167293056846,,,,167,169,34,27,0,0,100,19895275,,,,,,,,,,,,,,,,,,,,,,,,,,,,,,,,,,,,,,,,,,,,,,,,,,,,,,,,,5.23681640625,0.0670000016689,1.21500003338,0,1,0,0,0,,,,,,,,,,,,,,,,,,,,,,,,,,,,,,,,,,,,,,,,,,,,,,,,,,,,,,,,,,,,,,,,,,,,,,,,,,,,,,,,,,,,,,,,,,,,,,,,,,,1,0.0,0,0.0,1500.0,1500.0,0.0,0.0,0.0,0.0,0.0,0.0,20354493,PX4FMU_V2,c17f0b6885b5678d25510dd57a90f80b05115e37,test,305419904.0
0.0593302361667,-0.207116365433,-1.25803339481,0.00451836269349,0.0192434303463,-0.0793548598886,-1.95627653599,-0.544018208981,-9.60501194,0.0,-0.0,0.0,0.0,-1.95627653599,-0.544018208981,-9.60501194,0.00304127507843,0.0184482932091,-0.0731227248907,0.144921168685,0.198432996869,0.413197308779,-1.95627653599,-0.544018208981,-9.60501194,0.0033074747771,0.0419417247176,-0.068352624774,0.0,0.0,0.0,,,,,,,,,,995.08996582,152.275131226,42.469997406,0.0,0.0,9.81747725746e-05,0.0,-10.0,0.0,0.0,0.0,0.0,0.0,0.0,0.0,0.0,63,0,1,1.0,1.0,,,,,,,,,,,,,,,,,,,,,,,,0,2,0,0.480341285467,0,0,0.0,0.0,0.0,0.807262599468,-1.0,-0.800000011921,-1.0,0.0,7,0,0.0,0.0,0.0,0.0,0.0,0.0,0.0,0.0,,,,0.0,0.0,0.0,,,,,,,,0.0,0.0,0.0,0.0,0.0,0.0,1.0,1.0,0.0,,,,,,,,,,,,,,,,,,,,,,0.0,0.0,0.0,11.307800293,11.3525371552,0.0,0.167293056846,,,,167,169,34,27,0,0,100,19895275,,,,,,,,,,,,,,,,,,,,,,,,,,,,,,,,,,,,,,,,,,,,,,,,,,,,,,,,,5.23681640625,0.0670000016689,1.21500003338,0,1,0,0,0,,,,,,,,,,,,,,,,,,,,,,,,,,,,,,,,,,,,,,,,,,,,,,,,,,,,,,,,,,,,,,,,,,,,,,,,,,,,,,,,,,,,,,,,,,,,,,,,,,,1,0.0,0,0.0,1500.0,1500.0,0.0,0.0,0.0,0.0,0.0,0.0,20362464,PX4FMU_V2,c17f0b6885b5678d25510dd57a90f80b05115e37,test,305419904.0
0.0593966282904,-0.207020312548,-1.25841593742,0.0036046532914,0.0186993312091,-0.0784062743187,-1.94376778603,-0.514011979103,-9.6112203598,0.0,-0.0,0.0,0.0,-1.94376778603,-0.514011979103,-9.6112203598,0.00231666932814,0.0176014602184,-0.0714783221483,0.145641177893,0.196992993355,0.411917299032,-1.94376778603,-0.514011979103,-9.6112203598,0.00329972617328,0.0419998839498,-0.0670559182763,0.0,0.0,0.0,,,,,,,,,,995.08996582,152.275131226,42.469997406,0.0,0.0,9.81747725746e-05,0.0,-10.0,0.0,0.0,0.0,0.0,0.0,0.0,0.0,0.0,63,0,1,1.0,1.0,,,,,,,,,,,,,,,,,,,,,,,,0,2,0,0.480341285467,0,0,0.0,0.0,0.0,0.807262599468,-1.0,-0.800000011921,-1.0,0.0,7,0,0.0,0.0,0.0,0.0,0.0,0.0,0.0,0.0,,,,0.0,0.0,0.0,,,,,,,,0.0,0.0,0.0,0.0,0.0,0.0,1.0,1.0,0.0,,,,,,,,,,,,,,,,,,,,,,0.0,0.0,0.0,11.307800293,11.3525371552,0.0,0.167293056846,,,,167,169,34,27,0,0,100,19895275,,,,,,,,,,,,,,,,,,,,,,,,,,,,,,,,,,,,,,,,,,,,,,,,,,,,,,,,,5.24487304688,0.062000002712,1.4960000515,0,1,0,0,0,,,,,,,,,,,,,,,,,,,,,,,,,,,,,,,,,,,,,,,,,,,,,,,,,,,,,,,,,,,,,,,,,,,,,,,,,,,,,,,,,,,,,,,,,,,,,,,,,,,1,0.0,0,0.0,1500.0,1500.0,0.0,0.0,0.0,0.0,0.0,0.0,20368870,PX4FMU_V2,c17f0b6885b5678d25510dd57a90f80b05115e37,test,305419904.0
0.059508305043,-0.206836953759,-1.25918269157,0.00161363498773,0.0172484796494,-0.074224665761,-1.932259202,-0.494057863951,-9.63247680664,0.0,-0.0,0.0,0.0,-1.932259202,-0.494057863951,-9.63247680664,0.000314084376441,0.0159319490194,-0.065908588469,0.145641177893,0.196992993355,0.411917299032,-1.932259202,-0.494057863951,-9.63247680664,-0.00105086155236,0.0385911278427,-0.0656753778458,0.0,0.0,0.0,,,,,,,,,,995.08996582,152.275131226,42.469997406,0.0,0.0,9.81747725746e-05,0.0,-10.0,0.0,0.0,0.0,0.0,0.0,0.0,0.0,0.0,63,0,1,1.0,1.0,,,,,,,,,,,,,,,,,,,,,,,,0,2,0,0.480341285467,0,0,0.0,0.0,0.0,0.807262599468,-1.0,-0.800000011921,-1.0,0.0,7,0,0.0,0.0,0.0,0.0,0.0,0.0,0.0,0.0,,,,0.0,0.0,0.0,,,,,,,,0.0,0.0,0.0,0.0,0.0,0.0,1.0,1.0,0.0,,,,,,,,,,,,,,,,,,,,,,0.0,0.0,0.0,11.3733997345,11.352558136,0.0,0.167293056846,,,,167,169,34,27,0,0,100,19895275,,,,,,,,,,,,,,,,,,,,,,,,,,,,,,,,,,,,,,,,,,,,,,,,,,,,,,,,,5.24326181412,0.062000002712,1.4960000515,0,1,0,0,0,,,,,,,,,,,,,,,,,,,,,,,,,,,,,,,,,,,,,,,,,,,,,,,,,,,,,,,,,,,,,,,,,,,,,,,,,,,,,,,,,,,,,,,,,,,,,,,,,,,1,0.0,0,0.0,1500.0,1500.0,0.0,0.0,0.0,0.0,0.0,0.0,20374727,PX4FMU_V2,c17f0b6885b5678d25510dd57a90f80b05115e37,test,305419904.0
0.0595559068024,-0.206749945879,-1.25958526134,0.000369078858057,0.0164413191378,-0.0710875019431,-1.9337553978,-0.51418441534,-9.63862609863,0.0,-0.0,0.0,0.0,-1.9337553978,-0.51418441534,-9.63862609863,-0.00117209239397,0.0151946824044,-0.0622978433967,0.144681170583,0.196272999048,0.412077307701,-1.9337553978,-0.51418441534,-9.63862609863,-0.00365738058463,0.0370238497853,-0.0615229457617,0.0,0.0,0.0,,,,,,,,,,995.08996582,152.275131226,42.469997406,0.0,0.0,9.81747725746e-05,0.0,-10.0,0.0,0.0,0.0,0.0,0.0,0.0,0.0,0.0,63,0,1,1.0,1.0,,,,,,,,,,,,,,,,,,,,,,,,0,2,0,0.480341285467,0,0,0.0,0.0,0.0,0.807262599468,-1.0,-0.800000011921,-1.0,0.0,7,0,0.0,0.0,0.0,0.0,0.0,0.0,0.0,0.0,,,,0.0,0.0,0.0,,,,,,,,0.0,0.0,0.0,0.0,0.0,0.0,1.0,1.0,0.0,,,,,,,,,,,,,,,,,,,,,,0.0,0.0,0.0,11.3733997345,11.352558136,0.0,0.167293056846,,,,167,169,34,27,0,0,100,19895275,,,,,,,,,,,,,,,,,,,,,,,,,,,,,,,,,,,,,,,,,,,,,,,,,,,,,,,,,5.24326181412,0.062000002712,1.4960000515,0,1,0,0,0,,,,,,,,,,,,,,,,,,,,,,,,,,,,,,,,,,,,,,,,,,,,,,,,,,,,,,,,,,,,,,,,,,,,,,,,,,,,,,,,,,,,,,,,,,,,,,,,,,,1,0.0,0,0.0,1500.0,1500.0,0.0,0.0,0.0,0.0,0.0,0.0,20380883,PX4FMU_V2,c17f0b6885b5678d25510dd57a90f80b05115e37,test,305419904.0
0.0596358254552,-0.206585496664,-1.26049113274,-0.00264234282076,0.0150904776528,-0.0637325495481,-1.93866348267,-0.582620084286,-9.63284492493,0.0,-0.0,0.0,0.0,-1.93866348267,-0.582620084286,-9.63284492493,-0.00450934981927,0.0143970996141,-0.0553764104843,0.142041176558,0.197632998228,0.412637293339,-1.93866348267,-0.582620084286,-9.63284492493,-0.00600867392495,0.0341603793204,-0.0536529347301,0.0,0.0,0.0,,,,,,,,,,995.08996582,152.275131226,42.469997406,0.0,0.0,9.81747725746e-05,0.0,-10.0,0.0,0.0,0.0,0.0,0.0,0.0,0.0,0.0,63,0,1,1.0,1.0,,,,,,,,,,,,,,,,,,,,,,,,0,2,0,0.480341285467,0,0,0.0,0.0,0.0,0.695530712605,-1.0,-0.800000011921,-1.0,0.0,7,0,0.0,0.0,0.0,0.0,0.0,0.0,0.0,0.0,,,,0.0,0.0,0.0,,,,,,,,0.0,0.0,0.0,0.0,0.0,0.0,1.0,1.0,0.0,,,,,,,,,,,,,,,,,,,,,,0.0,0.0,0.0,11.3733997345,11.3525791168,0.0,0.167293056846,,,,167,169,34,27,0,0,100,19895275,,,,,,,,,,,,,,,,,,,,,,,,,,,,,,,,,,,,,,,,,,,,,,,,,,,,,,,,,5.23198223114,0.070000000298,1.51100003719,0,1,0,0,0,,,,,,,,,,,,,,,,,,,,,,,,,,,,,,,,,,,,,,,,,,,,,,,,,,,,,,,,,,,,,,,,,,,,,,,,,,,,,,,,,,,,,,,,,,,,,,,,,,,1,0.0,0,0.0,1500.0,1500.0,0.0,0.0,0.0,0.0,0.0,0.0,20386716,PX4FMU_V2,c17f0b6885b5678d25510dd57a90f80b05115e37,test,305419904.0
0.0596919767559,-0.206410884857,-1.26120841503,-0.00653889775276,0.0133696012199,-0.0563371106982,-1.92921090126,-0.572859168053,-9.63696956635,0.0,-0.0,0.0,0.0,-1.92921090126,-0.572859168053,-9.63696956635,-0.00842949654907,0.0124064274132,-0.0501191988587,0.142041176558,0.197632998228,0.412637293339,-1.92921090126,-0.572859168053,-9.63696956635,-0.00532983988523,0.036134801805,-0.05125695467,0.0,0.0,0.0,,,,,,,,,,995.149963379,151.768325806,42.469997406,0.0,0.0,9.81747725746e-05,0.0,-10.0,0.0,0.0,0.0,0.0,0.0,0.0,0.0,0.0,63,0,1,1.0,1.0,,,,,,,,,,,,,,,,,,,,,,,,0,2,0,0.480341285467,0,0,0.0,0.0,0.0,0.695530712605,-1.0,-0.800000011921,-1.0,0.0,7,0,0.0,0.0,0.0,0.0,0.0,0.0,0.0,0.0,,,,0.0,0.0,0.0,,,,,,,,0.0,0.0,0.0,0.0,0.0,0.0,1.0,1.0,0.0,,,,,,,,,,,,,,,,,,,,,,0.0,0.0,0.0,11.307800293,11.3525342941,0.0,0.167293056846,,,,167,169,34,27,0,0,100,19895275,,,,,,,,,,,,,,,,,,,,,,,,,,,,,,,,,,,,,,,,,,,,,,,,,,,,,,,,,5.23842763901,0.070000000298,1.51100003719,0,1,0,0,0,,,,,,,,,,,,,,,,,,,,,,,,,,,,,,,,,,,,,,,,,,,,,,,,,,,,,,,,,,,,,,,,,,,,,,,,,,,,,,,,,,,,,,,,,,,,,,,,,,,1,0.0,0,0.0,1500.0,1500.0,0.0,0.0,0.0,0.0,0.0,0.0,20395095,PX4FMU_V2,c17f0b6885b5678d25510dd57a90f80b05115e37,test,305419904.0
0.0596995837986,-0.206341788173,-1.261536479,-0.00820991490036,0.0124742416665,-0.0530734285712,-1.93087995052,-0.558802366257,-9.63715553284,0.0,-0.0,0.0,0.0,-1.93087995052,-0.558802366257,-9.63715553284,-0.00965982489288,0.0115220407024,-0.0477370992303,0.143881171942,0.196992993355,0.412797302008,-1.93087995052,-0.558802366257,-9.63715553284,-0.00540941767395,0.0359067991376,-0.0478631816804,0.0,0.0,0.0,,,,,,,,,,995.149963379,151.768325806,42.469997406,0.0,0.0,9.81747725746e-05,0.0,-10.0,0.0,0.0,0.0,0.0,0.0,0.0,0.0,0.0,63,0,1,1.0,1.0,,,,,,,,,,,,,,,,,,,,,,,,0,2,0,0.480341285467,0,0,0.0,0.0,0.0,0.695530712605,-1.0,-0.800000011921,-1.0,0.0,7,0,0.0,0.0,0.0,0.0,0.0,0.0,0.0,0.0,,,,0.0,0.0,0.0,,,,,,,,0.0,0.0,0.0,0.0,0.0,0.0,1.0,1.0,0.0,,,,,,,,,,,,,,,,,,,,,,0.0,0.0,0.0,11.307800293,11.3525342941,0.0,0.167293056846,,,,167,169,34,27,0,0,100,19895275,,,,,,,,,,,,,,,,,,,,,,,,,,,,,,,,,,,,,,,,,,,,,,,,,,,,,,,,,5.23842763901,0.070000000298,1.51100003719,0,1,0,0,0,,,,,,,,,,,,,,,,,,,,,,,,,,,,,,,,,,,,,,,,,,,,,,,,,,,,,,,,,,,,,,,,,,,,,,,,,,,,,,,,,,,,,,,,,,,,,,,,,,,1,0.0,0,0.0,1500.0,1500.0,0.0,0.0,0.0,0.0,0.0,0.0,20400828,PX4FMU_V2,c17f0b6885b5678d25510dd57a90f80b05115e37,test,305419904.0
0.0596894621849,-0.206216707826,-1.2620818615,-0.0110456831753,0.0107288695872,-0.0458591021597,-1.93628120422,-0.5354642272,-9.61916351318,0.0,-0.0,0.0,0.0,-1.93628120422,-0.5354642272,-9.61916351318,-0.0117040500045,0.00999619718641,-0.0404699966311,0.143961176276,0.197153002024,0.412317305803,-1.93628120422,-0.5354642272,-9.61916351318,-0.0111014740542,0.0322279259562,-0.0386693030596,0.0,0.0,0.0,,,,,,,,,,995.149963379,151.768325806,42.469997406,0.0,0.0,9.81747725746e-05,0.0,-10.0,0.0,0.0,0.0,0.0,0.0,0.0,0.0,0.0,63,0,1,1.0,1.0,,,,,,,,,,,,,,,,,,,,,,,,0,2,0,0.480341285467,0,0,0.0,0.0,0.0,0.600558638573,-1.0,-0.800000011921,-1.0,0.0,7,0,0.0,0.0,0.0,0.0,0.0,0.0,0.0,0.0,,,,0.0,0.0,0.0,,,,,,,,0.0,0.0,0.0,0.0,0.0,0.0,1.0,1.0,0.0,,,,,,,,,,,,,,,,,,,,,,0.0,0.0,0.0,11.3898000717,11.3525714874,0.0,0.167293056846,,,,167,169,34,27,0,0,100,19895275,,,,,,,,,,,,,,,,,,,,,,,,,,,,,,,,,,,,,,,,,,,,,,,,,,,,,,,,,5.23681640625,0.0670000016689,1.24700009823,0,1,0,0,0,,,,,,,,,,,,,,,,,,,,,,,,,,,,,,,,,,,,,,,,,,,,,,,,,,,,,,,,,,,,,,,,,,,,,,,,,,,,,,,,,,,,,,,,,,,,,,,,,,,1,0.0,0,0.0,1500.0,1500.0,0.0,0.0,0.0,0.0,0.0,0.0,20406809,PX4FMU_V2,c17f0b6885b5678d25510dd57a90f80b05115e37,test,305419904.0
0.0596740655601,-0.206159815192,-1.26231408119,-0.0121638542041,0.00982334371656,-0.0418164432049,-1.93351340294,-0.53795927763,-9.62174606323,0.0,-0.0,0.0,0.0,-1.93351340294,-0.53795927763,-9.62174606323,-0.0123770916834,0.0090652666986,-0.0364116765559,0.143961176276,0.197153002024,0.412317305803,-1.93351340294,-0.53795927763,-9.62174606323,-0.0189188998193,0.0291261821985,-0.0348437204957,0.0,0.0,0.0,,,,,,,,,,995.149963379,151.768325806,42.469997406,0.0,0.0,9.81747725746e-05,0.0,-10.0,0.0,0.0,0.0,0.0,0.0,0.0,0.0,0.0,63,0,1,1.0,1.0,,,,,,,,,,,,,,,,,,,,,,,,0,2,0,0.480341285467,0,0,0.0,0.0,0.0,0.600558638573,-1.0,-0.800000011921,-1.0,0.0,7,0,0.0,0.0,0.0,0.0,0.0,0.0,0.0,0.0,,,,0.0,0.0,0.0,,,,,,,,0.0,0.0,0.0,0.0,0.0,0.0,1.0,1.0,0.0,,,,,,,,,,,,,,,,,,,,,,0.0,0.0,0.0,11.3898000717,11.3525714874,0.0,0.167293056846,,,,167,169,34,27,0,0,100,19895275,,,,,,,,,,,,,,,,,,,,,,,,,,,,,,,,,,,,,,,,,,,,,,,,,,,,,,,,,5.23681640625,0.0670000016689,1.24700009823,0,1,0,0,0,,,,,,,,,,,,,,,,,,,,,,,,,,,,,,,,,,,,,,,,,,,,,,,,,,,,,,,,,,,,,,,,,,,,,,,,,,,,,,,,,,,,,,,,,,,,,,,,,,,1,0.0,0,0.0,1500.0,1500.0,0.0,0.0,0.0,0.0,0.0,0.0,20413174,PX4FMU_V2,c17f0b6885b5678d25510dd57a90f80b05115e37,test,305419904.0
0.0596242845058,-0.206057965755,-1.26275920868,-0.01406302955,0.00787533726543,-0.0337364599109,-1.92183256149,-0.532462656498,-9.67219734192,0.0,-0.0,0.0,0.0,-1.92183256149,-0.532462656498,-9.67219734192,-0.0141320060939,0.00707274721935,-0.0292365513742,0.143081173301,0.196432992816,0.411357283592,-1.92183256149,-0.532462656498,-9.67219734192,-0.0289118103683,0.0280327592045,-0.0258069634438,0.0,0.0,0.0,,,,,,,,,,995.119995117,152.021728516,42.469997406,0.0,0.0,9.81747725746e-05,0.0,-10.0,0.0,0.0,0.0,0.0,0.0,0.0,0.0,0.0,63,0,1,1.0,1.0,,,,,,,,,,,,,,,,,,,,,,,,0,2,0,0.480341285467,0,0,0.0,0.0,0.0,0.600558638573,-1.0,-0.800000011921,-1.0,0.0,7,0,0.0,0.0,0.0,0.0,0.0,0.0,0.0,0.0,,,,0.0,0.0,0.0,,,,,,,,0.0,0.0,0.0,0.0,0.0,0.0,1.0,1.0,0.0,,,,,,,,,,,,,,,,,,,,,,0.0,0.0,0.0,11.2667999268,11.3524856567,0.0,0.167293056846,,,,167,169,34,27,0,0,100,19895275,,,,,,,,,,,,,,,,,,,,,,,,,,,,,,,,,,,,,,,,,,,,,,,,,,,,,,,,,5.2335934639,0.0670000016689,1.24700009823,0,1,0,0,0,,,,,,,,,,,,,,,,,,,,,,,,,,,,,,,,,,,,,,,,,,,,,,,,,,,,,,,,,,,,,,,,,,,,,,,,,,,,,,,,,,,,,,,,,,,,,,,,,,,1,0.0,0,0.0,1500.0,1500.0,0.0,0.0,0.0,0.0,0.0,0.0,20418983,PX4FMU_V2,c17f0b6885b5678d25510dd57a90f80b05115e37,test,305419904.0
0.0595822744071,-0.206012845039,-1.26292061806,-0.0154724391177,0.00677119474858,-0.0296776108444,-1.91245961189,-0.500741004944,-9.6910943985,0.0,-0.0,0.0,0.0,-1.91245961189,-0.500741004944,-9.6910943985,-0.0162154063582,0.00584960402921,-0.0254779886454,0.143081173301,0.196432992816,0.411357283592,-1.91245961189,-0.500741004944,-9.6910943985,-0.0289927646518,0.0300960820168,-0.0202893055975,0.0,0.0,0.0,,,,,,,,,,995.119995117,152.021728516,42.469997406,0.0,0.0,9.81747725746e-05,0.0,-10.0,0.0,0.0,0.0,0.0,0.0,0.0,0.0,0.0,63,0,1,1.0,1.0,,,,,,,,,,,,,,,,,,,,,,,,0,2,0,0.480341285467,0,0,0.0,0.0,0.0,0.600558638573,-1.0,-0.800000011921,-1.0,0.0,7,0,0.0,0.0,0.0,0.0,0.0,0.0,0.0,0.0,,,,0.0,0.0,0.0,,,,,,,,0.0,0.0,0.0,0.0,0.0,0.0,1.0,1.0,0.0,,,,,,,,,,,,,,,,,,,,,,0.0,0.0,0.0,11.2667999268,11.3524856567,0.0,0.167293056846,,,,167,169,34,27,0,0,100,19895275,,,,,,,,,,,,,,,,,,,,,,,,,,,,,,,,,,,,,,,,,,,,,,,,,,,,,,,,,5.21909189224,0.0670000016689,1.24700009823,0,1,0,0,0,,,,,,,,,,,,,,,,,,,,,,,,,,,,,,,,,,,,,,,,,,,,,,,,,,,,,,,,,,,,,,,,,,,,,,,,,,,,,,,,,,,,,,,,,,,,,,,,,,,1,0.0,0,0.0,1500.0,1500.0,0.0,0.0,0.0,0.0,0.0,0.0,20425120,PX4FMU_V2,c17f0b6885b5678d25510dd57a90f80b05115e37,test,305419904.0
0.0594588965178,-0.205935835838,-1.26329398155,-0.0184665564448,0.00446050800383,-0.0218527056277,-1.90231120586,-0.41943782568,-9.70233249664,0.0,-0.0,0.0,0.0,-1.90231120586,-0.41943782568,-9.70233249664,-0.0189576838166,0.00363246235065,-0.0188304688781,0.142441183329,0.197153002024,0.412637293339,-1.90231120586,-0.41943782568,-9.70233249664,-0.02259754017,0.0299838390201,-0.0132248494774,0.0,0.0,0.0,,,,,,,,,,995.119995117,152.021728516,42.469997406,0.0,0.0,9.81747725746e-05,0.0,-10.0,0.0,0.0,0.0,0.0,0.0,0.0,0.0,0.0,63,0,1,1.0,1.0,,,,,,,,,,,,,,,,,,,,,,,,0,2,0,0.480341285467,0,0,0.0,0.0,0.0,0.511173188686,-1.0,-0.800000011921,-1.0,0.0,7,0,0.0,0.0,0.0,0.0,0.0,0.0,0.0,0.0,,,,0.0,0.0,0.0,,,,,,,,0.0,0.0,0.0,0.0,0.0,0.0,1.0,1.0,0.0,,,,,,,,,,,,,,,,,,,,,,0.0,0.0,0.0,11.3241996765,11.3524570465,0.0,0.167293056846,,,,167,169,34,27,0,0,100,19895275,,,,,,,,,,,,,,,,,,,,,,,,,,,,,,,,,,,,,,,,,,,,,,,,,,,,,,,,,5.21909189224,0.0670000016689,1.24700009823,0,1,0,0,0,,,,,,,,,,,,,,,,,,,,,,,,,,,,,,,,,,,,,,,,,,,,,,,,,,,,,,,,,,,,,,,,,,,,,,,,,,,,,,,,,,,,,,,,,,,,,,,,,,,1,0.0,0,0.0,1500.0,1500.0,0.0,0.0,0.0,0.0,0.0,0.0,20431018,PX4FMU_V2,c17f0b6885b5678d25510dd57a90f80b05115e37,test,305419904.0
0.059387229383,-0.205905258656,-1.26339149475,-0.0193315185606,0.00333318510093,-0.0182552300394,-1.90892708302,-0.411632448435,-9.70517158508,0.0,-0.0,0.0,0.0,-1.90892708302,-0.411632448435,-9.70517158508,-0.0189122986048,0.00260511552915,-0.0158254187554,0.142441183329,0.197153002024,0.412637293339,-1.90892708302,-0.411632448435,-9.70517158508,-0.0205285474658,0.0239835064858,-0.0088648898527,0.0,0.0,0.0,,,,,,,,,,995.119995117,152.021728516,42.469997406,0.0,0.0,9.81747725746e-05,0.0,-10.0,0.0,0.0,0.0,0.0,0.0,0.0,0.0,0.0,63,0,1,1.0,1.0,,,,,,,,,,,,,,,,,,,,,,,,0,2,0,0.480341285467,0,0,0.0,0.0,0.0,0.511173188686,-1.0,-0.800000011921,-1.0,0.0,7,0,0.0,0.0,0.0,0.0,0.0,0.0,0.0,0.0,,,,0.0,0.0,0.0,,,,,,,,0.0,0.0,0.0,0.0,0.0,0.0,1.0,1.0,0.0,,,,,,,,,,,,,,,,,,,,,,0.0,0.0,0.0,11.3241996765,11.3524570465,0.0,0.167293056846,,,,167,169,34,27,0,0,100,19895275,,,,,,,,,,,,,,,,,,,,,,,,,,,,,,,,,,,,,,,,,,,,,,,,,,,,,,,,,5.20620107651,0.0670000016689,1.23900008202,0,1,0,0,0,,,,,,,,,,,,,,,,,,,,,,,,,,,,,,,,,,,,,,,,,,,,,,,,,,,,,,,,,,,,,,,,,,,,,,,,,,,,,,,,,,,,,,,,,,,,,,,,,,,1,0.0,0,0.0,1500.0,1500.0,0.0,0.0,0.0,0.0,0.0,0.0,20436989,PX4FMU_V2,c17f0b6885b5678d25510dd57a90f80b05115e37,test,305419904.0
0.0592410042882,-0.205858230591,-1.26363503933,-0.019471084699,0.00101663311943,-0.0105508100241,-1.89287900925,-0.435609638691,-9.72017765045,0.0,-0.0,0.0,0.0,-1.89287900925,-0.435609638691,-9.72017765045,-0.0174159519374,0.000407957122661,-0.00778615195304,0.142521172762,0.197393000126,0.411357283592,-1.89287900925,-0.435609638691,-9.72017765045,-0.0185116827488,0.0170995630324,0.00612503662705,0.0,0.0,0.0,,,,,,,,,,995.159973145,151.683853149,42.469997406,0.0,0.0,9.81747725746e-05,0.0,-10.0,0.0,0.0,0.0,0.0,0.0,0.0,0.0,0.0,63,0,1,1.0,1.0,,,,,,,,,,,,,,,,,,,,,,,,0,2,0,0.480341285467,0,0,0.0,0.0,0.0,0.511173188686,-1.0,-0.800000011921,-1.0,0.0,7,0,0.0,0.0,0.0,0.0,0.0,0.0,0.0,0.0,,,,0.0,0.0,0.0,,,,,,,,0.0,0.0,0.0,0.0,0.0,0.0,1.0,1.0,0.0,,,,,,,,,,,,,,,,,,,,,,0.0,0.0,0.0,11.258600235,11.3523635864,0.148800000548,0.167790010571,,,,167,169,34,27,0,0,100,19895275,,,,,,,,,,,,,,,,,,,,,,,,,,,,,,,,,,,,,,,,,,,,,,,,,,,,,,,,,5.20620107651,0.0670000016689,1.23900008202,0,1,0,0,0,,,,,,,,,,,,,,,,,,,,,,,,,,,,,,,,,,,,,,,,,,,,,,,,,,,,,,,,,,,,,,,,,,,,,,,,,,,,,,,,,,,,,,,,,,,,,,,,,,,1,0.0,0,0.0,1500.0,1500.0,0.0,0.0,0.0,0.0,0.0,0.0,20443030,PX4FMU_V2,c17f0b6885b5678d25510dd57a90f80b05115e37,test,305419904.0
0.0590876750648,-0.2058224231,-1.263661623,-0.0183729361743,-0.00128630385734,-0.00204441230744,-1.84387814999,-0.413074165583,-9.73624229431,0.0,-0.0,0.0,0.0,-1.84387814999,-0.413074165583,-9.73624229431,-0.0159078128636,-0.00190076557919,0.000497064029332,0.144521176815,0.195392996073,0.412957280874,-1.84387814999,-0.413074165583,-9.73624229431,-0.0144592197612,0.0193076338619,0.0122007913888,0.0,0.0,0.0,,,,,,,,,,995.159973145,151.683853149,42.469997406,0.0,0.0,9.81747725746e-05,0.0,-10.0,0.0,0.0,0.0,0.0,0.0,0.0,0.0,0.0,63,0,1,1.0,1.0,,,,,,,,,,,,,,,,,,,,,,,,0,2,0,0.480341285467,0,0,0.0,0.0,0.0,0.421787708998,-1.0,-0.800000011921,-1.0,0.0,7,0,0.0,0.0,0.0,0.0,0.0,0.0,0.0,0.0,,,,0.0,0.0,0.0,,,,,,,,0.0,0.0,0.0,0.0,0.0,0.0,1.0,1.0,0.0,,,,,,,,,,,,,,,,,,,,,,0.0,0.0,0.0,11.258600235,11.3523635864,0.148800000548,0.167790010571,,,,167,169,34,27,0,0,100,19895275,,,,,,,,,,,,,,,,,,,,,,,,,,,,,,,,,,,,,,,,,,,,,,,,,,,,,,,,,5.22553682327,0.0670000016689,1.51800012589,0,1,0,0,0,,,,,,,,,,,,,,,,,,,,,,,,,,,,,,,,,,,,,,,,,,,,,,,,,,,,,,,,,,,,,,,,,,,,,,,,,,,,,,,,,,,,,,,,,,,,,,,,,,,1,0.0,0,0.0,1500.0,1500.0,0.0,0.0,0.0,0.0,0.0,0.0,20451306,PX4FMU_V2,c17f0b6885b5678d25510dd57a90f80b05115e37,test,305419904.0
0.0590058639646,-0.205811500549,-1.26364934444,-0.0179663524032,-0.00249667139724,0.00141233450267,-1.84367537498,-0.395506501198,-9.73885726929,0.0,-0.0,0.0,0.0,-1.84367537498,-0.395506501198,-9.73885726929,-0.0160666368902,-0.00308919209056,0.00244903960265,0.144521176815,0.195392996073,0.412957280874,-1.84367537498,-0.395506501198,-9.73885726929,-0.0147811165079,0.0171655025333,0.0140257403255,0.0,0.0,0.0,,,,,,,,,,995.109985352,152.106185913,42.469997406,0.0,0.0,9.81747725746e-05,0.0,-10.0,0.0,0.0,0.0,0.0,0.0,0.0,0.0,0.0,63,0,1,1.0,1.0,,,,,,,,,,,,,,,,,,,,,,,,0,2,0,0.480341285467,0,0,0.0,0.0,0.0,0.421787708998,-1.0,-0.800000011921,-1.0,0.0,7,0,0.0,0.0,0.0,0.0,0.0,0.0,0.0,0.0,,,,0.0,0.0,0.0,,,,,,,,0.0,0.0,0.0,0.0,0.0,0.0,1.0,1.0,0.0,,,,,,,,,,,,,,,,,,,,,,0.0,0.0,0.0,11.3406000137,11.3523521423,0.0744000002742,0.168038338423,,,,167,169,34,27,0,0,100,19895275,,,,,,,,,,,,,,,,,,,,,,,,,,,,,,,,,,,,,,,,,,,,,,,,,,,,,,,,,5.22553682327,0.0670000016689,1.51800012589,0,1,0,0,0,,,,,,,,,,,,,,,,,,,,,,,,,,,,,,,,,,,,,,,,,,,,,,,,,,,,,,,,,,,,,,,,,,,,,,,,,,,,,,,,,,,,,,,,,,,,,,,,,,,1,0.0,0,0.0,1500.0,1500.0,0.0,0.0,0.0,0.0,0.0,0.0,20457129,PX4FMU_V2,c17f0b6885b5678d25510dd57a90f80b05115e37,test,305419904.0
0.058833733201,-0.205807745457,-1.26356470585,-0.0182878468186,-0.00487605528906,0.00591247156262,-1.86552274227,-0.411171346903,-9.74133110046,0.0,-0.0,0.0,0.0,-1.86552274227,-0.411171346903,-9.74133110046,-0.0179984699935,-0.0053183818236,0.00422526197508,0.143561169505,0.196673005819,0.411357283592,-1.86552274227,-0.411171346903,-9.74133110046,-0.0173929017037,0.0119895720854,0.0153576815501,0.0,0.0,0.0,,,,,,,,,,995.109985352,152.106185913,42.469997406,0.0,0.0,9.81747725746e-05,0.0,-10.0,0.0,0.0,0.0,0.0,0.0,0.0,0.0,0.0,63,0,1,1.0,1.0,,,,,,,,,,,,,,,,,,,,,,,,0,2,0,0.480341285467,0,0,0.0,0.0,0.0,0.421787708998,-1.0,-0.800000011921,-1.0,0.0,7,0,0.0,0.0,0.0,0.0,0.0,0.0,0.0,0.0,,,,0.0,0.0,0.0,,,,,,,,0.0,0.0,0.0,0.0,0.0,0.0,1.0,1.0,0.0,,,,,,,,,,,,,,,,,,,,,,0.0,0.0,0.0,11.3406000137,11.3523521423,0.0744000002742,0.168038338423,,,,167,169,34,27,0,0,100,19895275,,,,,,,,,,,,,,,,,,,,,,,,,,,,,,,,,,,,,,,,,,,,,,,,,,,,,,,,,5.22553682327,0.0670000016689,1.51800012589,0,1,0,0,0,,,,,,,,,,,,,,,,,,,,,,,,,,,,,,,,,,,,,,,,,,,,,,,,,,,,,,,,,,,,,,,,,,,,,,,,,,,,,,,,,,,,,,,,,,,,,,,,,,,1,0.0,0,0.0,1500.0,1500.0,0.0,0.0,0.0,0.0,0.0,0.0,20463152,PX4FMU_V2,c17f0b6885b5678d25510dd57a90f80b05115e37,test,305419904.0
0.0587451569736,-0.205813080072,-1.26358652115,-0.0188619717956,-0.00610503507778,0.00747851841152,-1.85906982422,-0.439295381308,-9.74039459229,0.0,-0.0,0.0,0.0,-1.85906982422,-0.439295381308,-9.74039459229,-0.0189743731171,-0.00659506395459,0.00529506197199,0.142921179533,0.197312995791,0.414157301188,-1.85906982422,-0.439295381308,-9.74039459229,-0.0187806636095,0.00928460340947,0.0165647901595,0.0,0.0,0.0,,,,,,,,,,995.099975586,152.190658569,42.469997406,0.0,0.0,9.81747725746e-05,0.0,-10.0,0.0,0.0,0.0,0.0,0.0,0.0,0.0,0.0,63,0,1,1.0,1.0,,,,,,,,,,,,,,,,,,,,,,,,0,2,0,0.480341285467,0,0,0.0,0.0,0.0,0.421787708998,-1.0,-0.800000011921,-1.0,0.0,7,0,0.0,0.0,0.0,0.0,0.0,0.0,0.0,0.0,,,,0.0,0.0,0.0,,,,,,,,0.0,0.0,0.0,0.0,0.0,0.0,1.0,1.0,0.0,,,,,,,,,,,,,,,,,,,,,,0.0,0.0,0.0,11.2913999557,11.3522911072,0.124000005424,0.168456122279,,,,167,169,34,27,0,0,100,19895275,,,,,,,,,,,,,,,,,,,,,,,,,,,,,,,,,,,,,,,,,,,,,,,,,,,,,,,,,5.24648427963,0.0670000016689,1.51800012589,0,1,0,0,0,,,,,,,,,,,,,,,,,,,,,,,,,,,,,,,,,,,,,,,,,,,,,,,,,,,,,,,,,,,,,,,,,,,,,,,,,,,,,,,,,,,,,,,,,,,,,,,,,,,1,0.0,0,0.0,1500.0,1500.0,0.0,0.0,0.0,0.0,0.0,0.0,20469191,PX4FMU_V2,c17f0b6885b5678d25510dd57a90f80b05115e37,test,305419904.0
0.0585444122553,-0.20585295558,-1.26337778568,-0.0197666268796,-0.00966352596879,0.010716561228,-1.84327125549,-0.497170180082,-9.7299747467,0.0,-0.0,0.0,0.0,-1.84327125549,-0.497170180082,-9.7299747467,-0.0193240195513,-0.0109910173342,0.0082087488845,0.142921179533,0.197312995791,0.414157301188,-1.84327125549,-0.497170180082,-9.7299747467,-0.0183604490012,0.00834538694471,0.0172586590052,0.0,0.0,0.0,,,,,,,,,,995.099975586,152.190658569,42.469997406,0.0,0.0,9.81747725746e-05,0.0,-10.0,0.0,0.0,0.0,0.0,0.0,0.0,0.0,0.0,63,0,1,1.0,1.0,,,,,,,,,,,,,,,,,,,,,,,,0,2,0,0.480341285467,0,0,0.0,0.0,0.0,0.31564244628,-1.0,-0.800000011921,-1.0,0.0,7,0,0.0,0.0,0.0,0.0,0.0,0.0,0.0,0.0,,,,0.0,0.0,0.0,,,,,,,,0.0,0.0,0.0,0.0,0.0,0.0,1.0,1.0,0.0,,,,,,,,,,,,,,,,,,,,,,0.0,0.0,0.0,11.2913999557,11.3522911072,0.124000005424,0.168456122279,,,,167,169,34,27,0,0,100,19895275,,,,,,,,,,,,,,,,,,,,,,,,,,,,,,,,,,,,,,,,,,,,,,,,,,,,,,,,,5.24326181412,0.0670000016689,1.22200000286,0,1,0,0,0,,,,,,,,,,,,,,,,,,,,,,,,,,,,,,,,,,,,,,,,,,,,,,,,,,,,,,,,,,,,,,,,,,,,,,,,,,,,,,,,,,,,,,,,,,,,,,,,,,,1,0.0,0,0.0,1500.0,1500.0,0.0,0.0,0.0,0.0,0.0,0.0,20475435,PX4FMU_V2,c17f0b6885b5678d25510dd57a90f80b05115e37,test,305419904.0
0.0584545433521,-0.205881372094,-1.2632805109,-0.0200446434319,-0.0116599798203,0.0119839152321,-1.84275007248,-0.499262064695,-9.73480224609,0.0,-0.0,0.0,0.0,-1.84275007248,-0.499262064695,-9.73480224609,-0.0196858532727,-0.0132093746215,0.00998981948942,0.144441172481,0.197632998228,0.412317305803,-1.84275007248,-0.499262064695,-9.73480224609,-0.0220617130399,0.0102596320212,0.0192584097385,0.0,0.0,0.0,,,,,,,,,,995.099975586,152.190658569,42.469997406,0.0,0.0,9.81747725746e-05,0.0,-10.0,0.0,0.0,0.0,0.0,0.0,0.0,0.0,0.0,63,0,1,1.0,1.0,,,,,,,,,,,,,,,,,,,,,,,,0,2,0,0.480341285467,0,0,0.0,0.0,0.0,0.31564244628,-1.0,-0.800000011921,-1.0,0.0,7,0,0.0,0.0,0.0,0.0,0.0,0.0,0.0,0.0,,,,0.0,0.0,0.0,,,,,,,,0.0,0.0,0.0,0.0,0.0,0.0,1.0,1.0,0.0,,,,,,,,,,,,,,,,,,,,,,0.0,0.0,0.0,11.3406000137,11.3522796631,0.0,0.168456122279,,,,167,169,34,27,0,0,100,19895275,,,,,,,,,,,,,,,,,,,,,,,,,,,,,,,,,,,,,,,,,,,,,,,,,,,,,,,,,5.24326181412,0.0670000016689,1.22200000286,0,1,0,0,0,,,,,,,,,,,,,,,,,,,,,,,,,,,,,,,,,,,,,,,,,,,,,,,,,,,,,,,,,,,,,,,,,,,,,,,,,,,,,,,,,,,,,,,,,,,,,,,,,,,1,0.0,0,0.0,1500.0,1500.0,0.0,0.0,0.0,0.0,0.0,0.0,20481258,PX4FMU_V2,c17f0b6885b5678d25510dd57a90f80b05115e37,test,305419904.0
0.0582574680448,-0.205959901214,-1.26319539547,-0.0211490336806,-0.0155621999875,0.0144949406385,-1.83601510525,-0.453708678484,-9.72160816193,0.0,-0.0,0.0,0.0,-1.83601510525,-0.453708678484,-9.72160816193,-0.0214270465076,-0.0166518762708,0.0126252975315,0.142841175199,0.198592990637,0.41303730011,-1.83601510525,-0.453708678484,-9.72160816193,-0.0268288217485,0.00856794323772,0.0252330247313,0.0,0.0,0.0,,,,,,,,,,995.099975586,152.190658569,42.469997406,0.0,0.0,9.81747725746e-05,0.0,-10.0,0.0,0.0,0.0,0.0,0.0,0.0,0.0,0.0,63,0,1,1.0,1.0,,,,,,,,,,,,,,,,,,,,,,,,0,2,0,0.48011636734,0,0,0.0,0.0,0.0,0.31564244628,-1.0,-0.800000011921,-1.0,0.0,7,0,0.0,0.0,0.0,0.0,0.0,0.0,0.0,0.0,,,,0.0,0.0,0.0,,,,,,,,0.0,0.0,0.0,0.0,0.0,0.0,1.0,1.0,0.0,,,,,,,,,,,,,,,,,,,,,,0.0,0.0,0.0,11.3406000137,11.3522796631,0.0,0.168456122279,,,,167,169,34,27,0,0,100,19895275,,,,,,,,,,,,,,,,,,,,,,,,,,,,,,,,,,,,,,,,,,,,,,,,,,,,,,,,,5.24003887177,0.0670000016689,1.22200000286,0,1,0,0,0,,,,,,,,,,,,,,,,,,,,,,,,,,,,,,,,,,,,,,,,,,,,,,,,,,,,,,,,,,,,,,,,,,,,,,,,,,,,,,,,,,,,,,,,,,,,,,,,,,,1,0.0,0,0.0,1500.0,1500.0,0.0,0.0,0.0,0.0,0.0,0.0,20487328,PX4FMU_V2,c17f0b6885b5678d25510dd57a90f80b05115e37,test,305419904.0
0.0581495277584,-0.206008091569,-1.26307821274,-0.0216923132539,-0.0172351039946,0.0153776509687,-1.8316026926,-0.418972104788,-9.70833301544,0.0,-0.0,0.0,0.0,-1.8316026926,-0.418972104788,-9.70833301544,-0.0217921938747,-0.0178876146674,0.0131219495088,0.142841175199,0.198592990637,0.41303730011,-1.8316026926,-0.418972104788,-9.70833301544,-0.0272092446685,0.0066719125025,0.0245984103531,0.0,0.0,0.0,,,,,,,,,,995.149963379,151.768325806,42.469997406,0.0,0.0,9.81747725746e-05,0.0,-10.0,0.0,0.0,0.0,0.0,0.0,0.0,0.0,0.0,63,0,1,1.0,1.0,,,,,,,,,,,,,,,,,,,,,,,,0,2,0,0.48011636734,0,0,0.0,0.0,0.0,0.31564244628,-1.0,-0.800000011921,-1.0,0.0,7,0,0.0,0.0,0.0,0.0,0.0,0.0,0.0,0.0,,,,0.0,0.0,0.0,,,,,,,,0.0,0.0,0.0,0.0,0.0,0.0,1.0,1.0,0.0,,,,,,,,,,,,,,,,,,,,,,0.0,0.0,0.0,11.3898000717,11.3523168564,0.0,0.168456122279,,,,167,169,34,27,0,0,100,19895275,,,,,,,,,,,,,,,,,,,,,,,,,,,,,,,,,,,,,,,,,,,,,,,,,,,,,,,,,5.24003887177,0.0670000016689,1.22200000286,0,1,0,0,0,,,,,,,,,,,,,,,,,,,,,,,,,,,,,,,,,,,,,,,,,,,,,,,,,,,,,,,,,,,,,,,,,,,,,,,,,,,,,,,,,,,,,,,,,,,,,,,,,,,1,0.0,0,0.0,1500.0,1500.0,0.0,0.0,0.0,0.0,0.0,0.0,20493476,PX4FMU_V2,c17f0b6885b5678d25510dd57a90f80b05115e37,test,305419904.0
0.0579253509641,-0.20612642169,-1.26289570332,-0.0219628661871,-0.020526478067,0.0168383605778,-1.85684204102,-0.36567863822,-9.68564414978,0.0,-0.0,0.0,0.0,-1.85684204102,-0.36567863822,-9.68564414978,-0.0210539717227,-0.0210575163364,0.0148002970964,0.144201174378,0.197232991457,0.414077281952,-1.85684204102,-0.36567863822,-9.68564414978,-0.0225430950522,0.00265750591643,0.0187977161258,0.0,0.0,0.0,,,,,,,,,,995.149963379,151.768325806,42.469997406,0.0,0.0,9.81747725746e-05,0.0,-10.0,0.0,0.0,0.0,0.0,0.0,0.0,0.0,0.0,63,0,1,1.0,1.0,,,,,,,,,,,,,,,,,,,,,,,,0,2,0,0.48011636734,0,0,0.0,0.0,0.0,0.192737430334,-1.0,-0.800000011921,-1.0,0.0,7,0,0.0,0.0,0.0,0.0,0.0,0.0,0.0,0.0,,,,0.0,0.0,0.0,,,,,,,,0.0,0.0,0.0,0.0,0.0,0.0,1.0,1.0,0.0,,,,,,,,,,,,,,,,,,,,,,0.0,0.0,0.0,11.3898000717,11.3523168564,0.0,0.168456122279,,,,167,169,34,27,0,0,100,19895275,,,,,,,,,,,,,,,,,,,,,,,,,,,,,,,,,,,,,,,,,,,,,,,,,,,,,,,,,5.24326181412,0.0670000016689,1.21500003338,0,1,0,0,0,,,,,,,,,,,,,,,,,,,,,,,,,,,,,,,,,,,,,,,,,,,,,,,,,,,,,,,,,,,,,,,,,,,,,,,,,,,,,,,,,,,,,,,,,,,,,,,,,,,1,0.0,0,0.0,1500.0,1500.0,0.0,0.0,0.0,0.0,0.0,0.0,20499367,PX4FMU_V2,c17f0b6885b5678d25510dd57a90f80b05115e37,test,305419904.0
0.057812537998,-0.206198468804,-1.26279592514,-0.0215298309922,-0.0221345573664,0.0179552286863,-1.87643098831,-0.355379492044,-9.67733955383,0.0,-0.0,0.0,0.0,-1.87643098831,-0.355379492044,-9.67733955383,-0.0200028792024,-0.022532761097,0.016683742404,0.144201174378,0.197232991457,0.414077281952,-1.87643098831,-0.355379492044,-9.67733955383,-0.0229795761406,-0.000478496629512,0.0239776298404,0.0,0.0,0.0,,,,,,,,,,995.149963379,151.768325806,42.469997406,0.0,0.0,9.81747725746e-05,0.0,-10.0,0.0,0.0,0.0,0.0,0.0,0.0,0.0,0.0,63,0,1,1.0,1.0,,,,,,,,,,,,,,,,,,,,,,,,0,2,0,0.48011636734,0,0,0.0,0.0,0.0,0.192737430334,-1.0,-0.800000011921,-1.0,0.0,7,0,0.0,0.0,0.0,0.0,0.0,0.0,0.0,0.0,,,,0.0,0.0,0.0,,,,,,,,0.0,0.0,0.0,0.0,0.0,0.0,1.0,1.0,0.0,,,,,,,,,,,,,,,,,,,,,,0.0,0.0,0.0,11.307800293,11.3522720337,0.0,0.168456122279,,,,167,169,34,27,0,0,100,19895275,,,,,,,,,,,,,,,,,,,,,,,,,,,,,,,,,,,,,,,,,,,,,,,,,,,,,,,,,5.23681640625,0.0670000016689,1.21500003338,0,1,0,0,0,,,,,,,,,,,,,,,,,,,,,,,,,,,,,,,,,,,,,,,,,,,,,,,,,,,,,,,,,,,,,,,,,,,,,,,,,,,,,,,,,,,,,,,,,,,,,,,,,,,1,0.0,0,0.0,1500.0,1500.0,0.0,0.0,0.0,0.0,0.0,0.0,20505404,PX4FMU_V2,c17f0b6885b5678d25510dd57a90f80b05115e37,test,305419904.0
0.0575920566916,-0.206359803677,-1.26264381409,-0.0203320290893,-0.0249582007527,0.0212456136942,-1.87474691868,-0.38302692771,-9.68670082092,0.0,-0.0,0.0,0.0,-1.87474691868,-0.38302692771,-9.68670082092,-0.0187642276287,-0.0248440355062,0.0213183201849,0.143801182508,0.196913003922,0.411197304726,-1.87474691868,-0.38302692771,-9.68670082092,-0.0220707748085,-0.00367744872347,0.0349833741784,0.0,0.0,0.0,,,,,,,,,,995.149963379,151.768325806,42.469997406,0.0,0.0,9.81747725746e-05,0.0,-10.0,0.0,0.0,0.0,0.0,0.0,0.0,0.0,0.0,63,0,1,1.0,1.0,,,,,,,,,,,,,,,,,,,,,,,,0,2,0,0.48011636734,0,0,0.0,0.0,0.0,0.192737430334,-1.0,-0.800000011921,-1.0,0.0,7,0,0.0,0.0,0.0,0.0,0.0,0.0,0.0,0.0,,,,0.0,0.0,0.0,,,,,,,,0.0,0.0,0.0,0.0,0.0,0.0,1.0,1.0,0.0,,,,,,,,,,,,,,,,,,,,,,0.0,0.0,0.0,11.307800293,11.3522720337,0.0,0.168456122279,,,,167,169,34,27,0,0,100,19895275,,,,,,,,,,,,,,,,,,,,,,,,,,,,,,,,,,,,,,,,,,,,,,,,,,,,,,,,,5.23681640625,0.0670000016689,1.21500003338,0,1,0,0,0,,,,,,,,,,,,,,,,,,,,,,,,,,,,,,,,,,,,,,,,,,,,,,,,,,,,,,,,,,,,,,,,,,,,,,,,,,,,,,,,,,,,,,,,,,,,,,,,,,,1,0.0,0,0.0,1500.0,1500.0,0.0,0.0,0.0,0.0,0.0,0.0,20511484,PX4FMU_V2,c17f0b6885b5678d25510dd57a90f80b05115e37,test,305419904.0
0.0574864931405,-0.206443548203,-1.26253473759,-0.0197428483516,-0.0261648129672,0.0230786688626,-1.8478705883,-0.403184205294,-9.68464756012,0.0,-0.0,0.0,0.0,-1.8478705883,-0.403184205294,-9.68464756012,-0.0183527898043,-0.0258453805,0.0232529826462,0.143801182508,0.196913003922,0.411197304726,-1.8478705883,-0.403184205294,-9.68464756012,-0.022052442655,-0.00780411716551,0.0393175669014,0.0,0.0,0.0,,,,,,,,,,995.130004883,151.937255859,42.469997406,0.0,0.0,9.81747725746e-05,0.0,-10.0,0.0,0.0,0.0,0.0,0.0,0.0,0.0,0.0,63,0,1,1.0,1.0,,,,,,,,,,,,,,,,,,,,,,,,0,2,0,0.48011636734,0,0,0.0,0.0,0.0,0.192737430334,-1.0,-0.800000011921,-1.0,0.0,7,0,0.0,0.0,0.0,0.0,0.0,0.0,0.0,0.0,,,,0.0,0.0,0.0,,,,,,,,0.0,0.0,0.0,0.0,0.0,0.0,1.0,1.0,0.0,,,,,,,,,,,,,,,,,,,,,,0.0,0.0,0.0,11.3406000137,11.3522605896,0.0,0.168456122279,,,,167,169,34,27,0,0,100,19895275,,,,,,,,,,,,,,,,,,,,,,,,,,,,,,,,,,,,,,,,,,,,,,,,,,,,,,,,,5.23520517349,0.0670000016689,1.21500003338,0,1,0,0,0,,,,,,,,,,,,,,,,,,,,,,,,,,,,,,,,,,,,,,,,,,,,,,,,,,,,,,,,,,,,,,,,,,,,,,,,,,,,,,,,,,,,,,,,,,,,,,,,,,,1,0.0,0,0.0,1500.0,1500.0,0.0,0.0,0.0,0.0,0.0,0.0,20517542,PX4FMU_V2,c17f0b6885b5678d25510dd57a90f80b05115e37,test,305419904.0
0.057278290391,-0.206619560719,-1.26229047775,-0.0186876691878,-0.0284088533372,0.0256284549832,-1.80029821396,-0.413127779961,-9.66048431396,0.0,-0.0,0.0,0.0,-1.80029821396,-0.413127779961,-9.66048431396,-0.0176941063255,-0.0279305372387,0.0242706239223,0.144681170583,0.197153002024,0.414077281952,-1.80029821396,-0.413127779961,-9.66048431396,-0.0250639393926,-0.0124082500115,0.0411216653883,0.0,0.0,0.0,,,,,,,,,,995.130004883,151.937255859,42.469997406,0.0,0.0,9.81747725746e-05,0.0,-10.0,0.0,0.0,0.0,0.0,0.0,0.0,0.0,0.0,63,0,1,1.0,1.0,,,,,,,,,,,,,,,,,,,,,,,,0,2,0,0.48011636734,0,0,0.0,0.0,0.0,-0.0,-1.0,-0.800000011921,-1.0,0.0,7,0,0.0,0.0,0.0,0.0,0.0,0.0,0.0,0.0,,,,0.0,0.0,0.0,,,,,,,,0.0,0.0,0.0,0.0,0.0,0.0,1.0,1.0,0.0,,,,,,,,,,,,,,,,,,,,,,0.0,0.0,0.0,11.3406000137,11.3522605896,0.0,0.168456122279,,,,167,169,34,27,0,0,100,19895275,,,,,,,,,,,,,,,,,,,,,,,,,,,,,,,,,,,,,,,,,,,,,,,,,,,,,,,,,5.2335934639,0.0670000016689,1.22400009632,0,1,0,0,0,,,,,,,,,,,,,,,,,,,,,,,,,,,,,,,,,,,,,,,,,,,,,,,,,,,,,,,,,,,,,,,,,,,,,,,,,,,,,,,,,,,,,,,,,,,,,,,,,,,1,0.0,0,0.0,1500.0,1500.0,0.0,0.0,0.0,0.0,0.0,0.0,20524529,PX4FMU_V2,c17f0b6885b5678d25510dd57a90f80b05115e37,test,305419904.0
0.0570731796324,-0.206815764308,-1.26199495792,-0.0177012756467,-0.0305771864951,0.0261788107455,-1.8261859417,-0.392998844385,-9.61771392822,0.0,-0.0,0.0,0.0,-1.8261859417,-0.392998844385,-9.61771392822,-0.0168380402029,-0.0301693696529,0.0236356910318,0.144761174917,0.197072997689,0.412957280874,-1.8261859417,-0.392998844385,-9.61771392822,-0.022608987987,-0.0139319943264,0.0385498441756,0.0,0.0,0.0,,,,,,,,,,995.130004883,151.937255859,42.469997406,0.0,0.0,9.81747725746e-05,0.0,-10.0,0.0,0.0,0.0,0.0,0.0,0.0,0.0,0.0,63,0,1,1.0,1.0,,,,,,,,,,,,,,,,,,,,,,,,0,2,0,0.48011636734,0,0,0.0,0.0,0.0,-0.0,-1.0,-0.800000011921,-1.0,0.0,7,0,0.0,0.0,0.0,0.0,0.0,0.0,0.0,0.0,,,,0.0,0.0,0.0,,,,,,,,0.0,0.0,0.0,0.0,0.0,0.0,1.0,1.0,0.0,,,,,,,,,,,,,,,,,,,,,,0.0,0.0,0.0,11.3733997345,11.3522815704,0.0,0.168456122279,,,,167,169,34,27,0,0,100,19895275,,,,,,,,,,,,,,,,,,,,,,,,,,,,,,,,,,,,,,,,,,,,,,,,,,,,,,,,,5.2335934639,0.0670000016689,1.22400009632,0,1,0,0,0,,,,,,,,,,,,,,,,,,,,,,,,,,,,,,,,,,,,,,,,,,,,,,,,,,,,,,,,,,,,,,,,,,,,,,,,,,,,,,,,,,,,,,,,,,,,,,,,,,,1,0.0,0,0.0,1500.0,1500.0,0.0,0.0,0.0,0.0,0.0,0.0,20531850,PX4FMU_V2,c17f0b6885b5678d25510dd57a90f80b05115e37,test,305419904.0
