ATT_Roll,ATT_Pitch,ATT_Yaw,ATT_RollRate,ATT_PitchRate,ATT_YawRate,ATT_GX,ATT_GY,ATT_GZ,ATSP_RollSP,ATSP_PitchSP,ATSP_YawSP,ATSP_ThrustSP,IMU_AccX,IMU_AccY,IMU_AccZ,IMU_GyroX,IMU_GyroY,IMU_GyroZ,IMU_MagX,IMU_MagY,IMU_MagZ,IMU1_AccX,IMU1_AccY,IMU1_AccZ,IMU1_GyroX,IMU1_GyroY,IMU1_GyroZ,IMU1_MagX,IMU1_MagY,IMU1_MagZ,IMU2_AccX,IMU2_AccY,IMU2_AccZ,IMU2_GyroX,IMU2_GyroY,IMU2_GyroZ,IMU2_MagX,IMU2_MagY,IMU2_MagZ,SENS_BaroPres,SENS_BaroAlt,SENS_BaroTemp,SENS_DiffPres,SENS_DiffPresFilt,LPOS_X,LPOS_Y,LPOS_Z,LPOS_Dist,LPOS_DistR,LPOS_VX,LPOS_VY,LPOS_VZ,LPOS_RLat,LPOS_RLon,LPOS_RAlt,LPOS_PFlg,LPOS_LFlg,LPOS_GFlg,LPOS_EPH,LPOS_EPV,LPSP_X,LPSP_Y,LPSP_Z,LPSP_Yaw,GPS_GPSTime,GPS_Fix,GPS_EPH,GPS_EPV,GPS_Lat,GPS_Lon,GPS_Alt,GPS_VelN,GPS_VelE,GPS_VelD,GPS_Cog,GPS_nSat,GPS_SNR,GPS_N,GPS_J,ATTC_Roll,ATTC_Pitch,ATTC_Yaw,ATTC_Thrust,STAT_MainState,STAT_ArmState,STAT_FailsafeState,STAT_BatRem,STAT_BatWarn,STAT_Landed,RC_Ch0,RC_Ch1,RC_Ch2,RC_Ch3,RC_Ch4,RC_Ch5,RC_Ch6,RC_Ch7,RC_Count,RC_SignalLost,OUT0_Out0,OUT0_Out1,OUT0_Out2,OUT0_Out3,OUT0_Out4,OUT0_Out5,OUT0_Out6,OUT0_Out7,AIRS_IndSpeed,AIRS_TrueSpeed,AIRS_AirTemp,ARSP_RollRateSP,ARSP_PitchRateSP,ARSP_YawRateSP,FLOW_RawX,FLOW_RawY,FLOW_CompX,FLOW_CompY,FLOW_Dist,FLOW_Q,FLOW_SensID,GPOS_Lat,GPOS_Lon,GPOS_Alt,GPOS_VelN,GPOS_VelE,GPOS_VelD,GPOS_EPH,GPOS_EPV,GPOS_TALT,GPSP_NavState,GPSP_Lat,GPSP_Lon,GPSP_Alt,GPSP_Yaw,GPSP_Type,GPSP_LoitR,GPSP_LoitDir,GPSP_PitMin,ESC_count,ESC_nESC,ESC_Conn,ESC_N,ESC_Ver,ESC_Adr,ESC_Volt,ESC_Amp,ESC_RPM,ESC_Temp,ESC_SetP,ESC_SetPRAW,GVSP_VX,GVSP_VY,GVSP_VZ,BATT_V,BATT_VFilt,BATT_C,BATT_Discharged,DIST_Bottom,DIST_BottomRate,DIST_Flags,TEL0_RSSI,TEL0_RemRSSI,TEL0_Noise,TEL0_RemNoise,TEL0_RXErr,TEL0_Fixed,TEL0_TXBuf,TEL0_HbTime,TEL1_RSSI,TEL1_RemRSSI,TEL1_Noise,TEL1_RemNoise,TEL1_RXErr,TEL1_Fixed,TEL1_TXBuf,TEL1_HbTime,TEL2_RSSI,TEL2_RemRSSI,TEL2_Noise,TEL2_RemNoise,TEL2_RXErr,TEL2_Fixed,TEL2_TXBuf,TEL2_HbTime,TEL3_RSSI,TEL3_RemRSSI,TEL3_Noise,TEL3_RemNoise,TEL3_RXErr,TEL3_Fixed,TEL3_TXBuf,TEL3_HbTime,EST0_s0,EST0_s1,EST0_s2,EST0_s3,EST0_s4,EST0_s5,EST0_s6,EST0_s7,EST0_s8,EST0_s9,EST0_s10,EST0_s11,EST0_nStat,EST0_fNaN,EST0_fHealth,EST0_fTOut,EST1_s12,EST1_s13,EST1_s14,EST1_s15,EST1_s16,EST1_s17,EST1_s18,EST1_s19,EST1_s20,EST1_s21,EST1_s22,EST1_s23,EST1_s24,EST1_s25,EST1_s26,EST1_s27,PWR_Periph5V,PWR_Servo5V,PWR_RSSI,PWR_UsbOk,PWR_BrickOk,PWR_ServoOk,PWR_PeriphOC,PWR_HipwrOC,VICN_X,VICN_Y,VICN_Z,VICN_Roll,VICN_Pitch,VICN_Yaw,VISN_X,VISN_Y,VISN_Z,VISN_VX,VISN_VY,VISN_VZ,VISN_QuatX,VISN_QuatY,VISN_QuatZ,VISN_QuatW,GS0A_s0,GS0A_s1,GS0A_s2,GS0A_s3,GS0A_s4,GS0A_s5,GS0A_s6,GS0A_s7,GS0A_s8,GS0A_s9,GS0A_s10,GS0A_s11,GS0A_s12,GS0A_s13,GS0A_s14,GS0A_s15,GS0B_s0,GS0B_s1,GS0B_s2,GS0B_s3,GS0B_s4,GS0B_s5,GS0B_s6,GS0B_s7,GS0B_s8,GS0B_s9,GS0B_s10,GS0B_s11,GS0B_s12,GS0B_s13,GS0B_s14,GS0B_s15,GS1A_s0,GS1A_s1,GS1A_s2,GS1A_s3,GS1A_s4,GS1A_s5,GS1A_s6,GS1A_s7,GS1A_s8,GS1A_s9,GS1A_s10,GS1A_s11,GS1A_s12,GS1A_s13,GS1A_s14,GS1A_s15,GS1B_s0,GS1B_s1,GS1B_s2,GS1B_s3,GS1B_s4,GS1B_s5,GS1B_s6,GS1B_s7,GS1B_s8,GS1B_s9,GS1B_s10,GS1B_s11,GS1B_s12,GS1B_s13,GS1B_s14,GS1B_s15,TECS_ASP,TECS_AF,TECS_FSP,TECS_F,TECS_FF,TECS_AsSP,TECS_AsF,TECS_AsDSP,TECS_AsD,TECS_TERSP,TECS_TER,TECS_EDRSP,TECS_EDR,TECS_M,WIND_X,WIND_Y,WIND_CovX,WIND_CovY,ENCD_cnt0,ENCD_vel0,ENCD_cnt1,ENCD_vel1,OUT1_Out0,OUT1_Out1,OUT1_Out2,OUT1_Out3,OUT1_Out4,OUT1_Out5,OUT1_Out6,OUT1_Out7,TIME_StartTime,VER_Arch,VER_FwGit,PARM_Name,PARM_Value
,,,,,,,,,,,,,,,,,,,,,,,,,,,,,,,,,,,,,,,,,,,,,,,,,,,,,,,,,,,,,,,,,,,,,,,,,,,,,,,,,,,,,,,,,,,,,,,,,,,,,,,,,,,,,,,,,,,,,,,,,,,,,,,,,,,,,,,,,,,,,,,,,,,,,,,,,,,,,,,,,,,,,,,,,,,,,,,,,,,,,,,,,,,,,,,,,,,,,,,,,,,,,,,,,,,,,,,,,,,,,,,,,,,,,,,,,,,,,,,,,,,,,,,,,,,,,,,,,,,,,,,,,,,,,,,,,,,,,,,,,,,,,,,,,,,,,,,,,,,,,,,,,,,,,,,,,,,,,,,,,,,,,,,,,,,,,,,,,,,,,,,,PX4FMU_V2,c17f0b6885b5678d25510dd57a90f80b05115e37,test,305419904.0
0.0226724725217,0.00150943105109,2.15149092674,-0.00190159946214,-0.00352670811117,-0.00208410900086,0.16210745275,-0.311063468456,-9.80218410492,0.0,-0.0,0.0,0.0,0.16210745275,-0.311063468456,-9.80218410492,-0.00173996668309,-0.00324885034934,-0.0020895996131,-0.111638791859,-0.153087005019,0.430317282677,0.16210745275,-0.311063468456,-9.80218410492,-0.00278635439463,0.0207478515804,0.000604430853855,0.0,0.0,0.0,,,,,,,,,,995.049987793,152.613006592,44.0699996948,0.0,0.0,0.92470818758,0.0,-10.0,0.0,0.0,0.0,0.0,0.0,0.0,0.0,0.0,63,0,1,1.0,1.0,,,,,,,,,,,,,,,,,,,,,,,,0,2,0,0.455056190491,0,0,0.0,0.0,-1.0,0.9608938694,-1.0,-0.800000011921,-1.0,0.0,7,0,0.0,0.0,0.0,0.0,0.0,0.0,0.0,0.0,,,,0.0,0.0,0.0,,,,,,,,0.0,0.0,0.0,0.0,0.0,0.0,1.0,1.0,0.0,,,,,,,,,,,,,,,,,,,,,,0.0,0.0,0.0,11.2421998978,11.2878484726,0.0,2.86856007576,,,,165,166,31,25,0,0,100,218937270,,,,,,,,,,,,,,,,,,,,,,,,,,,,,,,,,,,,,,,,,,,,,,,,,,,,,,,,,5.21586894989,0.0670000016689,1.52100002766,0,1,0,0,0,,,,,,,,,,,,,,,,,,,,,,,,,,,,,,,,,,,,,,,,,,,,,,,,,,,,,,,,,,,,,,,,,,,,,,,,,,,,,,,,,,,,,,,,,,,,,,,,,,,4727,0.0,4692,0.0,1500.0,1500.0,0.0,0.0,0.0,0.0,0.0,0.0,219753554,PX4FMU_V2,c17f0b6885b5678d25510dd57a90f80b05115e37,test,305419904.0
0.0226754322648,0.00151301920414,2.15145087242,-0.00172448996454,-0.00314063811675,-0.0020965046715,0.157644823194,-0.306483775377,-9.79235076904,0.0,-0.0,0.0,0.0,0.157644823194,-0.306483775377,-9.79235076904,-0.0016904118238,-0.00295095262118,-0.00209990981966,-0.109958790243,-0.155406996608,0.429677307606,0.157644823194,-0.306483775377,-9.79235076904,-0.00876181945205,0.0239277109504,0.00515651516616,0.0,0.0,0.0,,,,,,,,,,995.049987793,152.613006592,44.0699996948,0.0,0.0,0.92470818758,0.0,-10.0,0.0,0.0,0.0,0.0,0.0,0.0,0.0,0.0,63,0,1,1.0,1.0,,,,,,,,,,,,,,,,,,,,,,,,0,2,0,0.453340768814,0,0,0.0,0.0,-1.0,0.9608938694,-1.0,-0.800000011921,-1.0,0.0,7,0,0.0,0.0,0.0,0.0,0.0,0.0,0.0,0.0,,,,0.0,0.0,0.0,,,,,,,,0.0,0.0,0.0,0.0,0.0,0.0,1.0,1.0,0.0,,,,,,,,,,,,,,,,,,,,,,0.0,0.0,0.0,11.258600235,11.2878189087,0.0,2.86856007576,,,,165,166,31,25,0,0,100,218937270,,,,,,,,,,,,,,,,,,,,,,,,,,,,,,,,,,,,,,,,,,,,,,,,,,,,,,,,,5.2013669014,0.0670000016689,1.52100002766,0,1,0,0,0,,,,,,,,,,,,,,,,,,,,,,,,,,,,,,,,,,,,,,,,,,,,,,,,,,,,,,,,,,,,,,,,,,,,,,,,,,,,,,,,,,,,,,,,,,,,,,,,,,,4727,0.0,4692,0.0,1500.0,1500.0,0.0,0.0,0.0,0.0,0.0,0.0,219760443,PX4FMU_V2,c17f0b6885b5678d25510dd57a90f80b05115e37,test,305419904.0
0.022676538676,0.00151196192019,2.1513645649,-0.00171831878833,-0.00366173754446,-0.0020655260887,0.161209240556,-0.299438774586,-9.80449581146,0.0,-0.0,0.0,0.0,0.161209240556,-0.299438774586,-9.80449581146,-0.00179806211963,-0.00431473180652,-0.00209339451976,-0.109958790243,-0.155406996608,0.429677307606,0.161209240556,-0.299438774586,-9.80449581146,-0.00448387814686,0.0238828621805,0.0033046642784,0.0,0.0,0.0,,,,,,,,,,995.049987793,152.613006592,44.0699996948,0.0,0.0,0.92470818758,0.0,-10.0,0.0,0.0,0.0,0.0,0.0,0.0,0.0,0.0,63,0,1,1.0,1.0,,,,,,,,,,,,,,,,,,,,,,,,0,2,0,0.453340768814,0,0,0.0,0.0,-1.0,0.9608938694,-1.0,-0.800000011921,-1.0,0.0,7,0,0.0,0.0,0.0,0.0,0.0,0.0,0.0,0.0,,,,0.0,0.0,0.0,,,,,,,,0.0,0.0,0.0,0.0,0.0,0.0,1.0,1.0,0.0,,,,,,,,,,,,,,,,,,,,,,0.0,0.0,0.0,11.258600235,11.2877893448,0.0,2.86856007576,,,,165,166,31,25,0,0,100,218937270,,,,,,,,,,,,,,,,,,,,,,,,,,,,,,,,,,,,,,,,,,,,,,,,,,,,,,,,,5.2013669014,0.0670000016689,1.52100002766,0,1,0,0,0,,,,,,,,,,,,,,,,,,,,,,,,,,,,,,,,,,,,,,,,,,,,,,,,,,,,,,,,,,,,,,,,,,,,,,,,,,,,,,,,,,,,,,,,,,,,,,,,,,,4727,0.0,4692,0.0,1500.0,1500.0,0.0,0.0,0.0,0.0,0.0,0.0,219767305,PX4FMU_V2,c17f0b6885b5678d25510dd57a90f80b05115e37,test,305419904.0
0.0226775817573,0.00150985689834,2.1514339447,-0.00169744784944,-0.00400932319462,-0.00210125697777,0.162799432874,-0.303080260754,-9.80826187134,0.0,-0.0,0.0,0.0,0.162799432874,-0.303080260754,-9.80826187134,-0.00170912954491,-0.00460548978299,-0.0021693604067,-0.110838793218,-0.154606983066,0.430717289448,0.162799432874,-0.303080260754,-9.80826187134,-0.002969709225,0.0215517356992,0.00417597219348,0.0,0.0,0.0,,,,,,,,,,995.049987793,152.613006592,44.0699996948,0.0,0.0,0.92470818758,0.0,-10.0,0.0,0.0,0.0,0.0,0.0,0.0,0.0,0.0,63,0,1,1.0,1.0,,,,,,,,,,,,,,,,,,,,,,,,0,2,0,0.453340768814,0,0,0.0,0.0,-1.0,0.955307245255,-1.0,-0.800000011921,-1.0,0.0,7,0,0.0,0.0,0.0,0.0,0.0,0.0,0.0,0.0,,,,0.0,0.0,0.0,,,,,,,,0.0,0.0,0.0,0.0,0.0,0.0,1.0,1.0,0.0,,,,,,,,,,,,,,,,,,,,,,0.0,0.0,0.0,11.258600235,11.2877893448,0.0,2.86856007576,,,,165,166,31,25,0,0,100,218937270,,,,,,,,,,,,,,,,,,,,,,,,,,,,,,,,,,,,,,,,,,,,,,,,,,,,,,,,,5.2013669014,0.0670000016689,1.52100002766,0,1,0,0,0,,,,,,,,,,,,,,,,,,,,,,,,,,,,,,,,,,,,,,,,,,,,,,,,,,,,,,,,,,,,,,,,,,,,,,,,,,,,,,,,,,,,,,,,,,,,,,,,,,,4727,0.0,4692,0.0,1500.0,1500.0,0.0,0.0,0.0,0.0,0.0,0.0,219773517,PX4FMU_V2,c17f0b6885b5678d25510dd57a90f80b05115e37,test,305419904.0
0.0226825661957,0.00150285894051,2.15135622025,-0.00156251247972,-0.00461708614603,-0.00217464892194,0.16479806602,-0.314946055412,-9.81848812103,0.0,-0.0,0.0,0.0,0.16479806602,-0.314946055412,-9.81848812103,-0.00149853993207,-0.00499390251935,-0.00218705716543,-0.10931879282,-0.155486986041,0.430877298117,0.16479806602,-0.314946055412,-9.81848812103,0.00061514537083,0.0223313942552,0.0047653070651,0.0,0.0,0.0,,,,,,,,,,995.070007324,152.444061279,44.0699996948,0.0,0.0,0.92470818758,0.0,-10.0,0.0,0.0,0.0,0.0,0.0,0.0,0.0,0.0,63,0,1,1.0,1.0,,,,,,,,,,,,,,,,,,,,,,,,0,2,0,0.453340768814,0,0,0.0,0.0,-1.0,0.955307245255,-1.0,-0.800000011921,-1.0,0.0,7,0,0.0,0.0,0.0,0.0,0.0,0.0,0.0,0.0,,,,0.0,0.0,0.0,,,,,,,,0.0,0.0,0.0,0.0,0.0,0.0,1.0,1.0,0.0,,,,,,,,,,,,,,,,,,,,,,0.0,0.0,0.0,11.258600235,11.2877597809,0.0,2.86856007576,,,,165,166,31,25,0,0,100,218937270,,,,,,,,,,,,,,,,,,,,,,,,,,,,,,,,,,,,,,,,,,,,,,,,,,,,,,,,,5.19975566864,0.0650000050664,1.52200007439,0,1,0,0,0,,,,,,,,,,,,,,,,,,,,,,,,,,,,,,,,,,,,,,,,,,,,,,,,,,,,,,,,,,,,,,,,,,,,,,,,,,,,,,,,,,,,,,,,,,,,,,,,,,,4727,0.0,4692,0.0,1500.0,1500.0,0.0,0.0,0.0,0.0,0.0,0.0,219779795,PX4FMU_V2,c17f0b6885b5678d25510dd57a90f80b05115e37,test,305419904.0
0.022684501484,0.00149857625365,2.15131115913,-0.00158233195543,-0.00479927984998,-0.00216152798384,0.163648918271,-0.310359954834,-9.81733894348,0.0,-0.0,0.0,0.0,0.163648918271,-0.310359954834,-9.81733894348,-0.0016770157963,-0.00497437268496,-0.00212731189094,-0.10931879282,-0.155486986041,0.430877298117,0.163648918271,-0.310359954834,-9.81733894348,-0.000387289910577,0.0214956700802,0.00366567308083,0.0,0.0,0.0,,,,,,,,,,995.070007324,152.444061279,44.0699996948,0.0,0.0,0.92470818758,0.0,-10.0,0.0,0.0,0.0,0.0,0.0,0.0,0.0,0.0,63,0,1,1.0,1.0,,,,,,,,,,,,,,,,,,,,,,,,0,2,0,0.453340768814,0,0,0.0,0.0,-1.0,0.955307245255,-1.0,-0.800000011921,-1.0,0.0,7,0,0.0,0.0,0.0,0.0,0.0,0.0,0.0,0.0,,,,0.0,0.0,0.0,,,,,,,,0.0,0.0,0.0,0.0,0.0,0.0,1.0,1.0,0.0,,,,,,,,,,,,,,,,,,,,,,0.0,0.0,0.0,11.258600235,11.2877597809,0.0,2.86856007576,,,,165,166,31,25,0,0,100,218937270,,,,,,,,,,,,,,,,,,,,,,,,,,,,,,,,,,,,,,,,,,,,,,,,,,,,,,,,,5.19975566864,0.0650000050664,1.52200007439,0,1,0,0,0,,,,,,,,,,,,,,,,,,,,,,,,,,,,,,,,,,,,,,,,,,,,,,,,,,,,,,,,,,,,,,,,,,,,,,,,,,,,,,,,,,,,,,,,,,,,,,,,,,,4727,0.0,4692,0.0,1500.0,1500.0,0.0,0.0,0.0,0.0,0.0,0.0,219785593,PX4FMU_V2,c17f0b6885b5678d25510dd57a90f80b05115e37,test,305419904.0
0.022688742727,0.00149028305896,2.15134143829,-0.00156390841585,-0.00486263958737,-0.00237980368547,0.161570847034,-0.311433911324,-9.80459976196,0.0,-0.0,0.0,0.0,0.161570847034,-0.311433911324,-9.80459976196,-0.00155605538748,-0.00470933783799,-0.00262429052964,-0.111478790641,-0.155327007174,0.43151730299,0.161570847034,-0.311433911324,-9.80459976196,-0.00194772076793,0.0222942344844,0.00413431739435,0.0,0.0,0.0,,,,,,,,,,995.059997559,152.528533936,44.0699996948,0.0,0.0,0.92470818758,0.0,-10.0,0.0,0.0,0.0,0.0,0.0,0.0,0.0,0.0,63,0,1,1.0,1.0,,,,,,,,,,,,,,,,,,,,,,,,0,2,0,0.453340768814,0,0,0.0,0.0,-1.0,0.955307245255,-1.0,-0.800000011921,-1.0,0.0,7,0,0.0,0.0,0.0,0.0,0.0,0.0,0.0,0.0,,,,0.0,0.0,0.0,,,,,,,,0.0,0.0,0.0,0.0,0.0,0.0,1.0,1.0,0.0,,,,,,,,,,,,,,,,,,,,,,0.0,0.0,0.0,11.2258005142,11.2876977921,0.0,2.86856007576,,,,165,166,31,25,0,0,100,218937270,,,,,,,,,,,,,,,,,,,,,,,,,,,,,,,,,,,,,,,,,,,,,,,,,,,,,,,,,5.17880868912,0.0650000050664,1.22100007534,0,1,0,0,0,,,,,,,,,,,,,,,,,,,,,,,,,,,,,,,,,,,,,,,,,,,,,,,,,,,,,,,,,,,,,,,,,,,,,,,,,,,,,,,,,,,,,,,,,,,,,,,,,,,4727,0.0,4692,0.0,1500.0,1500.0,0.0,0.0,0.0,0.0,0.0,0.0,219791637,PX4FMU_V2,c17f0b6885b5678d25510dd57a90f80b05115e37,test,305419904.0
0.0226912721992,0.00148541794624,2.15129423141,-0.00155525142327,-0.00493431277573,-0.00255812564865,0.15917815268,-0.313553929329,-9.79530715942,0.0,-0.0,0.0,0.0,0.15917815268,-0.313553929329,-9.79530715942,-0.00158591289073,-0.00491726025939,-0.0028330553323,-0.111478790641,-0.155327007174,0.43151730299,0.15917815268,-0.313553929329,-9.79530715942,-0.00224060518667,0.0229749400169,0.00593752041459,0.0,0.0,0.0,,,,,,,,,,995.059997559,152.528533936,44.0699996948,0.0,0.0,0.92470818758,0.0,-10.0,0.0,0.0,0.0,0.0,0.0,0.0,0.0,0.0,63,0,1,1.0,1.0,,,,,,,,,,,,,,,,,,,,,,,,0,2,0,0.453340768814,0,0,0.0,0.0,-1.0,0.930167615414,-1.0,-0.800000011921,-1.0,0.0,7,0,0.0,0.0,0.0,0.0,0.0,0.0,0.0,0.0,,,,0.0,0.0,0.0,,,,,,,,0.0,0.0,0.0,0.0,0.0,0.0,1.0,1.0,0.0,,,,,,,,,,,,,,,,,,,,,,0.0,0.0,0.0,11.2258005142,11.2876977921,0.0,2.86856007576,,,,165,166,31,25,0,0,100,218937270,,,,,,,,,,,,,,,,,,,,,,,,,,,,,,,,,,,,,,,,,,,,,,,,,,,,,,,,,5.19492197037,0.0650000050664,1.22100007534,0,1,0,0,0,,,,,,,,,,,,,,,,,,,,,,,,,,,,,,,,,,,,,,,,,,,,,,,,,,,,,,,,,,,,,,,,,,,,,,,,,,,,,,,,,,,,,,,,,,,,,,,,,,,4727,0.0,4692,0.0,1500.0,1500.0,0.0,0.0,0.0,0.0,0.0,0.0,219797679,PX4FMU_V2,c17f0b6885b5678d25510dd57a90f80b05115e37,test,305419904.0
0.0226965397596,0.00146870920435,2.15129566193,-0.00132792931981,-0.00503710377961,-0.00266579422168,0.16057009995,-0.315992951393,-9.77334117889,0.0,-0.0,0.0,0.0,0.16057009995,-0.315992951393,-9.77334117889,-0.00109232868999,-0.004814830143,-0.00251160073094,-0.111158795655,-0.155567005277,0.431437283754,0.16057009995,-0.315992951393,-9.77334117889,-0.00462448317558,0.0193608403206,0.00428864872083,0.0,0.0,0.0,,,,,,,,,,995.059997559,152.528533936,44.0699996948,0.0,0.0,0.92470818758,0.0,-10.0,0.0,0.0,0.0,0.0,0.0,0.0,0.0,0.0,63,0,1,1.0,1.0,,,,,,,,,,,,,,,,,,,,,,,,0,2,0,0.453340768814,0,0,0.0,0.0,-1.0,0.930167615414,-1.0,-0.800000011921,-1.0,0.0,7,0,0.0,0.0,0.0,0.0,0.0,0.0,0.0,0.0,,,,0.0,0.0,0.0,,,,,,,,0.0,0.0,0.0,0.0,0.0,0.0,1.0,1.0,0.0,,,,,,,,,,,,,,,,,,,,,,0.0,0.0,0.0,11.2667999268,11.2876768112,0.0,2.86856007576,,,,165,166,31,25,0,0,100,218937270,,,,,,,,,,,,,,,,,,,,,,,,,,,,,,,,,,,,,,,,,,,,,,,,,,,,,,,,,5.19492197037,0.0650000050664,1.22100007534,0,1,0,0,0,,,,,,,,,,,,,,,,,,,,,,,,,,,,,,,,,,,,,,,,,,,,,,,,,,,,,,,,,,,,,,,,,,,,,,,,,,,,,,,,,,,,,,,,,,,,,,,,,,,4727,0.0,4692,0.0,1500.0,1500.0,0.0,0.0,0.0,0.0,0.0,0.0,219803911,PX4FMU_V2,c17f0b6885b5678d25510dd57a90f80b05115e37,test,305419904.0
0.0227045193315,0.00146294303704,2.15131640434,-0.00134148728102,-0.00454498035833,-0.00258976686746,0.158420667052,-0.319041192532,-9.76885032654,0.0,-0.0,0.0,0.0,0.158420667052,-0.319041192532,-9.76885032654,-0.00155230367091,-0.00403140392154,-0.00250866427086,-0.110598795116,-0.15428699553,0.430077284575,0.158420667052,-0.319041192532,-9.76885032654,-0.00640652514994,0.0243235304952,0.00112654536497,0.0,0.0,0.0,,,,,,,,,,995.059997559,152.528533936,44.0699996948,0.0,0.0,0.92470818758,0.0,-10.0,0.0,0.0,0.0,0.0,0.0,0.0,0.0,0.0,63,0,1,1.0,1.0,,,,,,,,,,,,,,,,,,,,,,,,0,2,0,0.453340768814,0,0,0.0,0.0,-1.0,0.930167615414,-1.0,-0.800000011921,-1.0,0.0,7,0,0.0,0.0,0.0,0.0,0.0,0.0,0.0,0.0,,,,0.0,0.0,0.0,,,,,,,,0.0,0.0,0.0,0.0,0.0,0.0,1.0,1.0,0.0,,,,,,,,,,,,,,,,,,,,,,0.0,0.0,0.0,11.2667999268,11.2876768112,0.0,2.86856007576,,,,165,166,31,25,0,0,100,218937270,,,,,,,,,,,,,,,,,,,,,,,,,,,,,,,,,,,,,,,,,,,,,,,,,,,,,,,,,5.20620107651,0.0650000050664,1.22100007534,0,1,0,0,0,,,,,,,,,,,,,,,,,,,,,,,,,,,,,,,,,,,,,,,,,,,,,,,,,,,,,,,,,,,,,,,,,,,,,,,,,,,,,,,,,,,,,,,,,,,,,,,,,,,4727,0.0,4692,0.0,1500.0,1500.0,0.0,0.0,0.0,0.0,0.0,0.0,219811363,PX4FMU_V2,c17f0b6885b5678d25510dd57a90f80b05115e37,test,305419904.0
0.0227065496147,0.00146052555647,2.15127062798,-0.00143415469211,-0.0043654688634,-0.00260324706323,0.159352496266,-0.307563602924,-9.77001857758,0.0,-0.0,0.0,0.0,0.159352496266,-0.307563602924,-9.77001857758,-0.00165140675381,-0.00401938799769,-0.00258438521996,-0.110598795116,-0.15428699553,0.430077284575,0.159352496266,-0.307563602924,-9.77001857758,-0.00447009736672,0.0272154808044,-0.002076378325,0.0,0.0,0.0,,,,,,,,,,995.059997559,152.528533936,44.0699996948,0.0,0.0,0.92470818758,0.0,-10.0,0.0,0.0,0.0,0.0,0.0,0.0,0.0,0.0,63,0,1,1.0,1.0,,,,,,,,,,,,,,,,,,,,,,,,0,2,0,0.453340768814,0,0,0.0,0.0,0.0,0.888268172741,-1.0,-0.800000011921,-1.0,0.0,7,0,0.0,0.0,0.0,0.0,0.0,0.0,0.0,0.0,,,,0.0,0.0,0.0,,,,,,,,0.0,0.0,0.0,0.0,0.0,0.0,1.0,1.0,0.0,,,,,,,,,,,,,,,,,,,,,,0.0,0.0,0.0,11.307800293,11.2876968384,0.0,2.86856007576,,,,165,166,31,25,0,0,100,218937270,,,,,,,,,,,,,,,,,,,,,,,,,,,,,,,,,,,,,,,,,,,,,,,,,,,,,,,,,5.21103525162,0.0650000050664,1.23600006104,0,1,0,0,0,,,,,,,,,,,,,,,,,,,,,,,,,,,,,,,,,,,,,,,,,,,,,,,,,,,,,,,,,,,,,,,,,,,,,,,,,,,,,,,,,,,,,,,,,,,,,,,,,,,4727,0.0,4692,0.0,1500.0,1500.0,0.0,0.0,0.0,0.0,0.0,0.0,219816791,PX4FMU_V2,c17f0b6885b5678d25510dd57a90f80b05115e37,test,305419904.0
0.0227078478783,0.00145497533958,2.15117549896,-0.00167357316241,-0.00442241784185,-0.00245493324474,0.161764845252,-0.298573374748,-9.78662490845,0.0,-0.0,0.0,0.0,0.161764845252,-0.298573374748,-9.78662490845,-0.00188822916243,-0.00453146919608,-0.00225489283912,-0.107878796756,-0.153967007995,0.432557284832,0.161764845252,-0.298573374748,-9.78662490845,-0.000456529814983,0.0261571742594,-0.000724132289179,0.0,0.0,0.0,,,,,,,,,,995.079956055,152.359603882,44.0699996948,0.0,0.0,0.92470818758,0.0,-10.0,0.0,0.0,0.0,0.0,0.0,0.0,0.0,0.0,63,0,1,1.0,1.0,,,,,,,,,,,,,,,,,,,,,,,,0,2,0,0.453340768814,0,0,0.0,0.0,0.0,0.888268172741,-1.0,-0.800000011921,-1.0,0.0,7,0,0.0,0.0,0.0,0.0,0.0,0.0,0.0,0.0,,,,0.0,0.0,0.0,,,,,,,,0.0,0.0,0.0,0.0,0.0,0.0,1.0,1.0,0.0,,,,,,,,,,,,,,,,,,,,,,0.0,0.0,0.0,11.307800293,11.2876968384,0.0,2.86856007576,,,,165,166,31,25,0,0,100,218937270,,,,,,,,,,,,,,,,,,,,,,,,,,,,,,,,,,,,,,,,,,,,,,,,,,,,,,,,,5.21103525162,0.0650000050664,1.23600006104,0,1,0,0,0,,,,,,,,,,,,,,,,,,,,,,,,,,,,,,,,,,,,,,,,,,,,,,,,,,,,,,,,,,,,,,,,,,,,,,,,,,,,,,,,,,,,,,,,,,,,,,,,,,,4727,0.0,4692,0.0,1500.0,1500.0,0.0,0.0,0.0,0.0,0.0,0.0,219823365,PX4FMU_V2,c17f0b6885b5678d25510dd57a90f80b05115e37,test,305419904.0
0.022707613185,0.00145215401426,2.15113115311,-0.00181004952174,-0.00439487304538,-0.00243718922138,0.160489529371,-0.298128306866,-9.79522800446,0.0,-0.0,0.0,0.0,0.160489529371,-0.298128306866,-9.79522800446,-0.00204765726812,-0.0043351217173,-0.00239333533682,-0.107878796756,-0.153967007995,0.432557284832,0.160489529371,-0.298128306866,-9.79522800446,0.000951141293626,0.0258372183889,0.000579017796554,0.0,0.0,0.0,,,,,,,,,,995.079956055,152.359603882,44.0699996948,0.0,0.0,0.92470818758,0.0,-10.0,0.0,0.0,0.0,0.0,0.0,0.0,0.0,0.0,63,0,1,1.0,1.0,,,,,,,,,,,,,,,,,,,,,,,,0,2,0,0.453340768814,0,0,0.0,0.0,0.0,0.888268172741,-1.0,-0.800000011921,-1.0,0.0,7,0,0.0,0.0,0.0,0.0,0.0,0.0,0.0,0.0,,,,0.0,0.0,0.0,,,,,,,,0.0,0.0,0.0,0.0,0.0,0.0,1.0,1.0,0.0,,,,,,,,,,,,,,,,,,,,,,0.0,0.0,0.0,11.258600235,11.2876672745,0.0,2.86856007576,,,,165,166,31,25,0,0,100,218937270,,,,,,,,,,,,,,,,,,,,,,,,,,,,,,,,,,,,,,,,,,,,,,,,,,,,,,,,,5.20781230927,0.0650000050664,1.23600006104,0,1,0,0,0,,,,,,,,,,,,,,,,,,,,,,,,,,,,,,,,,,,,,,,,,,,,,,,,,,,,,,,,,,,,,,,,,,,,,,,,,,,,,,,,,,,,,,,,,,,,,,,,,,,4727,0.0,4692,0.0,1500.0,1500.0,0.0,0.0,0.0,0.0,0.0,0.0,219828851,PX4FMU_V2,c17f0b6885b5678d25510dd57a90f80b05115e37,test,305419904.0
0.022707439959,0.00145017076284,2.15105438232,-0.00206044828519,-0.0040253251791,-0.00253104930744,0.166747838259,-0.309543609619,-9.79873371124,0.0,-0.0,0.0,0.0,0.166747838259,-0.309543609619,-9.79873371124,-0.00217874138616,-0.00365934893489,-0.00255952728912,-0.108678795397,-0.154606983066,0.42959728837,0.166747838259,-0.309543609619,-9.79873371124,0.000392807443859,0.0245760623366,0.00079497799743,0.0,0.0,0.0,,,,,,,,,,995.079956055,152.359603882,44.0699996948,0.0,0.0,0.92470818758,0.0,-10.0,0.0,0.0,0.0,0.0,0.0,0.0,0.0,0.0,63,0,1,1.0,1.0,,,,,,,,,,,,,,,,,,,,,,,,0,2,0,0.453340768814,0,0,0.0,0.0,0.0,0.888268172741,-1.0,-0.800000011921,-1.0,0.0,7,0,0.0,0.0,0.0,0.0,0.0,0.0,0.0,0.0,,,,0.0,0.0,0.0,,,,,,,,0.0,0.0,0.0,0.0,0.0,0.0,1.0,1.0,0.0,,,,,,,,,,,,,,,,,,,,,,0.0,0.0,0.0,11.258600235,11.2876672745,0.0,2.86856007576,,,,165,166,31,25,0,0,100,218937270,,,,,,,,,,,,,,,,,,,,,,,,,,,,,,,,,,,,,,,,,,,,,,,,,,,,,,,,,5.20781230927,0.0650000050664,1.23600006104,0,1,0,0,0,,,,,,,,,,,,,,,,,,,,,,,,,,,,,,,,,,,,,,,,,,,,,,,,,,,,,,,,,,,,,,,,,,,,,,,,,,,,,,,,,,,,,,,,,,,,,,,,,,,4727,0.0,4692,0.0,1500.0,1500.0,0.0,0.0,0.0,0.0,0.0,0.0,219835002,PX4FMU_V2,c17f0b6885b5678d25510dd57a90f80b05115e37,test,305419904.0
0.0227086767554,0.00145045784302,2.15115213394,-0.00199139909819,-0.00381378829479,-0.00246268906631,0.165622636676,-0.312042176723,-9.7933807373,0.0,-0.0,0.0,0.0,0.165622636676,-0.312042176723,-9.7933807373,-0.00181348714978,-0.00348895019852,-0.00232126004994,-0.111558787525,-0.154766991735,0.433357298374,0.165622636676,-0.312042176723,-9.7933807373,-0.00368896056898,0.0247641168535,0.00114471314009,0.0,0.0,0.0,,,,,,,,,,995.079956055,152.359603882,44.0699996948,0.0,0.0,0.92470818758,0.0,-10.0,0.0,0.0,0.0,0.0,0.0,0.0,0.0,0.0,63,0,1,1.0,1.0,,,,,,,,,,,,,,,,,,,,,,,,0,2,0,0.453340768814,0,0,0.0,0.0,0.0,0.829608917236,-1.0,-0.800000011921,-1.0,0.0,7,0,0.0,0.0,0.0,0.0,0.0,0.0,0.0,0.0,,,,0.0,0.0,0.0,,,,,,,,0.0,0.0,0.0,0.0,0.0,0.0,1.0,1.0,0.0,,,,,,,,,,,,,,,,,,,,,,0.0,0.0,0.0,11.3241996765,11.2877035141,0.0,2.86856007576,,,,165,166,31,25,0,0,100,218937270,,,,,,,,,,,,,,,,,,,,,,,,,,,,,,,,,,,,,,,,,,,,,,,,,,,,,,,,,5.20620107651,0.0650000050664,1.22800004482,0,1,0,0,0,,,,,,,,,,,,,,,,,,,,,,,,,,,,,,,,,,,,,,,,,,,,,,,,,,,,,,,,,,,,,,,,,,,,,,,,,,,,,,,,,,,,,,,,,,,,,,,,,,,4727,0.0,4692,0.0,1500.0,1500.0,0.0,0.0,0.0,0.0,0.0,0.0,219841005,PX4FMU_V2,c17f0b6885b5678d25510dd57a90f80b05115e37,test,305419904.0
0.0227101705968,0.00144910276867,2.15106725693,-0.00195096537936,-0.0036625165958,-0.00205153250135,0.152877569199,-0.304811537266,-9.78058815002,0.0,-0.0,0.0,0.0,0.152877569199,-0.304811537266,-9.78058815002,-0.00196690368466,-0.00372414733283,-0.00167050305754,-0.111558787525,-0.154766991735,0.433357298374,0.152877569199,-0.304811537266,-9.78058815002,-0.0102712698281,0.0217996314168,0.00360286701471,0.0,0.0,0.0,,,,,,,,,,995.019958496,152.866424561,44.0699996948,0.0,0.0,0.92470818758,0.0,-10.0,0.0,0.0,0.0,0.0,0.0,0.0,0.0,0.0,63,0,1,1.0,1.0,,,,,,,,,,,,,,,,,,,,,,,,0,2,0,0.453340768814,0,0,0.0,0.0,0.0,0.829608917236,-1.0,-0.800000011921,-1.0,0.0,7,0,0.0,0.0,0.0,0.0,0.0,0.0,0.0,0.0,,,,0.0,0.0,0.0,,,,,,,,0.0,0.0,0.0,0.0,0.0,0.0,1.0,1.0,0.0,,,,,,,,,,,,,,,,,,,,,,0.0,0.0,0.0,11.3241996765,11.2877035141,0.0,2.86856007576,,,,165,166,31,25,0,0,100,218937270,,,,,,,,,,,,,,,,,,,,,,,,,,,,,,,,,,,,,,,,,,,,,,,,,,,,,,,,,5.21264648438,0.0650000050664,1.22800004482,0,1,0,0,0,,,,,,,,,,,,,,,,,,,,,,,,,,,,,,,,,,,,,,,,,,,,,,,,,,,,,,,,,,,,,,,,,,,,,,,,,,,,,,,,,,,,,,,,,,,,,,,,,,,4727,0.0,4692,0.0,1500.0,1500.0,0.0,0.0,0.0,0.0,0.0,0.0,219847431,PX4FMU_V2,c17f0b6885b5678d25510dd57a90f80b05115e37,test,305419904.0
0.0227095670998,0.00144778960384,2.15101361275,-0.00206790468656,-0.00367084727623,-0.00199794862419,0.152637511492,-0.303047806025,-9.77708053589,0.0,-0.0,0.0,0.0,0.152637511492,-0.303047806025,-9.77708053589,-0.00224538962357,-0.00377119053155,-0.00195674388669,-0.109158791602,-0.156206980348,0.431277304888,0.152637511492,-0.303047806025,-9.77708053589,-0.0082106506452,0.0218219477683,0.00179778586607,0.0,0.0,0.0,,,,,,,,,,995.019958496,152.866424561,44.0699996948,0.0,0.0,0.92470818758,0.0,-10.0,0.0,0.0,0.0,0.0,0.0,0.0,0.0,0.0,63,0,1,1.0,1.0,,,,,,,,,,,,,,,,,,,,,,,,0,2,0,0.453340768814,0,0,0.0,0.0,0.0,0.829608917236,-1.0,-0.800000011921,-1.0,0.0,7,0,0.0,0.0,0.0,0.0,0.0,0.0,0.0,0.0,,,,0.0,0.0,0.0,,,,,,,,0.0,0.0,0.0,0.0,0.0,0.0,1.0,1.0,0.0,,,,,,,,,,,,,,,,,,,,,,0.0,0.0,0.0,11.2667999268,11.2876825333,0.0,2.86856007576,,,,165,166,31,25,0,0,100,218937270,,,,,,,,,,,,,,,,,,,,,,,,,,,,,,,,,,,,,,,,,,,,,,,,,,,,,,,,,5.21264648438,0.0650000050664,1.22800004482,0,1,0,0,0,,,,,,,,,,,,,,,,,,,,,,,,,,,,,,,,,,,,,,,,,,,,,,,,,,,,,,,,,,,,,,,,,,,,,,,,,,,,,,,,,,,,,,,,,,,,,,,,,,,4727,0.0,4692,0.0,1500.0,1500.0,0.0,0.0,0.0,0.0,0.0,0.0,219852990,PX4FMU_V2,c17f0b6885b5678d25510dd57a90f80b05115e37,test,305419904.0
0.0227045193315,0.00144652510062,2.15100264549,-0.00263231107965,-0.00374019471928,-0.00228421622887,0.163298591971,-0.303508788347,-9.78150749207,0.0,-0.0,0.0,0.0,0.163298591971,-0.303508788347,-9.78150749207,-0.00311122485436,-0.00387559644878,-0.00261881179176,-0.10971879214,-0.154207006097,0.429517298937,0.163298591971,-0.303508788347,-9.78150749207,-0.00521772122011,0.0282128881663,0.00344324368052,0.0,0.0,0.0,,,,,,,,,,995.019958496,152.866424561,44.0699996948,0.0,0.0,0.92470818758,0.0,-10.0,0.0,0.0,0.0,0.0,0.0,0.0,0.0,0.0,63,0,1,1.0,1.0,,,,,,,,,,,,,,,,,,,,,,,,0,2,0,0.453200906515,0,0,0.0,0.0,0.0,0.829608917236,-1.0,-0.800000011921,-1.0,0.0,7,0,0.0,0.0,0.0,0.0,0.0,0.0,0.0,0.0,,,,0.0,0.0,0.0,,,,,,,,0.0,0.0,0.0,0.0,0.0,0.0,1.0,1.0,0.0,,,,,,,,,,,,,,,,,,,,,,0.0,0.0,0.0,11.2667999268,11.2876825333,0.0,2.86856007576,,,,165,166,31,25,0,0,100,218937270,,,,,,,,,,,,,,,,,,,,,,,,,,,,,,,,,,,,,,,,,,,,,,,,,,,,,,,,,5.20620107651,0.0600000023842,1.4960000515,0,1,0,0,0,,,,,,,,,,,,,,,,,,,,,,,,,,,,,,,,,,,,,,,,,,,,,,,,,,,,,,,,,,,,,,,,,,,,,,,,,,,,,,,,,,,,,,,,,,,,,,,,,,,4727,0.0,4692,0.0,1500.0,1500.0,0.0,0.0,0.0,0.0,0.0,0.0,219861339,PX4FMU_V2,c17f0b6885b5678d25510dd57a90f80b05115e37,test,305419904.0
0.0226988680661,0.00144703011028,2.15090680122,-0.00286280363798,-0.0037730068434,-0.0024921009317,0.17335408926,-0.309779435396,-9.79853343964,0.0,-0.0,0.0,0.0,0.17335408926,-0.309779435396,-9.79853343964,-0.00277229445055,-0.00378155289218,-0.00254663219675,-0.10971879214,-0.154207006097,0.429517298937,0.17335408926,-0.309779435396,-9.79853343964,-0.00622758502141,0.028488446027,0.00187235767953,0.0,0.0,0.0,,,,,,,,,,995.019958496,152.866424561,44.0699996948,0.0,0.0,0.92470818758,0.0,-10.0,0.0,0.0,0.0,0.0,0.0,0.0,0.0,0.0,63,0,1,1.0,1.0,,,,,,,,,,,,,,,,,,,,,,,,0,2,0,0.453200906515,0,0,0.0,0.0,0.0,0.751396656036,-1.0,-0.800000011921,-1.0,0.0,7,0,0.0,0.0,0.0,0.0,0.0,0.0,0.0,0.0,,,,0.0,0.0,0.0,,,,,,,,0.0,0.0,0.0,0.0,0.0,0.0,1.0,1.0,0.0,,,,,,,,,,,,,,,,,,,,,,0.0,0.0,0.0,11.2012004852,11.2875957489,0.0,2.86856007576,,,,165,166,31,25,0,0,100,218937270,,,,,,,,,,,,,,,,,,,,,,,,,,,,,,,,,,,,,,,,,,,,,,,,,,,,,,,,,5.20458984375,0.0600000023842,1.4960000515,0,1,0,0,0,,,,,,,,,,,,,,,,,,,,,,,,,,,,,,,,,,,,,,,,,,,,,,,,,,,,,,,,,,,,,,,,,,,,,,,,,,,,,,,,,,,,,,,,,,,,,,,,,,,4727,0.0,4692,0.0,1500.0,1500.0,0.0,0.0,0.0,0.0,0.0,0.0,219867311,PX4FMU_V2,c17f0b6885b5678d25510dd57a90f80b05115e37,test,305419904.0
0.0226972922683,0.00144885655027,2.1508538723,-0.00279637891799,-0.0036650118418,-0.00246821856126,0.178339779377,-0.312744230032,-9.79572868347,0.0,-0.0,0.0,0.0,0.178339779377,-0.312744230032,-9.79572868347,-0.0025472799316,-0.00351523910649,-0.00240083620884,-0.107798792422,-0.153886988759,0.433517307043,0.178339779377,-0.312744230032,-9.79572868347,-0.00602220743895,0.0282975863665,0.00154006620869,0.0,0.0,0.0,,,,,,,,,,995.08996582,152.275131226,44.0699996948,0.0,0.0,0.92470818758,0.0,-10.0,0.0,0.0,0.0,0.0,0.0,0.0,0.0,0.0,63,0,1,1.0,1.0,,,,,,,,,,,,,,,,,,,,,,,,0,2,0,0.453200906515,0,0,0.0,0.0,0.0,0.751396656036,-1.0,-0.800000011921,-1.0,0.0,7,0,0.0,0.0,0.0,0.0,0.0,0.0,0.0,0.0,,,,0.0,0.0,0.0,,,,,,,,0.0,0.0,0.0,0.0,0.0,0.0,1.0,1.0,0.0,,,,,,,,,,,,,,,,,,,,,,0.0,0.0,0.0,11.2012004852,11.2875957489,0.0,2.86856007576,,,,165,166,31,25,0,0,100,218937270,,,,,,,,,,,,,,,,,,,,,,,,,,,,,,,,,,,,,,,,,,,,,,,,,,,,,,,,,5.20458984375,0.0600000023842,1.4960000515,0,1,0,0,0,,,,,,,,,,,,,,,,,,,,,,,,,,,,,,,,,,,,,,,,,,,,,,,,,,,,,,,,,,,,,,,,,,,,,,,,,,,,,,,,,,,,,,,,,,,,,,,,,,,4727,0.0,4692,0.0,1500.0,1500.0,0.0,0.0,0.0,0.0,0.0,0.0,219873268,PX4FMU_V2,c17f0b6885b5678d25510dd57a90f80b05115e37,test,305419904.0
0.0226928405464,0.0014494335046,2.15074968338,-0.0025060644839,-0.00353094516322,-0.00228676293045,0.182165980339,-0.314767837524,-9.78102779388,0.0,-0.0,0.0,0.0,0.182165980339,-0.314767837524,-9.78102779388,-0.00211737584323,-0.00358352251351,-0.00207619275898,-0.108518786728,-0.15508697927,0.429437309504,0.182165980339,-0.314767837524,-9.78102779388,-0.000841952161863,0.0277433283627,0.000235741477809,0.0,0.0,0.0,,,,,,,,,,995.08996582,152.275131226,44.0699996948,0.0,0.0,0.92470818758,0.0,-10.0,0.0,0.0,0.0,0.0,0.0,0.0,0.0,0.0,63,0,1,1.0,1.0,,,,,,,,,,,,,,,,,,,,,,,,0,2,0,0.453200906515,0,0,0.0,0.0,0.0,0.751396656036,-1.0,-0.800000011921,-1.0,0.0,7,0,0.0,0.0,0.0,0.0,0.0,0.0,0.0,0.0,,,,0.0,0.0,0.0,,,,,,,,0.0,0.0,0.0,0.0,0.0,0.0,1.0,1.0,0.0,,,,,,,,,,,,,,,,,,,,,,0.0,0.0,0.0,11.2995996475,11.2876081467,0.0,2.86856007576,,,,165,166,31,25,0,0,100,218937270,,,,,,,,,,,,,,,,,,,,,,,,,,,,,,,,,,,,,,,,,,,,,,,,,,,,,,,,,5.21425771713,0.0600000023842,1.4960000515,0,1,0,0,0,,,,,,,,,,,,,,,,,,,,,,,,,,,,,,,,,,,,,,,,,,,,,,,,,,,,,,,,,,,,,,,,,,,,,,,,,,,,,,,,,,,,,,,,,,,,,,,,,,,4727,0.0,4692,0.0,1500.0,1500.0,0.0,0.0,0.0,0.0,0.0,0.0,219880174,PX4FMU_V2,c17f0b6885b5678d25510dd57a90f80b05115e37,test,305419904.0
0.02269477956,0.00145325844642,2.1506524086,-0.00222564022988,-0.00353801529855,-0.00214364612475,0.178361475468,-0.318719565868,-9.78747081757,0.0,-0.0,0.0,0.0,0.178361475468,-0.318719565868,-9.78747081757,-0.00203674123622,-0.00360416900367,-0.00207248004153,-0.108518786728,-0.15508697927,0.429437309504,0.178361475468,-0.318719565868,-9.78747081757,0.00337789184414,0.0272131804377,0.00125520536676,0.0,0.0,0.0,,,,,,,,,,995.08996582,152.275131226,44.0699996948,0.0,0.0,0.92470818758,0.0,-10.0,0.0,0.0,0.0,0.0,0.0,0.0,0.0,0.0,63,0,1,1.0,1.0,,,,,,,,,,,,,,,,,,,,,,,,0,2,0,0.453200906515,0,0,0.0,0.0,0.0,0.670391082764,-1.0,-0.800000011921,-1.0,0.0,7,0,0.0,0.0,0.0,0.0,0.0,0.0,0.0,0.0,,,,0.0,0.0,0.0,,,,,,,,0.0,0.0,0.0,0.0,0.0,0.0,1.0,1.0,0.0,,,,,,,,,,,,,,,,,,,,,,0.0,0.0,0.0,11.2175998688,11.2875385284,0.0,2.86856007576,,,,165,166,31,25,0,0,100,218937270,,,,,,,,,,,,,,,,,,,,,,,,,,,,,,,,,,,,,,,,,,,,,,,,,,,,,,,,,5.1884765625,0.0650000050664,1.52000010014,0,1,0,0,0,,,,,,,,,,,,,,,,,,,,,,,,,,,,,,,,,,,,,,,,,,,,,,,,,,,,,,,,,,,,,,,,,,,,,,,,,,,,,,,,,,,,,,,,,,,,,,,,,,,4727,0.0,4692,0.0,1500.0,1500.0,0.0,0.0,0.0,0.0,0.0,0.0,219887688,PX4FMU_V2,c17f0b6885b5678d25510dd57a90f80b05115e37,test,305419904.0
0.0226950030774,0.00145492109004,2.15060091019,-0.0022074081935,-0.00358334905468,-0.00220141094178,0.179060608149,-0.314502060413,-9.7998008728,0.0,-0.0,0.0,0.0,0.179060608149,-0.314502060413,-9.7998008728,-0.00217916374095,-0.00371225969866,-0.00233316025697,-0.109798796475,-0.157086983323,0.42959728837,0.179060608149,-0.314502060413,-9.7998008728,0.00378155172803,0.0261642187834,0.0010488643311,0.0,0.0,0.0,,,,,,,,,,995.08996582,152.275131226,44.0699996948,0.0,0.0,0.92470818758,0.0,-10.0,0.0,0.0,0.0,0.0,0.0,0.0,0.0,0.0,63,0,1,1.0,1.0,,,,,,,,,,,,,,,,,,,,,,,,0,2,0,0.453200906515,0,0,0.0,0.0,0.0,0.670391082764,-1.0,-0.800000011921,-1.0,0.0,7,0,0.0,0.0,0.0,0.0,0.0,0.0,0.0,0.0,,,,0.0,0.0,0.0,,,,,,,,0.0,0.0,0.0,0.0,0.0,0.0,1.0,1.0,0.0,,,,,,,,,,,,,,,,,,,,,,0.0,0.0,0.0,11.2175998688,11.2875385284,0.0,2.86856007576,,,,165,166,31,25,0,0,100,218937270,,,,,,,,,,,,,,,,,,,,,,,,,,,,,,,,,,,,,,,,,,,,,,,,,,,,,,,,,5.1884765625,0.0650000050664,1.52000010014,0,1,0,0,0,,,,,,,,,,,,,,,,,,,,,,,,,,,,,,,,,,,,,,,,,,,,,,,,,,,,,,,,,,,,,,,,,,,,,,,,,,,,,,,,,,,,,,,,,,,,,,,,,,,4727,0.0,4692,0.0,1500.0,1500.0,0.0,0.0,0.0,0.0,0.0,0.0,219893336,PX4FMU_V2,c17f0b6885b5678d25510dd57a90f80b05115e37,test,305419904.0
0.0226941630244,0.00145891762804,2.15060663223,-0.00225992547348,-0.0036537735723,-0.00240372610278,0.185600087047,-0.311632096767,-9.79425525665,0.0,-0.0,0.0,0.0,0.185600087047,-0.311632096767,-9.79425525665,-0.00229485961609,-0.0037503936328,-0.00253807427362,-0.110758788884,-0.155006989837,0.431597292423,0.185600087047,-0.311632096767,-9.79425525665,0.00142228789628,0.0230063050985,0.00248692836612,0.0,0.0,0.0,,,,,,,,,,995.039978027,152.697479248,44.0699996948,0.0,0.0,0.92470818758,0.0,-10.0,0.0,0.0,0.0,0.0,0.0,0.0,0.0,0.0,63,0,1,1.0,1.0,,,,,,,,,,,,,,,,,,,,,,,,0,2,0,0.453200906515,0,0,0.0,0.0,0.0,0.670391082764,-1.0,-0.800000011921,-1.0,0.0,7,0,0.0,0.0,0.0,0.0,0.0,0.0,0.0,0.0,,,,0.0,0.0,0.0,,,,,,,,0.0,0.0,0.0,0.0,0.0,0.0,1.0,1.0,0.0,,,,,,,,,,,,,,,,,,,,,,0.0,0.0,0.0,11.2175998688,11.2874689102,0.0,2.86856007576,,,,165,166,31,25,0,0,100,218937270,,,,,,,,,,,,,,,,,,,,,,,,,,,,,,,,,,,,,,,,,,,,,,,,,,,,,,,,,5.1884765625,0.0650000050664,1.52000010014,0,1,0,0,0,,,,,,,,,,,,,,,,,,,,,,,,,,,,,,,,,,,,,,,,,,,,,,,,,,,,,,,,,,,,,,,,,,,,,,,,,,,,,,,,,,,,,,,,,,,,,,,,,,,4727,0.0,4692,0.0,1500.0,1500.0,0.0,0.0,0.0,0.0,0.0,0.0,219899460,PX4FMU_V2,c17f0b6885b5678d25510dd57a90f80b05115e37,test,305419904.0
0.0226947925985,0.00146092765499,2.15055632591,-0.00222493498586,-0.0037053602282,-0.00235803611577,0.185475513339,-0.317769050598,-9.79322242737,0.0,-0.0,0.0,0.0,0.185475513339,-0.317769050598,-9.79322242737,-0.00216068141162,-0.00381879555061,-0.00226480723359,-0.110758788884,-0.155006989837,0.431597292423,0.185475513339,-0.317769050598,-9.79322242737,-0.000779954192694,0.0203778091818,0.00393411144614,0.0,0.0,0.0,,,,,,,,,,995.039978027,152.697479248,44.0699996948,0.0,0.0,0.92470818758,0.0,-10.0,0.0,0.0,0.0,0.0,0.0,0.0,0.0,0.0,63,0,1,1.0,1.0,,,,,,,,,,,,,,,,,,,,,,,,0,2,0,0.453200906515,0,0,0.0,0.0,0.0,0.670391082764,-1.0,-0.800000011921,-1.0,0.0,7,0,0.0,0.0,0.0,0.0,0.0,0.0,0.0,0.0,,,,0.0,0.0,0.0,,,,,,,,0.0,0.0,0.0,0.0,0.0,0.0,1.0,1.0,0.0,,,,,,,,,,,,,,,,,,,,,,0.0,0.0,0.0,11.2175998688,11.2874689102,0.0,2.86856007576,,,,165,166,31,25,0,0,100,218937270,,,,,,,,,,,,,,,,,,,,,,,,,,,,,,,,,,,,,,,,,,,,,,,,,,,,,,,,,5.1884765625,0.0650000050664,1.52000010014,0,1,0,0,0,,,,,,,,,,,,,,,,,,,,,,,,,,,,,,,,,,,,,,,,,,,,,,,,,,,,,,,,,,,,,,,,,,,,,,,,,,,,,,,,,,,,,,,,,,,,,,,,,,,4727,0.0,4692,0.0,1500.0,1500.0,0.0,0.0,0.0,0.0,0.0,0.0,219905545,PX4FMU_V2,c17f0b6885b5678d25510dd57a90f80b05115e37,test,305419904.0
0.0226985290647,0.00146334327292,2.15058588982,-0.00210022856481,-0.00365944742225,-0.00222442043014,0.170928999782,-0.328360915184,-9.79885292053,0.0,-0.0,0.0,0.0,0.170928999782,-0.328360915184,-9.79885292053,-0.00198194105178,-0.00358851021156,-0.00207381811924,-0.110598795116,-0.154126986861,0.430317282677,0.170928999782,-0.328360915184,-9.79885292053,-0.0026409891434,0.0195265747607,0.00234347069636,0.0,0.0,0.0,,,,,,,,,,995.039978027,152.697479248,44.0699996948,0.0,0.0,0.92470818758,0.0,-10.0,0.0,0.0,0.0,0.0,0.0,0.0,0.0,0.0,63,0,1,1.0,1.0,,,,,,,,,,,,,,,,,,,,,,,,0,2,0,0.453200906515,0,0,0.0,0.0,0.0,0.567039132118,-1.0,-0.800000011921,-1.0,0.0,7,0,0.0,0.0,0.0,0.0,0.0,0.0,0.0,0.0,,,,0.0,0.0,0.0,,,,,,,,0.0,0.0,0.0,0.0,0.0,0.0,1.0,1.0,0.0,,,,,,,,,,,,,,,,,,,,,,0.0,0.0,0.0,11.2503995895,11.2874317169,0.0,2.86856007576,,,,165,166,31,25,0,0,100,218937270,,,,,,,,,,,,,,,,,,,,,,,,,,,,,,,,,,,,,,,,,,,,,,,,,,,,,,,,,5.19814443588,0.0670000016689,1.52100002766,0,1,0,0,0,,,,,,,,,,,,,,,,,,,,,,,,,,,,,,,,,,,,,,,,,,,,,,,,,,,,,,,,,,,,,,,,,,,,,,,,,,,,,,,,,,,,,,,,,,,,,,,,,,,4727,0.0,4692,0.0,1500.0,1500.0,0.0,0.0,0.0,0.0,0.0,0.0,219911734,PX4FMU_V2,c17f0b6885b5678d25510dd57a90f80b05115e37,test,305419904.0
0.0227025300264,0.00146623456385,2.15055537224,-0.00197843112983,-0.00337114767171,-0.00184178794734,0.165302172303,-0.322657942772,-9.80457401276,0.0,-0.0,0.0,0.0,0.165302172303,-0.322657942772,-9.80457401276,-0.00187628145795,-0.00305325165391,-0.00154620071407,-0.109478794038,-0.154526993632,0.432397305965,0.165302172303,-0.322657942772,-9.80457401276,-0.000683753634803,0.022529643029,0.00202303589322,0.0,0.0,0.0,,,,,,,,,,995.070007324,152.444061279,44.0699996948,0.0,0.0,0.92470818758,0.0,-10.0,0.0,0.0,0.0,0.0,0.0,0.0,0.0,0.0,63,0,1,1.0,1.0,,,,,,,,,,,,,,,,,,,,,,,,0,2,0,0.453200906515,0,0,0.0,0.0,0.0,0.567039132118,-1.0,-0.800000011921,-1.0,0.0,7,0,0.0,0.0,0.0,0.0,0.0,0.0,0.0,0.0,,,,0.0,0.0,0.0,,,,,,,,0.0,0.0,0.0,0.0,0.0,0.0,1.0,1.0,0.0,,,,,,,,,,,,,,,,,,,,,,0.0,0.0,0.0,11.2503995895,11.2874317169,0.0,2.86856007576,,,,165,166,31,25,0,0,100,218937270,,,,,,,,,,,,,,,,,,,,,,,,,,,,,,,,,,,,,,,,,,,,,,,,,,,,,,,,,5.20620107651,0.0670000016689,1.52100002766,0,1,0,0,0,,,,,,,,,,,,,,,,,,,,,,,,,,,,,,,,,,,,,,,,,,,,,,,,,,,,,,,,,,,,,,,,,,,,,,,,,,,,,,,,,,,,,,,,,,,,,,,,,,,4727,0.0,4692,0.0,1500.0,1500.0,0.0,0.0,0.0,0.0,0.0,0.0,219920018,PX4FMU_V2,c17f0b6885b5678d25510dd57a90f80b05115e37,test,305419904.0
0.0227049067616,0.00147275126074,2.15053009987,-0.00202634045854,-0.00299776392058,-0.00154844427016,0.169046476483,-0.318210184574,-9.79972457886,0.0,-0.0,0.0,0.0,0.169046476483,-0.318210184574,-9.79972457886,-0.0021683590021,-0.00285441335291,-0.00147946889047,-0.110038794577,-0.155327007174,0.430317282677,0.169046476483,-0.318210184574,-9.79972457886,-7.01651442796e-05,0.0249854661524,0.00381173565984,0.0,0.0,0.0,,,,,,,,,,995.070007324,152.444061279,44.0699996948,0.0,0.0,0.92470818758,0.0,-10.0,0.0,0.0,0.0,0.0,0.0,0.0,0.0,0.0,63,0,1,1.0,1.0,,,,,,,,,,,,,,,,,,,,,,,,0,2,0,0.453200906515,0,0,0.0,0.0,0.0,0.567039132118,-1.0,-0.800000011921,-1.0,0.0,7,0,0.0,0.0,0.0,0.0,0.0,0.0,0.0,0.0,,,,0.0,0.0,0.0,,,,,,,,0.0,0.0,0.0,0.0,0.0,0.0,1.0,1.0,0.0,,,,,,,,,,,,,,,,,,,,,,0.0,0.0,0.0,11.258600235,11.2874031067,0.0,2.86856007576,,,,165,166,31,25,0,0,100,218937270,,,,,,,,,,,,,,,,,,,,,,,,,,,,,,,,,,,,,,,,,,,,,,,,,,,,,,,,,5.20458984375,0.0670000016689,1.52100002766,0,1,0,0,0,,,,,,,,,,,,,,,,,,,,,,,,,,,,,,,,,,,,,,,,,,,,,,,,,,,,,,,,,,,,,,,,,,,,,,,,,,,,,,,,,,,,,,,,,,,,,,,,,,,4727,0.0,4692,0.0,1500.0,1500.0,0.0,0.0,0.0,0.0,0.0,0.0,219927704,PX4FMU_V2,c17f0b6885b5678d25510dd57a90f80b05115e37,test,305419904.0
0.0227042268962,0.00147530657705,2.15048551559,-0.00221215072088,-0.00305061251856,-0.00157758488785,0.169254645705,-0.312384724617,-9.79809761047,0.0,-0.0,0.0,0.0,0.169254645705,-0.312384724617,-9.79809761047,-0.00256179668941,-0.00324529106729,-0.00172840128653,-0.110038794577,-0.155327007174,0.430317282677,0.169254645705,-0.312384724617,-9.79809761047,-0.00273426738568,0.0262881070375,0.00493662711233,0.0,0.0,0.0,,,,,,,,,,995.049987793,152.613006592,44.0699996948,0.0,0.0,0.92470818758,0.0,-10.0,0.0,0.0,0.0,0.0,0.0,0.0,0.0,0.0,63,0,1,1.0,1.0,,,,,,,,,,,,,,,,,,,,,,,,0,2,0,0.453200906515,0,0,0.0,0.0,0.0,0.430167585611,-1.0,-0.800000011921,-1.0,0.0,7,0,0.0,0.0,0.0,0.0,0.0,0.0,0.0,0.0,,,,0.0,0.0,0.0,,,,,,,,0.0,0.0,0.0,0.0,0.0,0.0,1.0,1.0,0.0,,,,,,,,,,,,,,,,,,,,,,0.0,0.0,0.0,11.258600235,11.2874031067,0.0,2.86856007576,,,,165,166,31,25,0,0,100,218937270,,,,,,,,,,,,,,,,,,,,,,,,,,,,,,,,,,,,,,,,,,,,,,,,,,,,,,,,,5.20458984375,0.0670000016689,1.52100002766,0,1,0,0,0,,,,,,,,,,,,,,,,,,,,,,,,,,,,,,,,,,,,,,,,,,,,,,,,,,,,,,,,,,,,,,,,,,,,,,,,,,,,,,,,,,,,,,,,,,,,,,,,,,,4727,0.0,4692,0.0,1500.0,1500.0,0.0,0.0,0.0,0.0,0.0,0.0,219933489,PX4FMU_V2,c17f0b6885b5678d25510dd57a90f80b05115e37,test,305419904.0
0.0226975157857,0.00148051045835,2.15048551559,-0.00276161381043,-0.00306143751368,-0.00178340403363,0.166142314672,-0.301675885916,-9.79995632172,0.0,-0.0,0.0,0.0,0.166142314672,-0.301675885916,-9.79995632172,-0.00317062856629,-0.00309134717099,-0.00208147289231,-0.10971879214,-0.154046997428,0.430637300014,0.166142314672,-0.301675885916,-9.79995632172,-0.0112054422498,0.0238003302366,0.00223138811998,0.0,0.0,0.0,,,,,,,,,,995.049987793,152.613006592,44.0699996948,0.0,0.0,0.92470818758,0.0,-10.0,0.0,0.0,0.0,0.0,0.0,0.0,0.0,0.0,63,0,1,1.0,1.0,,,,,,,,,,,,,,,,,,,,,,,,0,2,0,0.453200906515,0,0,0.0,0.0,0.0,0.430167585611,-1.0,-0.800000011921,-1.0,0.0,7,0,0.0,0.0,0.0,0.0,0.0,0.0,0.0,0.0,,,,0.0,0.0,0.0,,,,,,,,0.0,0.0,0.0,0.0,0.0,0.0,1.0,1.0,0.0,,,,,,,,,,,,,,,,,,,,,,0.0,0.0,0.0,11.2995996475,11.2874155045,0.0,2.86856007576,,,,165,166,31,25,0,0,100,218937270,,,,,,,,,,,,,,,,,,,,,,,,,,,,,,,,,,,,,,,,,,,,,,,,,,,,,,,,,5.220703125,0.0670000016689,1.51000010967,0,1,0,0,0,,,,,,,,,,,,,,,,,,,,,,,,,,,,,,,,,,,,,,,,,,,,,,,,,,,,,,,,,,,,,,,,,,,,,,,,,,,,,,,,,,,,,,,,,,,,,,,,,,,4727,0.0,4692,0.0,1500.0,1500.0,0.0,0.0,0.0,0.0,0.0,0.0,219939811,PX4FMU_V2,c17f0b6885b5678d25510dd57a90f80b05115e37,test,305419904.0
0.0226933714002,0.00148312794045,2.1504406929,-0.00293537089601,-0.00301193562336,-0.00200555357151,0.163423731923,-0.300976842642,-9.78855800629,0.0,-0.0,0.0,0.0,0.163423731923,-0.300976842642,-9.78855800629,-0.00315450993367,-0.00299404724501,-0.00243849284016,-0.10971879214,-0.154046997428,0.430637300014,0.163423731923,-0.300976842642,-9.78855800629,-0.0110392058268,0.0236564427614,0.00109658215661,0.0,0.0,0.0,,,,,,,,,,995.019958496,152.866424561,44.0699996948,0.0,0.0,0.92470818758,0.0,-10.0,0.0,0.0,0.0,0.0,0.0,0.0,0.0,0.0,63,0,1,1.0,1.0,,,,,,,,,,,,,,,,,,,,,,,,0,2,0,0.453200906515,0,0,0.0,0.0,0.0,0.430167585611,-1.0,-0.800000011921,-1.0,0.0,7,0,0.0,0.0,0.0,0.0,0.0,0.0,0.0,0.0,,,,0.0,0.0,0.0,,,,,,,,0.0,0.0,0.0,0.0,0.0,0.0,1.0,1.0,0.0,,,,,,,,,,,,,,,,,,,,,,0.0,0.0,0.0,11.2995996475,11.2874155045,0.0,2.86856007576,,,,165,166,31,25,0,0,100,218937270,,,,,,,,,,,,,,,,,,,,,,,,,,,,,,,,,,,,,,,,,,,,,,,,,,,,,,,,,5.220703125,0.0670000016689,1.51000010967,0,1,0,0,0,,,,,,,,,,,,,,,,,,,,,,,,,,,,,,,,,,,,,,,,,,,,,,,,,,,,,,,,,,,,,,,,,,,,,,,,,,,,,,,,,,,,,,,,,,,,,,,,,,,4727,0.0,4692,0.0,1500.0,1500.0,0.0,0.0,0.0,0.0,0.0,0.0,219945475,PX4FMU_V2,c17f0b6885b5678d25510dd57a90f80b05115e37,test,305419904.0
0.022687414661,0.00149121833965,2.15054297447,-0.00268313498236,-0.00279811630026,-0.00238952203654,0.172111570835,-0.295943558216,-9.77802753448,0.0,-0.0,0.0,0.0,0.172111570835,-0.295943558216,-9.77802753448,-0.00223748828284,-0.00271117244847,-0.00266197393648,-0.111398793757,-0.153166994452,0.430397301912,0.172111570835,-0.295943558216,-9.77802753448,-0.00695333909243,0.0281191878021,0.00446459790692,0.0,0.0,0.0,,,,,,,,,,995.019958496,152.866424561,44.0699996948,0.0,0.0,0.92470818758,0.0,-10.0,0.0,0.0,0.0,0.0,0.0,0.0,0.0,0.0,63,0,1,1.0,1.0,,,,,,,,,,,,,,,,,,,,,,,,0,2,0,0.453200906515,0,0,0.0,0.0,0.0,0.430167585611,-1.0,-0.800000011921,-1.0,0.0,7,0,0.0,0.0,0.0,0.0,0.0,0.0,0.0,0.0,,,,0.0,0.0,0.0,,,,,,,,0.0,0.0,0.0,0.0,0.0,0.0,1.0,1.0,0.0,,,,,,,,,,,,,,,,,,,,,,0.0,0.0,0.0,11.2995996475,11.2874279022,0.0,2.86856007576,,,,165,166,31,25,0,0,100,218937270,,,,,,,,,,,,,,,,,,,,,,,,,,,,,,,,,,,,,,,,,,,,,,,,,,,,,,,,,5.20458984375,0.0650000050664,1.23800003529,0,1,0,0,0,,,,,,,,,,,,,,,,,,,,,,,,,,,,,,,,,,,,,,,,,,,,,,,,,,,,,,,,,,,,,,,,,,,,,,,,,,,,,,,,,,,,,,,,,,,,,,,,,,,4727,0.0,4692,0.0,1500.0,1500.0,0.0,0.0,0.0,0.0,0.0,0.0,219951581,PX4FMU_V2,c17f0b6885b5678d25510dd57a90f80b05115e37,test,305419904.0
0.0226859934628,0.00149500125553,2.15049576759,-0.00250037293881,-0.00287714158185,-0.0024115620181,0.175553962588,-0.302280932665,-9.78407382965,0.0,-0.0,0.0,0.0,0.175553962588,-0.302280932665,-9.78407382965,-0.00212821015157,-0.0031068045646,-0.0023975353688,-0.111398793757,-0.153166994452,0.430397301912,0.175553962588,-0.302280932665,-9.78407382965,-0.00642700865865,0.026438433677,0.00533548602834,0.0,0.0,0.0,,,,,,,,,,995.019958496,152.866424561,44.0699996948,0.0,0.0,0.92470818758,0.0,-10.0,0.0,0.0,0.0,0.0,0.0,0.0,0.0,0.0,63,0,1,1.0,1.0,,,,,,,,,,,,,,,,,,,,,,,,0,2,0,0.453200906515,0,0,0.0,0.0,0.0,0.27932959795,-1.0,-0.800000011921,-1.0,0.0,7,0,0.0,0.0,0.0,0.0,0.0,0.0,0.0,0.0,,,,0.0,0.0,0.0,,,,,,,,0.0,0.0,0.0,0.0,0.0,0.0,1.0,1.0,0.0,,,,,,,,,,,,,,,,,,,,,,0.0,0.0,0.0,11.2995996475,11.2874279022,0.0,2.86856007576,,,,165,166,31,25,0,0,100,218937270,,,,,,,,,,,,,,,,,,,,,,,,,,,,,,,,,,,,,,,,,,,,,,,,,,,,,,,,,5.22392559052,0.0650000050664,1.23800003529,0,1,0,0,0,,,,,,,,,,,,,,,,,,,,,,,,,,,,,,,,,,,,,,,,,,,,,,,,,,,,,,,,,,,,,,,,,,,,,,,,,,,,,,,,,,,,,,,,,,,,,,,,,,,4727,0.0,4692,0.0,1500.0,1500.0,0.0,0.0,0.0,0.0,0.0,0.0,219957547,PX4FMU_V2,c17f0b6885b5678d25510dd57a90f80b05115e37,test,305419904.0
0.0226826462895,0.00149523443542,2.15044283867,-0.00225664791651,-0.00345025653951,-0.0021192189306,0.180880844593,-0.312718302011,-9.78967761993,0.0,-0.0,0.0,0.0,0.180880844593,-0.312718302011,-9.78967761993,-0.00212300918065,-0.00397127028555,-0.00184335163794,-0.108358792961,-0.153406992555,0.429357290268,0.180880844593,-0.312718302011,-9.78967761993,-0.005515714176,0.0238817222416,0.00635075801983,0.0,0.0,0.0,,,,,,,,,,995.019958496,152.866424561,44.0699996948,0.0,0.0,0.92470818758,0.0,-10.0,0.0,0.0,0.0,0.0,0.0,0.0,0.0,0.0,63,0,1,1.0,1.0,,,,,,,,,,,,,,,,,,,,,,,,0,2,0,0.453200906515,0,0,0.0,0.0,0.0,0.27932959795,-1.0,-0.800000011921,-1.0,0.0,7,0,0.0,0.0,0.0,0.0,0.0,0.0,0.0,0.0,,,,0.0,0.0,0.0,,,,,,,,0.0,0.0,0.0,0.0,0.0,0.0,1.0,1.0,0.0,,,,,,,,,,,,,,,,,,,,,,0.0,0.0,0.0,11.2913999557,11.2874317169,0.0,2.86856007576,,,,165,166,31,25,0,0,100,218937270,,,,,,,,,,,,,,,,,,,,,,,,,,,,,,,,,,,,,,,,,,,,,,,,,,,,,,,,,5.22392559052,0.0650000050664,1.23800003529,0,1,0,0,0,,,,,,,,,,,,,,,,,,,,,,,,,,,,,,,,,,,,,,,,,,,,,,,,,,,,,,,,,,,,,,,,,,,,,,,,,,,,,,,,,,,,,,,,,,,,,,,,,,,4727,0.0,4692,0.0,1500.0,1500.0,0.0,0.0,0.0,0.0,0.0,0.0,219964227,PX4FMU_V2,c17f0b6885b5678d25510dd57a90f80b05115e37,test,305419904.0
0.0226822793484,0.00149684841745,2.15057706833,-0.00226775789633,-0.00359974708408,-0.00198393757455,0.179960921407,-0.312190979719,-9.79288959503,0.0,-0.0,0.0,0.0,0.179960921407,-0.312190979719,-9.79288959503,-0.00230872235261,-0.00382824894041,-0.00175305607263,-0.110598795116,-0.15236698091,0.430717289448,0.179960921407,-0.312190979719,-9.79288959503,-0.0040978686884,0.0265099685639,0.004381892737,0.0,0.0,0.0,,,,,,,,,,995.079956055,152.359603882,44.0699996948,0.0,0.0,0.92470818758,0.0,-10.0,0.0,0.0,0.0,0.0,0.0,0.0,0.0,0.0,63,0,1,1.0,1.0,,,,,,,,,,,,,,,,,,,,,,,,0,2,0,0.453200906515,0,0,0.0,0.0,0.0,0.27932959795,-1.0,-0.800000011921,-1.0,0.0,7,0,0.0,0.0,0.0,0.0,0.0,0.0,0.0,0.0,,,,0.0,0.0,0.0,,,,,,,,0.0,0.0,0.0,0.0,0.0,0.0,1.0,1.0,0.0,,,,,,,,,,,,,,,,,,,,,,0.0,0.0,0.0,11.2913999557,11.2874317169,0.0,2.86856007576,,,,165,166,31,25,0,0,100,218937270,,,,,,,,,,,,,,,,,,,,,,,,,,,,,,,,,,,,,,,,,,,,,,,,,,,,,,,,,5.21103525162,0.0650000050664,1.23800003529,0,1,0,0,0,,,,,,,,,,,,,,,,,,,,,,,,,,,,,,,,,,,,,,,,,,,,,,,,,,,,,,,,,,,,,,,,,,,,,,,,,,,,,,,,,,,,,,,,,,,,,,,,,,,4727,0.0,4692,0.0,1500.0,1500.0,0.0,0.0,0.0,0.0,0.0,0.0,219969610,PX4FMU_V2,c17f0b6885b5678d25510dd57a90f80b05115e37,test,305419904.0
0.0226797237992,0.00150057405699,2.15049242973,-0.00235482724383,-0.0034393214155,-0.00146718369797,0.168890804052,-0.304725825787,-9.78816795349,0.0,-0.0,0.0,0.0,0.168890804052,-0.304725825787,-9.78816795349,-0.0024411987979,-0.00321768550202,-0.00102542305831,-0.110598795116,-0.15236698091,0.430717289448,0.168890804052,-0.304725825787,-9.78816795349,-0.0101116225123,0.0255077332258,0.00256615504622,0.0,0.0,0.0,,,,,,,,,,995.079956055,152.359603882,44.0699996948,0.0,0.0,0.92470818758,0.0,-10.0,0.0,0.0,0.0,0.0,0.0,0.0,0.0,0.0,63,0,1,1.0,1.0,,,,,,,,,,,,,,,,,,,,,,,,0,2,0,0.453200906515,0,0,0.0,0.0,0.0,0.162011176348,-1.0,-0.800000011921,-1.0,0.0,7,0,0.0,0.0,0.0,0.0,0.0,0.0,0.0,0.0,,,,0.0,0.0,0.0,,,,,,,,0.0,0.0,0.0,0.0,0.0,0.0,1.0,1.0,0.0,,,,,,,,,,,,,,,,,,,,,,0.0,0.0,0.0,11.2749996185,11.2874193192,0.0,2.86856007576,,,,165,166,31,25,0,0,100,218937270,,,,,,,,,,,,,,,,,,,,,,,,,,,,,,,,,,,,,,,,,,,,,,,,,,,,,,,,,5.22392559052,0.0670000016689,1.21400010586,0,1,0,0,0,,,,,,,,,,,,,,,,,,,,,,,,,,,,,,,,,,,,,,,,,,,,,,,,,,,,,,,,,,,,,,,,,,,,,,,,,,,,,,,,,,,,,,,,,,,,,,,,,,,4727,0.0,4692,0.0,1500.0,1500.0,0.0,0.0,0.0,0.0,0.0,0.0,219976698,PX4FMU_V2,c17f0b6885b5678d25510dd57a90f80b05115e37,test,305419904.0
0.0226777680218,0.00150240061339,2.15054225922,-0.00233773514628,-0.00362884183414,-0.00116898328997,0.168946012855,-0.310386121273,-9.79080581665,0.0,-0.0,0.0,0.0,0.168946012855,-0.310386121273,-9.79080581665,-0.00231229979545,-0.0039667733945,-0.00112269411329,-0.110998786986,-0.154526993632,0.430317282677,0.168946012855,-0.310386121273,-9.79080581665,-0.0100569687784,0.0232133809477,0.000693824375048,0.0,0.0,0.0,,,,,,,,,,995.079956055,152.359603882,44.0699996948,0.0,0.0,0.92470818758,0.0,-10.0,0.0,0.0,0.0,0.0,0.0,0.0,0.0,0.0,63,0,1,1.0,1.0,,,,,,,,,,,,,,,,,,,,,,,,0,2,0,0.453200906515,0,0,0.0,0.0,0.0,0.162011176348,-1.0,-0.800000011921,-1.0,0.0,7,0,0.0,0.0,0.0,0.0,0.0,0.0,0.0,0.0,,,,0.0,0.0,0.0,,,,,,,,0.0,0.0,0.0,0.0,0.0,0.0,1.0,1.0,0.0,,,,,,,,,,,,,,,,,,,,,,0.0,0.0,0.0,11.2421998978,11.2873744965,0.0,2.86856007576,,,,165,166,31,25,0,0,100,218937270,,,,,,,,,,,,,,,,,,,,,,,,,,,,,,,,,,,,,,,,,,,,,,,,,,,,,,,,,5.22392559052,0.0670000016689,1.21400010586,0,1,0,0,0,,,,,,,,,,,,,,,,,,,,,,,,,,,,,,,,,,,,,,,,,,,,,,,,,,,,,,,,,,,,,,,,,,,,,,,,,,,,,,,,,,,,,,,,,,,,,,,,,,,4727,0.0,4692,0.0,1500.0,1500.0,0.0,0.0,0.0,0.0,0.0,0.0,219983640,PX4FMU_V2,c17f0b6885b5678d25510dd57a90f80b05115e37,test,305419904.0
0.0226781796664,0.00150085682981,2.15063047409,-0.00227783853188,-0.00401841895655,-0.00114230439067,0.171533882618,-0.317326933146,-9.78975296021,0.0,-0.0,0.0,0.0,0.171533882618,-0.317326933146,-9.78975296021,-0.00217694486491,-0.00466247182339,-0.00121683231555,-0.109798796475,-0.152686998248,0.430877298117,0.171533882618,-0.317326933146,-9.78975296021,-0.00813969317824,0.0222350135446,0.00223156320862,0.0,0.0,0.0,,,,,,,,,,995.079956055,152.359603882,44.0699996948,0.0,0.0,0.92470818758,0.0,-10.0,0.0,0.0,0.0,0.0,0.0,0.0,0.0,0.0,63,0,1,1.0,1.0,,,,,,,,,,,,,,,,,,,,,,,,0,2,0,0.453200906515,0,0,0.0,0.0,0.0,0.162011176348,-1.0,-0.800000011921,-1.0,0.0,7,0,0.0,0.0,0.0,0.0,0.0,0.0,0.0,0.0,,,,0.0,0.0,0.0,,,,,,,,0.0,0.0,0.0,0.0,0.0,0.0,1.0,1.0,0.0,,,,,,,,,,,,,,,,,,,,,,0.0,0.0,0.0,11.2421998978,11.2873744965,0.0,2.86856007576,,,,165,166,31,25,0,0,100,218937270,,,,,,,,,,,,,,,,,,,,,,,,,,,,,,,,,,,,,,,,,,,,,,,,,,,,,,,,,5.19814443588,0.0670000016689,1.21400010586,0,1,0,0,0,,,,,,,,,,,,,,,,,,,,,,,,,,,,,,,,,,,,,,,,,,,,,,,,,,,,,,,,,,,,,,,,,,,,,,,,,,,,,,,,,,,,,,,,,,,,,,,,,,,4727,0.0,4692,0.0,1500.0,1500.0,0.0,0.0,0.0,0.0,0.0,0.0,219990521,PX4FMU_V2,c17f0b6885b5678d25510dd57a90f80b05115e37,test,305419904.0
0.022680580616,0.00149463512935,2.15053725243,-0.00217526475899,-0.00472273305058,-0.00150417187251,0.172833368182,-0.324346423149,-9.80407619476,0.0,-0.0,0.0,0.0,0.172833368182,-0.324346423149,-9.80407619476,-0.00218938430771,-0.00509316567332,-0.00212519592606,-0.109798796475,-0.152686998248,0.430877298117,0.172833368182,-0.324346423149,-9.80407619476,-0.000901448482182,0.0246635340154,0.00142181606498,0.0,0.0,0.0,,,,,,,,,,995.039978027,152.697479248,44.0699996948,0.0,0.0,0.92470818758,0.0,-10.0,0.0,0.0,0.0,0.0,0.0,0.0,0.0,0.0,63,0,1,1.0,1.0,,,,,,,,,,,,,,,,,,,,,,,,0,2,0,0.453200906515,0,0,0.0,0.0,0.0,0.162011176348,-1.0,-0.800000011921,-1.0,0.0,7,0,0.0,0.0,0.0,0.0,0.0,0.0,0.0,0.0,,,,0.0,0.0,0.0,,,,,,,,0.0,0.0,0.0,0.0,0.0,0.0,1.0,1.0,0.0,,,,,,,,,,,,,,,,,,,,,,0.0,0.0,0.0,11.1929998398,11.2872800827,0.0,2.86856007576,,,,165,166,31,25,0,0,100,218937270,,,,,,,,,,,,,,,,,,,,,,,,,,,,,,,,,,,,,,,,,,,,,,,,,,,,,,,,,5.19653320312,0.0670000016689,1.22000002861,0,1,0,0,0,,,,,,,,,,,,,,,,,,,,,,,,,,,,,,,,,,,,,,,,,,,,,,,,,,,,,,,,,,,,,,,,,,,,,,,,,,,,,,,,,,,,,,,,,,,,,,,,,,,4727,0.0,4692,0.0,1500.0,1500.0,0.0,0.0,0.0,0.0,0.0,0.0,219998390,PX4FMU_V2,c17f0b6885b5678d25510dd57a90f80b05115e37,test,305419904.0
0.0226824469864,0.00149036385119,2.15046453476,-0.00237724650651,-0.00465317396447,-0.00249395053834,0.17597836256,-0.331883907318,-9.81399917603,0.0,-0.0,0.0,0.0,0.17597836256,-0.331883907318,-9.81399917603,-0.00266138860025,-0.00418779393658,-0.00329014332965,-0.108278788626,-0.153646990657,0.430397301912,0.17597836256,-0.331883907318,-9.81399917603,-0.00353508465923,0.0292297564447,0.00245422078297,0.0,0.0,0.0,,,,,,,,,,995.039978027,152.697479248,44.0699996948,0.0,0.0,0.92470818758,0.0,-10.0,0.0,0.0,0.0,0.0,0.0,0.0,0.0,0.0,63,0,1,1.0,1.0,,,,,,,,,,,,,,,,,,,,,,,,0,2,0,0.453200906515,0,0,0.0,0.0,0.0,0.0670391097665,-1.0,-0.800000011921,-1.0,0.0,7,0,0.0,0.0,0.0,0.0,0.0,0.0,0.0,0.0,,,,0.0,0.0,0.0,,,,,,,,0.0,0.0,0.0,0.0,0.0,0.0,1.0,1.0,0.0,,,,,,,,,,,,,,,,,,,,,,0.0,0.0,0.0,11.1929998398,11.2872800827,0.0,2.86856007576,,,,165,166,31,25,0,0,100,218937270,,,,,,,,,,,,,,,,,,,,,,,,,,,,,,,,,,,,,,,,,,,,,,,,,,,,,,,,,5.19653320312,0.0670000016689,1.22000002861,0,1,0,0,0,,,,,,,,,,,,,,,,,,,,,,,,,,,,,,,,,,,,,,,,,,,,,,,,,,,,,,,,,,,,,,,,,,,,,,,,,,,,,,,,,,,,,,,,,,,,,,,,,,,4727,0.0,4692,0.0,1500.0,1500.0,0.0,0.0,0.0,0.0,0.0,0.0,220004153,PX4FMU_V2,c17f0b6885b5678d25510dd57a90f80b05115e37,test,305419904.0
0.0226817838848,0.00149036559742,2.15061926842,-0.00256562512368,-0.00434998562559,-0.00262347818352,0.172665759921,-0.325151324272,-9.81189918518,0.0,-0.0,0.0,0.0,0.172665759921,-0.325151324272,-9.81189918518,-0.0028896224685,-0.00367344729602,-0.00274444883689,-0.112678788602,-0.154766991735,0.430637300014,0.172665759921,-0.325151324272,-9.81189918518,-0.00634981365874,0.0274273902178,0.00202041654848,0.0,0.0,0.0,,,,,,,,,,995.039978027,152.697479248,44.0699996948,0.0,0.0,0.92470818758,0.0,-10.0,0.0,0.0,0.0,0.0,0.0,0.0,0.0,0.0,63,0,1,1.0,1.0,,,,,,,,,,,,,,,,,,,,,,,,0,2,0,0.453200906515,0,0,0.0,0.0,0.0,0.0670391097665,-1.0,-0.800000011921,-1.0,0.0,7,0,0.0,0.0,0.0,0.0,0.0,0.0,0.0,0.0,,,,0.0,0.0,0.0,,,,,,,,0.0,0.0,0.0,0.0,0.0,0.0,1.0,1.0,0.0,,,,,,,,,,,,,,,,,,,,,,0.0,0.0,0.0,11.2258005142,11.2872190475,0.0,2.86856007576,,,,165,166,31,25,0,0,100,218937270,,,,,,,,,,,,,,,,,,,,,,,,,,,,,,,,,,,,,,,,,,,,,,,,,,,,,,,,,5.1884765625,0.0670000016689,1.22000002861,0,1,0,0,0,,,,,,,,,,,,,,,,,,,,,,,,,,,,,,,,,,,,,,,,,,,,,,,,,,,,,,,,,,,,,,,,,,,,,,,,,,,,,,,,,,,,,,,,,,,,,,,,,,,4727,0.0,4692,0.0,1500.0,1500.0,0.0,0.0,0.0,0.0,0.0,0.0,220010112,PX4FMU_V2,c17f0b6885b5678d25510dd57a90f80b05115e37,test,305419904.0
0.0226791258901,0.00148972205352,2.15052580833,-0.0026400773786,-0.00404991162941,-0.00239800778218,0.167257025838,-0.315609842539,-9.81879043579,0.0,-0.0,0.0,0.0,0.167257025838,-0.315609842539,-9.81879043579,-0.00254771718755,-0.00386449461803,-0.00206282036379,-0.112678788602,-0.154766991735,0.430637300014,0.167257025838,-0.315609842539,-9.81879043579,-0.00416236603633,0.0258648954332,0.00212679523975,0.0,0.0,0.0,,,,,,,,,,995.059997559,152.528533936,44.0699996948,0.0,0.0,0.92470818758,0.0,-10.0,0.0,0.0,0.0,0.0,0.0,0.0,0.0,0.0,63,0,1,1.0,1.0,,,,,,,,,,,,,,,,,,,,,,,,0,2,0,0.453200906515,0,0,0.0,0.0,0.0,0.0670391097665,-1.0,-0.800000011921,-1.0,0.0,7,0,0.0,0.0,0.0,0.0,0.0,0.0,0.0,0.0,,,,0.0,0.0,0.0,,,,,,,,0.0,0.0,0.0,0.0,0.0,0.0,1.0,1.0,0.0,,,,,,,,,,,,,,,,,,,,,,0.0,0.0,0.0,11.2258005142,11.2872190475,0.0,2.86856007576,,,,165,166,31,25,0,0,100,218937270,,,,,,,,,,,,,,,,,,,,,,,,,,,,,,,,,,,,,,,,,,,,,,,,,,,,,,,,,5.1884765625,0.0670000016689,1.22000002861,0,1,0,0,0,,,,,,,,,,,,,,,,,,,,,,,,,,,,,,,,,,,,,,,,,,,,,,,,,,,,,,,,,,,,,,,,,,,,,,,,,,,,,,,,,,,,,,,,,,,,,,,,,,,4727,0.0,4692,0.0,1500.0,1500.0,0.0,0.0,0.0,0.0,0.0,0.0,220015998,PX4FMU_V2,c17f0b6885b5678d25510dd57a90f80b05115e37,test,305419904.0
0.0226785056293,0.00148934987374,2.15056681633,-0.00256480765529,-0.00397947616875,-0.00236993376166,0.167425364256,-0.3169952631,-9.81892585754,0.0,-0.0,0.0,0.0,0.167425364256,-0.3169952631,-9.81892585754,-0.00239157676697,-0.00382820749655,-0.00225447118282,-0.110918790102,-0.155886992812,0.43015730381,0.167425364256,-0.3169952631,-9.81892585754,-0.00362731842324,0.024682553485,0.000330518261762,0.0,0.0,0.0,,,,,,,,,,995.059997559,152.528533936,44.0699996948,0.0,0.0,0.92470818758,0.0,-10.0,0.0,0.0,0.0,0.0,0.0,0.0,0.0,0.0,63,0,1,1.0,1.0,,,,,,,,,,,,,,,,,,,,,,,,0,2,0,0.453200906515,0,0,0.0,0.0,0.0,0.0670391097665,-1.0,-0.800000011921,-1.0,0.0,7,0,0.0,0.0,0.0,0.0,0.0,0.0,0.0,0.0,,,,0.0,0.0,0.0,,,,,,,,0.0,0.0,0.0,0.0,0.0,0.0,1.0,1.0,0.0,,,,,,,,,,,,,,,,,,,,,,0.0,0.0,0.0,11.1766004562,11.2871084213,0.0,2.86856007576,,,,165,166,31,25,0,0,100,218937270,,,,,,,,,,,,,,,,,,,,,,,,,,,,,,,,,,,,,,,,,,,,,,,,,,,,,,,,,5.19492197037,0.0670000016689,1.22000002861,0,1,0,0,0,,,,,,,,,,,,,,,,,,,,,,,,,,,,,,,,,,,,,,,,,,,,,,,,,,,,,,,,,,,,,,,,,,,,,,,,,,,,,,,,,,,,,,,,,,,,,,,,,,,4727,0.0,4692,0.0,1500.0,1500.0,0.0,0.0,0.0,0.0,0.0,0.0,220021908,PX4FMU_V2,c17f0b6885b5678d25510dd57a90f80b05115e37,test,305419904.0
0.0226788613945,0.00149068108294,2.15063285828,-0.00233332579955,-0.00375657319091,-0.0026025925763,0.174249917269,-0.318967878819,-9.79987621307,0.0,-0.0,0.0,0.0,0.174249917269,-0.318967878819,-9.79987621307,-0.00210485048592,-0.00354735739529,-0.00279367668554,-0.111478790641,-0.154207006097,0.431757301092,0.176654472947,-0.31959053874,-9.79728126526,0.000672110531013,0.0251092351973,-0.000684634898789,0.0,0.0,0.0,,,,,,,,,,995.049987793,152.613006592,44.0699996948,0.0,0.0,0.92470818758,0.0,-10.0,0.0,0.0,0.0,0.0,0.0,0.0,0.0,0.0,63,0,1,1.0,1.0,,,,,,,,,,,,,,,,,,,,,,,,0,2,0,0.453200906515,0,0,0.0,0.0,0.0,0.00279329600744,-1.0,-0.800000011921,-1.0,0.0,7,0,0.0,0.0,0.0,0.0,0.0,0.0,0.0,0.0,,,,0.0,0.0,0.0,,,,,,,,0.0,0.0,0.0,0.0,0.0,0.0,1.0,1.0,0.0,,,,,,,,,,,,,,,,,,,,,,0.0,0.0,0.0,11.1766004562,11.2871084213,0.0,2.86856007576,,,,165,166,31,25,0,0,100,218937270,,,,,,,,,,,,,,,,,,,,,,,,,,,,,,,,,,,,,,,,,,,,,,,,,,,,,,,,,5.20942354202,0.0670000016689,1.22000002861,0,1,0,0,0,,,,,,,,,,,,,,,,,,,,,,,,,,,,,,,,,,,,,,,,,,,,,,,,,,,,,,,,,,,,,,,,,,,,,,,,,,,,,,,,,,,,,,,,,,,,,,,,,,,4727,0.0,4692,0.0,1500.0,1500.0,0.0,0.0,0.0,0.0,0.0,0.0,220028285,PX4FMU_V2,c17f0b6885b5678d25510dd57a90f80b05115e37,test,305419904.0
0.0226801056415,0.0014926190488,2.1505818367,-0.00217403378338,-0.00369676668197,-0.00269599026069,0.180368408561,-0.318415462971,-9.79072284698,0.0,-0.0,0.0,0.0,0.180368408561,-0.318415462971,-9.79072284698,-0.00190593313891,-0.00361224985681,-0.0027802111581,-0.111478790641,-0.154207006097,0.431757301092,0.180368408561,-0.318415462971,-9.79072284698,0.00239098980092,0.0254872404039,0.00203993171453,0.0,0.0,0.0,,,,,,,,,,995.049987793,152.613006592,44.0699996948,0.0,0.0,0.92470818758,0.0,-10.0,0.0,0.0,0.0,0.0,0.0,0.0,0.0,0.0,63,0,1,1.0,1.0,,,,,,,,,,,,,,,,,,,,,,,,0,2,0,0.453200906515,0,0,0.0,0.0,0.0,0.00279329600744,-1.0,-0.800000011921,-1.0,0.0,7,0,0.0,0.0,0.0,0.0,0.0,0.0,0.0,0.0,,,,0.0,0.0,0.0,,,,,,,,0.0,0.0,0.0,0.0,0.0,0.0,1.0,1.0,0.0,,,,,,,,,,,,,,,,,,,,,,0.0,0.0,0.0,11.2995996475,11.2871208191,0.0,2.86856007576,,,,165,166,31,25,0,0,100,218937270,,,,,,,,,,,,,,,,,,,,,,,,,,,,,,,,,,,,,,,,,,,,,,,,,,,,,,,,,5.20942354202,0.0670000016689,1.22000002861,0,1,0,0,0,,,,,,,,,,,,,,,,,,,,,,,,,,,,,,,,,,,,,,,,,,,,,,,,,,,,,,,,,,,,,,,,,,,,,,,,,,,,,,,,,,,,,,,,,,,,,,,,,,,4727,0.0,4692,0.0,1500.0,1500.0,0.0,0.0,0.0,0.0,0.0,0.0,220033989,PX4FMU_V2,c17f0b6885b5678d25510dd57a90f80b05115e37,test,305419904.0
0.0226782057434,0.00148830609396,2.15059900284,-0.00214378675446,-0.00383569137193,-0.0022561759688,0.168074935675,-0.31297069788,-9.79229545593,0.0,-0.0,0.0,0.0,0.168074935675,-0.31297069788,-9.79229545593,-0.00233796029352,-0.00398849695921,-0.00167898205109,-0.110038794577,-0.153646990657,0.431997299194,0.168074935675,-0.31297069788,-9.79229545593,-0.000941604725085,0.0240144170821,0.00385392503813,0.0,0.0,0.0,,,,,,,,,,995.039978027,152.697479248,44.0699996948,0.0,0.0,0.92470818758,0.0,-10.0,0.0,0.0,0.0,0.0,0.0,0.0,0.0,0.0,63,0,1,1.0,1.0,,,,,,,,,,,,,,,,,,,,,,,,0,2,0,0.453200906515,0,0,0.0,0.0,0.0,0.00279329600744,-1.0,-0.800000011921,-1.0,0.0,7,0,0.0,0.0,0.0,0.0,0.0,0.0,0.0,0.0,,,,0.0,0.0,0.0,,,,,,,,0.0,0.0,0.0,0.0,0.0,0.0,1.0,1.0,0.0,,,,,,,,,,,,,,,,,,,,,,0.0,0.0,0.0,11.2995996475,11.2871208191,0.0,2.86856007576,,,,165,166,31,25,0,0,100,220035723,,,,,,,,,,,,,,,,,,,,,,,,,,,,,,,,,,,,,,,,,,,,,,,,,,,,,,,,,5.21103525162,0.0670000016689,1.22000002861,0,1,0,0,0,,,,,,,,,,,,,,,,,,,,,,,,,,,,,,,,,,,,,,,,,,,,,,,,,,,,,,,,,,,,,,,,,,,,,,,,,,,,,,,,,,,,,,,,,,,,,,,,,,,4727,0.0,4692,0.0,1500.0,1500.0,0.0,0.0,0.0,0.0,0.0,0.0,220040308,PX4FMU_V2,c17f0b6885b5678d25510dd57a90f80b05115e37,test,305419904.0
