ATT_Roll,ATT_Pitch,ATT_Yaw,ATT_RollRate,ATT_PitchRate,ATT_YawRate,ATT_GX,ATT_GY,ATT_GZ,ATSP_RollSP,ATSP_PitchSP,ATSP_YawSP,ATSP_ThrustSP,IMU_AccX,IMU_AccY,IMU_AccZ,IMU_GyroX,IMU_GyroY,IMU_GyroZ,IMU_MagX,IMU_MagY,IMU_MagZ,IMU1_AccX,IMU1_AccY,IMU1_AccZ,IMU1_GyroX,IMU1_GyroY,IMU1_GyroZ,IMU1_MagX,IMU1_MagY,IMU1_MagZ,IMU2_AccX,IMU2_AccY,IMU2_AccZ,IMU2_GyroX,IMU2_GyroY,IMU2_GyroZ,IMU2_MagX,IMU2_MagY,IMU2_MagZ,SENS_BaroPres,SENS_BaroAlt,SENS_BaroTemp,SENS_DiffPres,SENS_DiffPresFilt,LPOS_X,LPOS_Y,LPOS_Z,LPOS_Dist,LPOS_DistR,LPOS_VX,LPOS_VY,LPOS_VZ,LPOS_RLat,LPOS_RLon,LPOS_RAlt,LPOS_PFlg,LPOS_LFlg,LPOS_GFlg,LPOS_EPH,LPOS_EPV,LPSP_X,LPSP_Y,LPSP_Z,LPSP_Yaw,GPS_GPSTime,GPS_Fix,GPS_EPH,GPS_EPV,GPS_Lat,GPS_Lon,GPS_Alt,GPS_VelN,GPS_VelE,GPS_VelD,GPS_Cog,GPS_nSat,GPS_SNR,GPS_N,GPS_J,ATTC_Roll,ATTC_Pitch,ATTC_Yaw,ATTC_Thrust,STAT_MainState,STAT_ArmState,STAT_FailsafeState,STAT_BatRem,STAT_BatWarn,STAT_Landed,RC_Ch0,RC_Ch1,RC_Ch2,RC_Ch3,RC_Ch4,RC_Ch5,RC_Ch6,RC_Ch7,RC_Count,RC_SignalLost,OUT0_Out0,OUT0_Out1,OUT0_Out2,OUT0_Out3,OUT0_Out4,OUT0_Out5,OUT0_Out6,OUT0_Out7,AIRS_IndSpeed,AIRS_TrueSpeed,AIRS_AirTemp,ARSP_RollRateSP,ARSP_PitchRateSP,ARSP_YawRateSP,FLOW_RawX,FLOW_RawY,FLOW_CompX,FLOW_CompY,FLOW_Dist,FLOW_Q,FLOW_SensID,GPOS_Lat,GPOS_Lon,GPOS_Alt,GPOS_VelN,GPOS_VelE,GPOS_VelD,GPOS_EPH,GPOS_EPV,GPOS_TALT,GPSP_NavState,GPSP_Lat,GPSP_Lon,GPSP_Alt,GPSP_Yaw,GPSP_Type,GPSP_LoitR,GPSP_LoitDir,GPSP_PitMin,ESC_count,ESC_nESC,ESC_Conn,ESC_N,ESC_Ver,ESC_Adr,ESC_Volt,ESC_Amp,ESC_RPM,ESC_Temp,ESC_SetP,ESC_SetPRAW,GVSP_VX,GVSP_VY,GVSP_VZ,BATT_V,BATT_VFilt,BATT_C,BATT_Discharged,DIST_Bottom,DIST_BottomRate,DIST_Flags,TEL0_RSSI,TEL0_RemRSSI,TEL0_Noise,TEL0_RemNoise,TEL0_RXErr,TEL0_Fixed,TEL0_TXBuf,TEL0_HbTime,TEL1_RSSI,TEL1_RemRSSI,TEL1_Noise,TEL1_RemNoise,TEL1_RXErr,TEL1_Fixed,TEL1_TXBuf,TEL1_HbTime,TEL2_RSSI,TEL2_RemRSSI,TEL2_Noise,TEL2_RemNoise,TEL2_RXErr,TEL2_Fixed,TEL2_TXBuf,TEL2_HbTime,TEL3_RSSI,TEL3_RemRSSI,TEL3_Noise,TEL3_RemNoise,TEL3_RXErr,TEL3_Fixed,TEL3_TXBuf,TEL3_HbTime,EST0_s0,EST0_s1,EST0_s2,EST0_s3,EST0_s4,EST0_s5,EST0_s6,EST0_s7,EST0_s8,EST0_s9,EST0_s10,EST0_s11,EST0_nStat,EST0_fNaN,EST0_fHealth,EST0_fTOut,EST1_s12,EST1_s13,EST1_s14,EST1_s15,EST1_s16,EST1_s17,EST1_s18,EST1_s19,EST1_s20,EST1_s21,EST1_s22,EST1_s23,EST1_s24,EST1_s25,EST1_s26,EST1_s27,PWR_Periph5V,PWR_Servo5V,PWR_RSSI,PWR_UsbOk,PWR_BrickOk,PWR_ServoOk,PWR_PeriphOC,PWR_HipwrOC,VICN_X,VICN_Y,VICN_Z,VICN_Roll,VICN_Pitch,VICN_Yaw,VISN_X,VISN_Y,VISN_Z,VISN_VX,VISN_VY,VISN_VZ,VISN_QuatX,VISN_QuatY,VISN_QuatZ,VISN_QuatW,GS0A_s0,GS0A_s1,GS0A_s2,GS0A_s3,GS0A_s4,GS0A_s5,GS0A_s6,GS0A_s7,GS0A_s8,GS0A_s9,GS0A_s10,GS0A_s11,GS0A_s12,GS0A_s13,GS0A_s14,GS0A_s15,GS0B_s0,GS0B_s1,GS0B_s2,GS0B_s3,GS0B_s4,GS0B_s5,GS0B_s6,GS0B_s7,GS0B_s8,GS0B_s9,GS0B_s10,GS0B_s11,GS0B_s12,GS0B_s13,GS0B_s14,GS0B_s15,GS1A_s0,GS1A_s1,GS1A_s2,GS1A_s3,GS1A_s4,GS1A_s5,GS1A_s6,GS1A_s7,GS1A_s8,GS1A_s9,GS1A_s10,GS1A_s11,GS1A_s12,GS1A_s13,GS1A_s14,GS1A_s15,GS1B_s0,GS1B_s1,GS1B_s2,GS1B_s3,GS1B_s4,GS1B_s5,GS1B_s6,GS1B_s7,GS1B_s8,GS1B_s9,GS1B_s10,GS1B_s11,GS1B_s12,GS1B_s13,GS1B_s14,GS1B_s15,TECS_ASP,TECS_AF,TECS_FSP,TECS_F,TECS_FF,TECS_AsSP,TECS_AsF,TECS_AsDSP,TECS_AsD,TECS_TERSP,TECS_TER,TECS_EDRSP,TECS_EDR,TECS_M,WIND_X,WIND_Y,WIND_CovX,WIND_CovY,ENCD_cnt0,ENCD_vel0,ENCD_cnt1,ENCD_vel1,OUT1_Out0,OUT1_Out1,OUT1_Out2,OUT1_Out3,OUT1_Out4,OUT1_Out5,OUT1_Out6,OUT1_Out7,TIME_StartTime,VER_Arch,VER_FwGit,PARM_Name,PARM_Value
,,,,,,,,,,,,,,,,,,,,,,,,,,,,,,,,,,,,,,,,,,,,,,,,,,,,,,,,,,,,,,,,,,,,,,,,,,,,,,,,,,,,,,,,,,,,,,,,,,,,,,,,,,,,,,,,,,,,,,,,,,,,,,,,,,,,,,,,,,,,,,,,,,,,,,,,,,,,,,,,,,,,,,,,,,,,,,,,,,,,,,,,,,,,,,,,,,,,,,,,,,,,,,,,,,,,,,,,,,,,,,,,,,,,,,,,,,,,,,,,,,,,,,,,,,,,,,,,,,,,,,,,,,,,,,,,,,,,,,,,,,,,,,,,,,,,,,,,,,,,,,,,,,,,,,,,,,,,,,,,,,,,,,,,,,,,,,,,,,,,,,,,PX4FMU_V2,c17f0b6885b5678d25510dd57a90f80b05115e37,test,305419904.0
-0.0152367483824,-0.240085110068,-1.14969336987,-0.00574060063809,-0.00815112609416,0.00618730857968,-2.15370965004,0.251981675625,-9.52712154388,0.0,-0.0,0.0,0.0,-2.15370965004,0.251981675625,-9.52712154388,-0.00324864150025,-0.00661737006158,0.00261610979214,0.172841191292,0.156673014164,0.41303730011,-2.15370965004,0.251981675625,-9.52712154388,0.000588193244766,0.0223164800555,0.00672069890425,0.0,0.0,0.0,,,,,,,,,,995.139953613,151.852783203,43.9599990845,0.0,0.0,33.2965621948,0.0,-10.0,0.0,0.0,0.0,0.0,0.0,0.0,0.0,0.0,63,0,1,1.0,1.0,,,,,,,,,,,,,,,,,,,,,,,,0,2,0,0.467992007732,0,0,0.0,0.0,0.0,0.9413408041,-1.0,-0.800000011921,-1.0,0.0,7,0,0.0,0.0,0.0,0.0,0.0,0.0,0.0,0.0,,,,0.0,0.0,0.0,,,,,,,,0.0,0.0,0.0,0.0,0.0,0.0,1.0,1.0,0.0,,,,,,,,,,,,,,,,,,,,,,0.0,0.0,0.0,11.307800293,11.3229112625,0.0,3.83614587784,,,,147,150,33,34,0,0,100,72814243,,,,,,,,,,,,,,,,,,,,,,,,,,,,,,,,,,,,,,,,,,,,,,,,,,,,,,,,,5.23842763901,0.070000000298,1.22200000286,0,1,0,0,0,,,,,,,,,,,,,,,,,,,,,,,,,,,,,,,,,,,,,,,,,,,,,,,,,,,,,,,,,,,,,,,,,,,,,,,,,,,,,,,,,,,,,,,,,,,,,,,,,,,170624,0.0,168532,0.0,1500.0,1500.0,0.0,0.0,0.0,0.0,0.0,0.0,73797889,PX4FMU_V2,c17f0b6885b5678d25510dd57a90f80b05115e37,test,305419904.0
-0.0152773326263,-0.240101858974,-1.1496566534,-0.00251943198964,-0.00731444125995,0.00557672418654,-2.10922503471,0.181902632117,-9.46389389038,0.0,-0.0,0.0,0.0,-2.10922503471,0.181902632117,-9.46389389038,-0.00157788617071,-0.00668591493741,0.000409128086176,0.17516118288,0.158833011985,0.410717308521,-2.10922503471,0.181902632117,-9.46389389038,-0.00380042055622,0.0232070740312,0.00785366073251,0.0,0.0,0.0,,,,,,,,,,995.159973145,151.683853149,43.9599990845,0.0,0.0,33.2965621948,0.0,-10.0,0.0,0.0,0.0,0.0,0.0,0.0,0.0,0.0,63,0,1,1.0,1.0,,,,,,,,,,,,,,,,,,,,,,,,0,2,0,0.467901796103,0,0,0.0,0.0,0.0,0.9413408041,-1.0,-0.800000011921,-1.0,0.0,7,0,0.0,0.0,0.0,0.0,0.0,0.0,0.0,0.0,,,,0.0,0.0,0.0,,,,,,,,0.0,0.0,0.0,0.0,0.0,0.0,1.0,1.0,0.0,,,,,,,,,,,,,,,,,,,,,,0.0,0.0,0.0,11.307800293,11.3229112625,0.0,3.83614587784,,,,147,150,33,34,0,0,100,72814243,,,,,,,,,,,,,,,,,,,,,,,,,,,,,,,,,,,,,,,,,,,,,,,,,,,,,,,,,5.220703125,0.070000000298,1.22200000286,0,1,0,0,0,,,,,,,,,,,,,,,,,,,,,,,,,,,,,,,,,,,,,,,,,,,,,,,,,,,,,,,,,,,,,,,,,,,,,,,,,,,,,,,,,,,,,,,,,,,,,,,,,,,170624,0.0,168532,0.0,1500.0,1500.0,0.0,0.0,0.0,0.0,0.0,0.0,73805443,PX4FMU_V2,c17f0b6885b5678d25510dd57a90f80b05115e37,test,305419904.0
-0.0153034245595,-0.240131020546,-1.14965069294,-0.00132828636561,-0.00739185046405,0.00654499279335,-2.10969161987,0.100077010691,-9.42326545715,0.0,-0.0,0.0,0.0,-2.10969161987,0.100077010691,-9.42326545715,-0.00273871608078,-0.00756090413779,0.00398314185441,0.173641189933,0.15659300983,0.412797302008,-2.10969161987,0.100077010691,-9.42326545715,-0.00200242362916,0.0221721157432,0.0114328116179,0.0,0.0,0.0,,,,,,,,,,995.159973145,151.683853149,43.9599990845,0.0,0.0,33.2965621948,0.0,-10.0,0.0,0.0,0.0,0.0,0.0,0.0,0.0,0.0,63,0,1,1.0,1.0,,,,,,,,,,,,,,,,,,,,,,,,0,2,0,0.467901796103,0,0,0.0,0.0,0.0,0.9413408041,-1.0,-0.800000011921,-1.0,0.0,7,0,0.0,0.0,0.0,0.0,0.0,0.0,0.0,0.0,,,,0.0,0.0,0.0,,,,,,,,0.0,0.0,0.0,0.0,0.0,0.0,1.0,1.0,0.0,,,,,,,,,,,,,,,,,,,,,,0.0,0.0,0.0,11.357000351,11.3229455948,0.0,3.83614587784,,,,147,150,33,34,0,0,100,72814243,,,,,,,,,,,,,,,,,,,,,,,,,,,,,,,,,,,,,,,,,,,,,,,,,,,,,,,,,5.220703125,0.070000000298,1.22200000286,0,1,0,0,0,,,,,,,,,,,,,,,,,,,,,,,,,,,,,,,,,,,,,,,,,,,,,,,,,,,,,,,,,,,,,,,,,,,,,,,,,,,,,,,,,,,,,,,,,,,,,,,,,,,170624,0.0,168532,0.0,1500.0,1500.0,0.0,0.0,0.0,0.0,0.0,0.0,73811713,PX4FMU_V2,c17f0b6885b5678d25510dd57a90f80b05115e37,test,305419904.0
-0.0153140323237,-0.240143060684,-1.1495834589,-0.00149808463175,-0.00752259464934,0.00772270560265,-2.12035989761,0.0722452551126,-9.42137050629,0.0,-0.0,0.0,0.0,-2.12035989761,0.0722452551126,-9.42137050629,-0.00319811934605,-0.00770086143166,0.00657391455024,0.173641189933,0.15659300983,0.412797302008,-2.12035989761,0.0722452551126,-9.42137050629,-0.00160301220603,0.0239113867283,0.012490359135,0.0,0.0,0.0,,,,,,,,,,995.159973145,151.683853149,43.9599990845,0.0,0.0,33.2965621948,0.0,-10.0,0.0,0.0,0.0,0.0,0.0,0.0,0.0,0.0,63,0,1,1.0,1.0,,,,,,,,,,,,,,,,,,,,,,,,0,2,0,0.467901796103,0,0,0.0,0.0,0.0,0.9413408041,-1.0,-0.800000011921,-1.0,0.0,7,0,0.0,0.0,0.0,0.0,0.0,0.0,0.0,0.0,,,,0.0,0.0,0.0,,,,,,,,0.0,0.0,0.0,0.0,0.0,0.0,1.0,1.0,0.0,,,,,,,,,,,,,,,,,,,,,,0.0,0.0,0.0,11.357000351,11.3229455948,0.0,3.83614587784,,,,147,150,33,34,0,0,100,72814243,,,,,,,,,,,,,,,,,,,,,,,,,,,,,,,,,,,,,,,,,,,,,,,,,,,,,,,,,5.220703125,0.070000000298,1.5300000906,0,1,0,0,0,,,,,,,,,,,,,,,,,,,,,,,,,,,,,,,,,,,,,,,,,,,,,,,,,,,,,,,,,,,,,,,,,,,,,,,,,,,,,,,,,,,,,,,,,,,,,,,,,,,170624,0.0,168532,0.0,1500.0,1500.0,0.0,0.0,0.0,0.0,0.0,0.0,73817510,PX4FMU_V2,c17f0b6885b5678d25510dd57a90f80b05115e37,test,305419904.0
-0.0153443459421,-0.240171700716,-1.1492806673,-0.00168012769427,-0.00779216643423,0.0123672094196,-2.13881373405,0.0935828834772,-9.40608406067,0.0,-0.0,0.0,0.0,-2.13881373405,0.0935828834772,-9.40608406067,-0.00293711875565,-0.00800039991736,0.0138574214652,0.177161186934,0.15523301065,0.41111728549,-2.13881373405,0.0935828834772,-9.40608406067,-0.00583257107064,0.022467058152,0.0189851298928,0.0,0.0,0.0,,,,,,,,,,995.159973145,151.683853149,43.9599990845,0.0,0.0,33.2965621948,0.0,-10.0,0.0,0.0,0.0,0.0,0.0,0.0,0.0,0.0,63,0,1,1.0,1.0,,,,,,,,,,,,,,,,,,,,,,,,0,2,0,0.467901796103,0,0,0.0,0.0,0.0,0.9413408041,-1.0,-0.800000011921,-1.0,0.0,7,0,0.0,0.0,0.0,0.0,0.0,0.0,0.0,0.0,,,,0.0,0.0,0.0,,,,,,,,0.0,0.0,0.0,0.0,0.0,0.0,1.0,1.0,0.0,,,,,,,,,,,,,,,,,,,,,,0.0,0.0,0.0,11.3406000137,11.3229637146,0.0,3.83614587784,,,,147,150,33,34,0,0,100,72814243,,,,,,,,,,,,,,,,,,,,,,,,,,,,,,,,,,,,,,,,,,,,,,,,,,,,,,,,,5.220703125,0.070000000298,1.5300000906,0,1,0,0,0,,,,,,,,,,,,,,,,,,,,,,,,,,,,,,,,,,,,,,,,,,,,,,,,,,,,,,,,,,,,,,,,,,,,,,,,,,,,,,,,,,,,,,,,,,,,,,,,,,,170624,0.0,168532,0.0,1500.0,1500.0,0.0,0.0,0.0,0.0,0.0,0.0,73823768,PX4FMU_V2,c17f0b6885b5678d25510dd57a90f80b05115e37,test,305419904.0
-0.0153680089861,-0.240186706185,-1.14925456047,-0.00183373084292,-0.00807087868452,0.0153369409963,-2.12910795212,0.121968202293,-9.40351295471,0.0,-0.0,0.0,0.0,-2.12910795212,0.121968202293,-9.40351295471,-0.00316028227098,-0.00847011059523,0.0172628629953,0.174041196704,0.156753018498,0.410877287388,-2.12910795212,0.121968202293,-9.40351295471,-0.00599078275263,0.0187766738236,0.0226855389774,0.0,0.0,0.0,,,,,,,,,,995.190002441,151.430465698,43.9599990845,0.0,0.0,33.2965621948,0.0,-10.0,0.0,0.0,0.0,0.0,0.0,0.0,0.0,0.0,63,0,1,1.0,1.0,,,,,,,,,,,,,,,,,,,,,,,,0,2,0,0.467901796103,0,0,0.0,0.0,0.0,0.9413408041,-1.0,-0.800000011921,-1.0,0.0,7,0,0.0,0.0,0.0,0.0,0.0,0.0,0.0,0.0,,,,0.0,0.0,0.0,,,,,,,,0.0,0.0,0.0,0.0,0.0,0.0,1.0,1.0,0.0,,,,,,,,,,,,,,,,,,,,,,0.0,0.0,0.0,11.3406000137,11.3229637146,0.0,3.83614587784,,,,147,150,33,34,0,0,100,72814243,,,,,,,,,,,,,,,,,,,,,,,,,,,,,,,,,,,,,,,,,,,,,,,,,,,,,,,,,5.2335934639,0.070000000298,1.5300000906,0,1,0,0,0,,,,,,,,,,,,,,,,,,,,,,,,,,,,,,,,,,,,,,,,,,,,,,,,,,,,,,,,,,,,,,,,,,,,,,,,,,,,,,,,,,,,,,,,,,,,,,,,,,,170624,0.0,168532,0.0,1500.0,1500.0,0.0,0.0,0.0,0.0,0.0,0.0,73829638,PX4FMU_V2,c17f0b6885b5678d25510dd57a90f80b05115e37,test,305419904.0
-0.0154259121045,-0.240215614438,-1.14902877808,-0.00265323370695,-0.00857501104474,0.01992546767,-2.10521841049,0.114556767046,-9.39813518524,0.0,-0.0,0.0,0.0,-2.10521841049,0.114556767046,-9.39813518524,-0.00433789752424,-0.00880187842995,0.0198342576623,0.174041196704,0.156753018498,0.410877287388,-2.10521841049,0.114556767046,-9.39813518524,-0.0107535393909,0.0189334470779,0.022936752066,0.0,0.0,0.0,,,,,,,,,,995.190002441,151.430465698,43.9599990845,0.0,0.0,33.2965621948,0.0,-10.0,0.0,0.0,0.0,0.0,0.0,0.0,0.0,0.0,63,0,1,1.0,1.0,,,,,,,,,,,,,,,,,,,,,,,,0,2,0,0.467901796103,0,0,0.0,0.0,0.0,0.9413408041,-1.0,-0.800000011921,-1.0,0.0,7,0,0.0,0.0,0.0,0.0,0.0,0.0,0.0,0.0,,,,0.0,0.0,0.0,,,,,,,,0.0,0.0,0.0,0.0,0.0,0.0,1.0,1.0,0.0,,,,,,,,,,,,,,,,,,,,,,0.0,0.0,0.0,11.332400322,11.3229732513,0.0,3.83614587784,,,,147,150,33,34,0,0,100,72814243,,,,,,,,,,,,,,,,,,,,,,,,,,,,,,,,,,,,,,,,,,,,,,,,,,,,,,,,,5.220703125,0.070000000298,1.50400006771,0,1,0,0,0,,,,,,,,,,,,,,,,,,,,,,,,,,,,,,,,,,,,,,,,,,,,,,,,,,,,,,,,,,,,,,,,,,,,,,,,,,,,,,,,,,,,,,,,,,,,,,,,,,,170624,0.0,168532,0.0,1500.0,1500.0,0.0,0.0,0.0,0.0,0.0,0.0,73835616,PX4FMU_V2,c17f0b6885b5678d25510dd57a90f80b05115e37,test,305419904.0
-0.0154552878812,-0.240229800344,-1.14898979664,-0.00333292619325,-0.00877789221704,0.0216214992106,-2.10165309906,0.0725063383579,-9.40655040741,0.0,-0.0,0.0,0.0,-2.10165309906,0.0725063383579,-9.40655040741,-0.00520920800045,-0.00895941630006,0.0210531279445,0.173961192369,0.156753018498,0.411437302828,-2.10165309906,0.0725063383579,-9.40655040741,-0.0122904861346,0.0201309565455,0.0239086542279,0.0,0.0,0.0,,,,,,,,,,995.149963379,151.768325806,43.9599990845,0.0,0.0,33.2965621948,0.0,-10.0,0.0,0.0,0.0,0.0,0.0,0.0,0.0,0.0,63,0,1,1.0,1.0,,,,,,,,,,,,,,,,,,,,,,,,0,2,0,0.467901796103,0,0,0.0,0.0,0.0,0.9413408041,-1.0,-0.800000011921,-1.0,0.0,7,0,0.0,0.0,0.0,0.0,0.0,0.0,0.0,0.0,,,,0.0,0.0,0.0,,,,,,,,0.0,0.0,0.0,0.0,0.0,0.0,1.0,1.0,0.0,,,,,,,,,,,,,,,,,,,,,,0.0,0.0,0.0,11.332400322,11.3229732513,0.0,3.83614587784,,,,147,150,33,34,0,0,100,72814243,,,,,,,,,,,,,,,,,,,,,,,,,,,,,,,,,,,,,,,,,,,,,,,,,,,,,,,,,5.220703125,0.070000000298,1.50400006771,0,1,0,0,0,,,,,,,,,,,,,,,,,,,,,,,,,,,,,,,,,,,,,,,,,,,,,,,,,,,,,,,,,,,,,,,,,,,,,,,,,,,,,,,,,,,,,,,,,,,,,,,,,,,170624,0.0,168532,0.0,1500.0,1500.0,0.0,0.0,0.0,0.0,0.0,0.0,73841711,PX4FMU_V2,c17f0b6885b5678d25510dd57a90f80b05115e37,test,305419904.0
-0.0155194578692,-0.240259587765,-1.14860236645,-0.00559628847986,-0.00901024974883,0.0246480312198,-2.11077284813,-0.00690491590649,-9.42599487305,0.0,-0.0,0.0,0.0,-2.11077284813,-0.00690491590649,-9.42599487305,-0.00824872776866,-0.00886033196002,0.0236042626202,0.177321195602,0.156833007932,0.410637289286,-2.11077284813,-0.00690491590649,-9.42599487305,-0.0155428582802,0.0156630203128,0.0299562774599,0.0,0.0,0.0,,,,,,,,,,995.149963379,151.768325806,43.9599990845,0.0,0.0,33.2965621948,0.0,-10.0,0.0,0.0,0.0,0.0,0.0,0.0,0.0,0.0,63,0,1,1.0,1.0,,,,,,,,,,,,,,,,,,,,,,,,0,2,0,0.467901796103,0,0,0.0,0.0,0.0,0.9413408041,-1.0,-0.800000011921,-1.0,0.0,7,0,0.0,0.0,0.0,0.0,0.0,0.0,0.0,0.0,,,,0.0,0.0,0.0,,,,,,,,0.0,0.0,0.0,0.0,0.0,0.0,1.0,1.0,0.0,,,,,,,,,,,,,,,,,,,,,,0.0,0.0,0.0,11.283200264,11.322933197,0.0,3.83614587784,,,,147,150,33,34,0,0,100,72814243,,,,,,,,,,,,,,,,,,,,,,,,,,,,,,,,,,,,,,,,,,,,,,,,,,,,,,,,,5.21748018265,0.070000000298,1.50400006771,0,1,0,0,0,,,,,,,,,,,,,,,,,,,,,,,,,,,,,,,,,,,,,,,,,,,,,,,,,,,,,,,,,,,,,,,,,,,,,,,,,,,,,,,,,,,,,,,,,,,,,,,,,,,170624,0.0,168532,0.0,1500.0,1500.0,0.0,0.0,0.0,0.0,0.0,0.0,73848697,PX4FMU_V2,c17f0b6885b5678d25510dd57a90f80b05115e37,test,305419904.0
-0.0156049821526,-0.240289762616,-1.14831864834,-0.00906959734857,-0.00831425469369,0.0262267962098,-2.16051101685,-0.0227065365762,-9.43264293671,0.0,-0.0,0.0,0.0,-2.16051101685,-0.0227065365762,-9.43264293671,-0.0121606448665,-0.00736705353484,0.0241496358067,0.177321195602,0.156833007932,0.410637289286,-2.16051101685,-0.0227065365762,-9.43264293671,-0.0196347571909,0.0209142826498,0.0271983295679,0.0,0.0,0.0,,,,,,,,,,995.119995117,152.021728516,43.9599990845,0.0,0.0,33.2965621948,0.0,-10.0,0.0,0.0,0.0,0.0,0.0,0.0,0.0,0.0,63,0,1,1.0,1.0,,,,,,,,,,,,,,,,,,,,,,,,0,2,0,0.467901796103,0,0,0.0,0.0,0.0,0.9413408041,-1.0,-0.800000011921,-1.0,0.0,7,0,0.0,0.0,0.0,0.0,0.0,0.0,0.0,0.0,,,,0.0,0.0,0.0,,,,,,,,0.0,0.0,0.0,0.0,0.0,0.0,1.0,1.0,0.0,,,,,,,,,,,,,,,,,,,,,,0.0,0.0,0.0,11.283200264,11.322933197,0.0,3.83614587784,,,,147,150,33,34,0,0,100,72814243,,,,,,,,,,,,,,,,,,,,,,,,,,,,,,,,,,,,,,,,,,,,,,,,,,,,,,,,,5.220703125,0.0670000016689,1.50400006771,0,1,0,0,0,,,,,,,,,,,,,,,,,,,,,,,,,,,,,,,,,,,,,,,,,,,,,,,,,,,,,,,,,,,,,,,,,,,,,,,,,,,,,,,,,,,,,,,,,,,,,,,,,,,170624,0.0,168532,0.0,1500.0,1500.0,0.0,0.0,0.0,0.0,0.0,0.0,73855938,PX4FMU_V2,c17f0b6885b5678d25510dd57a90f80b05115e37,test,305419904.0
-0.0157210491598,-0.240314677358,-1.14803600311,-0.0126022156328,-0.00705475499853,0.0273026823997,-2.16973042488,-0.00526555720717,-9.45479488373,0.0,-0.0,0.0,0.0,-2.16973042488,-0.00526555720717,-9.45479488373,-0.0149114271626,-0.00592570379376,0.0252435728908,0.176281183958,0.157873019576,0.411597281694,-2.16973042488,-0.00526555720717,-9.45479488373,-0.0180965941399,0.0206945352256,0.0269085224718,0.0,0.0,0.0,,,,,,,,,,995.119995117,152.021728516,43.9599990845,0.0,0.0,33.2965621948,0.0,-10.0,0.0,0.0,0.0,0.0,0.0,0.0,0.0,0.0,63,0,1,1.0,1.0,,,,,,,,,,,,,,,,,,,,,,,,0,2,0,0.467901796103,0,0,0.0,0.0,0.0,0.9413408041,-1.0,-0.800000011921,-1.0,0.0,7,0,0.0,0.0,0.0,0.0,0.0,0.0,0.0,0.0,,,,0.0,0.0,0.0,,,,,,,,0.0,0.0,0.0,0.0,0.0,0.0,1.0,1.0,0.0,,,,,,,,,,,,,,,,,,,,,,0.0,0.0,0.0,11.3406000137,11.3229513168,0.0,3.83614587784,,,,147,150,33,34,0,0,100,72814243,,,,,,,,,,,,,,,,,,,,,,,,,,,,,,,,,,,,,,,,,,,,,,,,,,,,,,,,,5.220703125,0.0670000016689,1.50400006771,0,1,0,0,0,,,,,,,,,,,,,,,,,,,,,,,,,,,,,,,,,,,,,,,,,,,,,,,,,,,,,,,,,,,,,,,,,,,,,,,,,,,,,,,,,,,,,,,,,,,,,,,,,,,170624,0.0,168532,0.0,1500.0,1500.0,0.0,0.0,0.0,0.0,0.0,0.0,73863229,PX4FMU_V2,c17f0b6885b5678d25510dd57a90f80b05115e37,test,305419904.0
-0.0157856494188,-0.240321651101,-1.14789450169,-0.0141158523038,-0.00644164346159,0.0272282660007,-2.1571187973,-0.00700562447309,-9.47658348083,0.0,-0.0,0.0,0.0,-2.1571187973,-0.00700562447309,-9.47658348083,-0.0159221254289,-0.0054948842153,0.0244127325714,0.174441188574,0.15483301878,0.409677296877,-2.1571187973,-0.00700562447309,-9.47658348083,-0.0192107968032,0.0199745632708,0.0242062676698,0.0,0.0,0.0,,,,,,,,,,995.119995117,152.021728516,43.9599990845,0.0,0.0,33.2965621948,0.0,-10.0,0.0,0.0,0.0,0.0,0.0,0.0,0.0,0.0,63,0,1,1.0,1.0,,,,,,,,,,,,,,,,,,,,,,,,0,2,0,0.467901796103,0,0,0.0,0.0,0.0,0.9413408041,-1.0,-0.800000011921,-1.0,0.0,7,0,0.0,0.0,0.0,0.0,0.0,0.0,0.0,0.0,,,,0.0,0.0,0.0,,,,,,,,0.0,0.0,0.0,0.0,0.0,0.0,1.0,1.0,0.0,,,,,,,,,,,,,,,,,,,,,,0.0,0.0,0.0,11.3406000137,11.3229513168,0.0,3.83614587784,,,,147,150,33,34,0,0,100,72814243,,,,,,,,,,,,,,,,,,,,,,,,,,,,,,,,,,,,,,,,,,,,,,,,,,,,,,,,,5.21425771713,0.0670000016689,1.50400006771,0,1,0,0,0,,,,,,,,,,,,,,,,,,,,,,,,,,,,,,,,,,,,,,,,,,,,,,,,,,,,,,,,,,,,,,,,,,,,,,,,,,,,,,,,,,,,,,,,,,,,,,,,,,,170624,0.0,168532,0.0,1500.0,1500.0,0.0,0.0,0.0,0.0,0.0,0.0,73868813,PX4FMU_V2,c17f0b6885b5678d25510dd57a90f80b05115e37,test,305419904.0
-0.0159292500466,-0.240326374769,-1.14761579037,-0.0171993467957,-0.00521637219936,0.0242285449058,-2.1545317173,0.0107465377077,-9.55394172668,0.0,-0.0,0.0,0.0,-2.1545317173,0.0107465377077,-9.55394172668,-0.0188478361815,-0.00438341172412,0.0185435917228,0.174441188574,0.15483301878,0.409677296877,-2.1545317173,0.0107465377077,-9.55394172668,-0.0183556880802,0.0204333513975,0.0167420171201,0.0,0.0,0.0,,,,,,,,,,995.149963379,151.768325806,43.9599990845,0.0,0.0,33.2965621948,0.0,-10.0,0.0,0.0,0.0,0.0,0.0,0.0,0.0,0.0,63,0,1,1.0,1.0,,,,,,,,,,,,,,,,,,,,,,,,0,2,0,0.467901796103,0,0,0.0,0.0,0.0,0.9413408041,-1.0,-0.800000011921,-1.0,0.0,7,0,0.0,0.0,0.0,0.0,0.0,0.0,0.0,0.0,,,,0.0,0.0,0.0,,,,,,,,0.0,0.0,0.0,0.0,0.0,0.0,1.0,1.0,0.0,,,,,,,,,,,,,,,,,,,,,,0.0,0.0,0.0,11.2749996185,11.3229036331,0.0,3.83614587784,,,,147,150,33,34,0,0,100,72814243,,,,,,,,,,,,,,,,,,,,,,,,,,,,,,,,,,,,,,,,,,,,,,,,,,,,,,,,,5.22714853287,0.070000000298,1.51100003719,0,1,0,0,0,,,,,,,,,,,,,,,,,,,,,,,,,,,,,,,,,,,,,,,,,,,,,,,,,,,,,,,,,,,,,,,,,,,,,,,,,,,,,,,,,,,,,,,,,,,,,,,,,,,170624,0.0,168532,0.0,1500.0,1500.0,0.0,0.0,0.0,0.0,0.0,0.0,73876110,PX4FMU_V2,c17f0b6885b5678d25510dd57a90f80b05115e37,test,305419904.0
-0.0177555829287,-0.239445880055,-1.15033686161,-0.0397056490183,0.00741086807102,-0.0595254339278,-2.19541716576,0.0230304915458,-9.57991600037,0.0,-0.0,0.0,0.0,-2.19541716576,0.0230304915458,-9.57991600037,-0.041652943939,0.00766560435295,-0.0478017255664,0.175081193447,0.15659300983,0.41247728467,-2.19541716576,0.0230304915458,-9.57991600037,-0.0424075983465,0.033849388361,-0.0463618077338,0.0,0.0,0.0,,,,,,,,,,995.199951172,151.346008301,43.9599990845,0.0,0.0,33.2965621948,0.0,-10.0,0.0,0.0,0.0,0.0,0.0,0.0,0.0,0.0,63,0,1,1.0,1.0,,,,,,,,,,,,,,,,,,,,,,,,0,2,0,0.467809200287,0,0,0.0,0.0,0.0,0.885474860668,-1.0,-0.800000011921,-1.0,0.0,7,0,0.0,0.0,0.0,0.0,0.0,0.0,0.0,0.0,,,,0.0,0.0,0.0,,,,,,,,0.0,0.0,0.0,0.0,0.0,0.0,1.0,1.0,0.0,,,,,,,,,,,,,,,,,,,,,,0.0,0.0,0.0,11.2913999557,11.3227109909,0.0124000003561,3.83883833885,,,,147,150,33,34,0,0,100,73977422,,,,,,,,,,,,,,,,,,,,,,,,,,,,,,,,,,,,,,,,,,,,,,,,,,,,,,,,,5.22392559052,0.070000000298,1.23000001907,0,1,0,0,0,,,,,,,,,,,,,,,,,,,,,,,,,,,,,,,,,,,,,,,,,,,,,,,,,,,,,,,,,,,,,,,,,,,,,,,,,,,,,,,,,,,,,,,,,,,,,,,,,,,170624,0.0,168532,0.0,1500.0,1500.0,0.0,0.0,0.0,0.0,0.0,0.0,73979848,PX4FMU_V2,c17f0b6885b5678d25510dd57a90f80b05115e37,test,305419904.0
-0.0178588032722,-0.239406377077,-1.15048456192,-0.0415943935513,0.00781234866008,-0.0537714697421,-2.20046758652,0.0238053612411,-9.56200218201,0.0,-0.0,0.0,0.0,-2.20046758652,0.0238053612411,-9.56200218201,-0.0432802513242,0.00806930847466,-0.0417290814221,0.175081193447,0.15659300983,0.41247728467,-2.20046758652,0.0238053612411,-9.56200218201,-0.0491769313812,0.0386215560138,-0.0414142981172,0.0,0.0,0.0,,,,,,,,,,995.199951172,151.346008301,43.9599990845,0.0,0.0,33.2965621948,0.0,-10.0,0.0,0.0,0.0,0.0,0.0,0.0,0.0,0.0,63,0,1,1.0,1.0,,,,,,,,,,,,,,,,,,,,,,,,0,2,0,0.467809200287,0,0,0.0,0.0,0.0,0.885474860668,-1.0,-0.800000011921,-1.0,0.0,7,0,0.0,0.0,0.0,0.0,0.0,0.0,0.0,0.0,,,,0.0,0.0,0.0,,,,,,,,0.0,0.0,0.0,0.0,0.0,0.0,1.0,1.0,0.0,,,,,,,,,,,,,,,,,,,,,,0.0,0.0,0.0,11.2913999557,11.3227109909,0.0124000003561,3.83883833885,,,,147,150,33,34,0,0,100,73977422,,,,,,,,,,,,,,,,,,,,,,,,,,,,,,,,,,,,,,,,,,,,,,,,,,,,,,,,,5.24003887177,0.070000000298,1.23000001907,0,1,0,0,0,,,,,,,,,,,,,,,,,,,,,,,,,,,,,,,,,,,,,,,,,,,,,,,,,,,,,,,,,,,,,,,,,,,,,,,,,,,,,,,,,,,,,,,,,,,,,,,,,,,170624,0.0,168532,0.0,1500.0,1500.0,0.0,0.0,0.0,0.0,0.0,0.0,73985330,PX4FMU_V2,c17f0b6885b5678d25510dd57a90f80b05115e37,test,305419904.0
-0.018097050488,-0.239323779941,-1.15073478222,-0.0448973812163,0.00852137617767,-0.0406717583537,-2.21040964127,0.0101436115801,-9.56994152069,0.0,-0.0,0.0,0.0,-2.21040964127,0.0101436115801,-9.56994152069,-0.0457998178899,0.00862510968,-0.0287044178694,0.17476119101,0.156753018498,0.411357283592,-2.21040964127,0.0101436115801,-9.56994152069,-0.0586221516132,0.0402649082243,-0.0238113608211,0.0,0.0,0.0,,,,,,,,,,995.190002441,151.430465698,43.9599990845,0.0,0.0,33.2965621948,0.0,-10.0,0.0,0.0,0.0,0.0,0.0,0.0,0.0,0.0,63,0,1,1.0,1.0,,,,,,,,,,,,,,,,,,,,,,,,0,2,0,0.467809200287,0,0,0.0,0.0,0.0,0.796089410782,-1.0,-0.800000011921,-1.0,0.0,7,0,0.0,0.0,0.0,0.0,0.0,0.0,0.0,0.0,,,,0.0,0.0,0.0,,,,,,,,0.0,0.0,0.0,0.0,0.0,0.0,1.0,1.0,0.0,,,,,,,,,,,,,,,,,,,,,,0.0,0.0,0.0,11.3898000717,11.3227777481,0.0,3.83883833885,,,,147,150,33,34,0,0,100,73977422,,,,,,,,,,,,,,,,,,,,,,,,,,,,,,,,,,,,,,,,,,,,,,,,,,,,,,,,,5.24003887177,0.070000000298,1.23000001907,0,1,0,0,0,,,,,,,,,,,,,,,,,,,,,,,,,,,,,,,,,,,,,,,,,,,,,,,,,,,,,,,,,,,,,,,,,,,,,,,,,,,,,,,,,,,,,,,,,,,,,,,,,,,170624,0.0,168532,0.0,1500.0,1500.0,0.0,0.0,0.0,0.0,0.0,0.0,73992401,PX4FMU_V2,c17f0b6885b5678d25510dd57a90f80b05115e37,test,305419904.0
-0.0182319115847,-0.239279568195,-1.15080189705,-0.0465044975281,0.00888540875167,-0.0334282927215,-2.20957183838,0.00416677398607,-9.59403038025,0.0,-0.0,0.0,0.0,-2.20957183838,0.00416677398607,-9.59403038025,-0.0473833493888,0.0090333390981,-0.0217590071261,0.174521192908,0.154593020678,0.412557303905,-2.20957183838,0.00416677398607,-9.59403038025,-0.0592198483646,0.0402129031718,-0.0149085978046,0.0,0.0,0.0,,,,,,,,,,995.190002441,151.430465698,43.9599990845,0.0,0.0,33.2965621948,0.0,-10.0,0.0,0.0,0.0,0.0,0.0,0.0,0.0,0.0,63,0,1,1.0,1.0,,,,,,,,,,,,,,,,,,,,,,,,0,2,0,0.467809200287,0,0,0.0,0.0,0.0,0.796089410782,-1.0,-0.800000011921,-1.0,0.0,7,0,0.0,0.0,0.0,0.0,0.0,0.0,0.0,0.0,,,,0.0,0.0,0.0,,,,,,,,0.0,0.0,0.0,0.0,0.0,0.0,1.0,1.0,0.0,,,,,,,,,,,,,,,,,,,,,,0.0,0.0,0.0,11.3898000717,11.3227777481,0.0,3.83883833885,,,,147,150,33,34,0,0,100,73977422,,,,,,,,,,,,,,,,,,,,,,,,,,,,,,,,,,,,,,,,,,,,,,,,,,,,,,,,,5.22392559052,0.0670000016689,1.22100007534,0,1,0,0,0,,,,,,,,,,,,,,,,,,,,,,,,,,,,,,,,,,,,,,,,,,,,,,,,,,,,,,,,,,,,,,,,,,,,,,,,,,,,,,,,,,,,,,,,,,,,,,,,,,,170624,0.0,168532,0.0,1500.0,1500.0,0.0,0.0,0.0,0.0,0.0,0.0,73998399,PX4FMU_V2,c17f0b6885b5678d25510dd57a90f80b05115e37,test,305419904.0
-0.0185409151018,-0.239183202386,-1.15086770058,-0.049822255969,0.00966134574264,-0.0189388245344,-2.20689296722,0.0163288470358,-9.62084197998,0.0,-0.0,0.0,0.0,-2.20689296722,0.0163288470358,-9.62084197998,-0.0506911166012,0.00987512245774,-0.00937816686928,0.174521192908,0.154593020678,0.412557303905,-2.20689296722,0.0163288470358,-9.62084197998,-0.0596212744713,0.0339762121439,-0.00191564171109,0.0,0.0,0.0,,,,,,,,,,995.149963379,151.768325806,43.9599990845,0.0,0.0,33.2965621948,0.0,-10.0,0.0,0.0,0.0,0.0,0.0,0.0,0.0,0.0,63,0,1,1.0,1.0,,,,,,,,,,,,,,,,,,,,,,,,0,2,0,0.467809200287,0,0,0.0,0.0,0.0,0.796089410782,-1.0,-0.800000011921,-1.0,0.0,7,0,0.0,0.0,0.0,0.0,0.0,0.0,0.0,0.0,,,,0.0,0.0,0.0,,,,,,,,0.0,0.0,0.0,0.0,0.0,0.0,1.0,1.0,0.0,,,,,,,,,,,,,,,,,,,,,,0.0,0.0,0.0,11.3406000137,11.3227958679,0.0,3.83883833885,,,,147,150,33,34,0,0,100,73977422,,,,,,,,,,,,,,,,,,,,,,,,,,,,,,,,,,,,,,,,,,,,,,,,,,,,,,,,,5.23198223114,0.0670000016689,1.22100007534,0,1,0,0,0,,,,,,,,,,,,,,,,,,,,,,,,,,,,,,,,,,,,,,,,,,,,,,,,,,,,,,,,,,,,,,,,,,,,,,,,,,,,,,,,,,,,,,,,,,,,,,,,,,,170624,0.0,168532,0.0,1500.0,1500.0,0.0,0.0,0.0,0.0,0.0,0.0,74004464,PX4FMU_V2,c17f0b6885b5678d25510dd57a90f80b05115e37,test,305419904.0
-0.0187167171389,-0.239132851362,-1.15083372593,-0.0516274161637,0.0102406349033,-0.0121385436505,-2.22776222229,0.0377748608589,-9.62302494049,0.0,-0.0,0.0,0.0,-2.22776222229,0.0377748608589,-9.62302494049,-0.0526231601834,0.0107241356745,-0.0040186541155,0.174921184778,0.154673010111,0.411597281694,-2.22776222229,0.0377748608589,-9.62302494049,-0.0595678277314,0.0338747836649,0.00251318444498,0.0,0.0,0.0,,,,,,,,,,995.149963379,151.768325806,43.9599990845,0.0,0.0,33.2965621948,0.0,-10.0,0.0,0.0,0.0,0.0,0.0,0.0,0.0,0.0,63,0,1,1.0,1.0,,,,,,,,,,,,,,,,,,,,,,,,0,2,0,0.467809200287,0,0,0.0,0.0,0.0,0.796089410782,-1.0,-0.800000011921,-1.0,0.0,7,0,0.0,0.0,0.0,0.0,0.0,0.0,0.0,0.0,,,,0.0,0.0,0.0,,,,,,,,0.0,0.0,0.0,0.0,0.0,0.0,1.0,1.0,0.0,,,,,,,,,,,,,,,,,,,,,,0.0,0.0,0.0,11.3406000137,11.3227958679,0.0,3.83883833885,,,,147,150,33,34,0,0,100,73977422,,,,,,,,,,,,,,,,,,,,,,,,,,,,,,,,,,,,,,,,,,,,,,,,,,,,,,,,,5.23198223114,0.0670000016689,1.22100007534,0,1,0,0,0,,,,,,,,,,,,,,,,,,,,,,,,,,,,,,,,,,,,,,,,,,,,,,,,,,,,,,,,,,,,,,,,,,,,,,,,,,,,,,,,,,,,,,,,,,,,,,,,,,,170624,0.0,168532,0.0,1500.0,1500.0,0.0,0.0,0.0,0.0,0.0,0.0,74010465,PX4FMU_V2,c17f0b6885b5678d25510dd57a90f80b05115e37,test,305419904.0
-0.0191083680838,-0.239029347897,-1.15084004402,-0.0552771799266,0.0115964664146,0.000701230659615,-2.26652240753,0.0638906359673,-9.62812042236,0.0,-0.0,0.0,0.0,-2.26652240753,0.0638906359673,-9.62812042236,-0.0560570806265,0.0122147994116,0.00669646821916,0.173481196165,0.155313014984,0.410717308521,-2.26652240753,0.0638906359673,-9.62812042236,-0.0619099102914,0.0378275439143,0.0137743391097,0.0,0.0,0.0,,,,,,,,,,995.149963379,151.768325806,43.9599990845,0.0,0.0,33.2965621948,0.0,-10.0,0.0,0.0,0.0,0.0,0.0,0.0,0.0,0.0,63,0,1,1.0,1.0,,,,,,,,,,,,,,,,,,,,,,,,0,2,0,0.467809200287,0,0,0.0,0.0,0.0,0.670391082764,-1.0,-0.800000011921,-1.0,0.0,7,0,0.0,0.0,0.0,0.0,0.0,0.0,0.0,0.0,,,,0.0,0.0,0.0,,,,,,,,0.0,0.0,0.0,0.0,0.0,0.0,1.0,1.0,0.0,,,,,,,,,,,,,,,,,,,,,,0.0,0.0,0.0,11.3487997055,11.3228216171,0.0,3.83883833885,,,,147,150,33,34,0,0,100,73977422,,,,,,,,,,,,,,,,,,,,,,,,,,,,,,,,,,,,,,,,,,,,,,,,,,,,,,,,,5.22392559052,0.070000000298,1.21400010586,0,1,0,0,0,,,,,,,,,,,,,,,,,,,,,,,,,,,,,,,,,,,,,,,,,,,,,,,,,,,,,,,,,,,,,,,,,,,,,,,,,,,,,,,,,,,,,,,,,,,,,,,,,,,170624,0.0,168532,0.0,1500.0,1500.0,0.0,0.0,0.0,0.0,0.0,0.0,74016512,PX4FMU_V2,c17f0b6885b5678d25510dd57a90f80b05115e37,test,305419904.0
-0.0193212237209,-0.238972112536,-1.15078544617,-0.0567813068628,0.0123310014606,0.00688694696873,-2.25480055809,0.070163063705,-9.62961769104,0.0,-0.0,0.0,0.0,-2.25480055809,0.070163063705,-9.62961769104,-0.0570042878389,0.0129442894831,0.0121021484956,0.173481196165,0.155313014984,0.410717308521,-2.25480055809,0.070163063705,-9.62961769104,-0.0635265558958,0.0357386358082,0.0213685669005,0.0,0.0,0.0,,,,,,,,,,995.149963379,151.768325806,43.9599990845,0.0,0.0,33.2965621948,0.0,-10.0,0.0,0.0,0.0,0.0,0.0,0.0,0.0,0.0,63,0,1,1.0,1.0,,,,,,,,,,,,,,,,,,,,,,,,0,2,0,0.467809200287,0,0,0.0,0.0,0.0,0.670391082764,-1.0,-0.800000011921,-1.0,0.0,7,0,0.0,0.0,0.0,0.0,0.0,0.0,0.0,0.0,,,,0.0,0.0,0.0,,,,,,,,0.0,0.0,0.0,0.0,0.0,0.0,1.0,1.0,0.0,,,,,,,,,,,,,,,,,,,,,,0.0,0.0,0.0,11.3487997055,11.3228216171,0.0,3.83883833885,,,,147,150,33,34,0,0,100,73977422,,,,,,,,,,,,,,,,,,,,,,,,,,,,,,,,,,,,,,,,,,,,,,,,,,,,,,,,,5.22392559052,0.070000000298,1.21400010586,0,1,0,0,0,,,,,,,,,,,,,,,,,,,,,,,,,,,,,,,,,,,,,,,,,,,,,,,,,,,,,,,,,,,,,,,,,,,,,,,,,,,,,,,,,,,,,,,,,,,,,,,,,,,170624,0.0,168532,0.0,1500.0,1500.0,0.0,0.0,0.0,0.0,0.0,0.0,74022543,PX4FMU_V2,c17f0b6885b5678d25510dd57a90f80b05115e37,test,305419904.0
-0.0197745356709,-0.238839223981,-1.15062320232,-0.0590531118214,0.0141671774909,0.0185165498406,-2.21312713623,0.0667968094349,-9.62662410736,0.0,-0.0,0.0,0.0,-2.21312713623,0.0667968094349,-9.62662410736,-0.0584992356598,0.0151392007247,0.0219176802784,0.17516118288,0.156353011727,0.413597285748,-2.2108695507,0.0692011415958,-9.62439727783,-0.0650777891278,0.0304798036814,0.0335946716368,0.0,0.0,0.0,,,,,,,,,,995.199951172,151.346008301,43.969997406,0.0,0.0,33.2965621948,0.0,-10.0,0.0,0.0,0.0,0.0,0.0,0.0,0.0,0.0,63,0,1,1.0,1.0,,,,,,,,,,,,,,,,,,,,,,,,0,2,0,0.467809200287,0,0,0.0,0.0,0.0,0.670391082764,-1.0,-0.800000011921,-1.0,0.0,7,0,0.0,0.0,0.0,0.0,0.0,0.0,0.0,0.0,,,,0.0,0.0,0.0,,,,,,,,0.0,0.0,0.0,0.0,0.0,0.0,1.0,1.0,0.0,,,,,,,,,,,,,,,,,,,,,,0.0,0.0,0.0,11.3159999847,11.3228149414,0.0,3.83883833885,,,,147,150,33,34,0,0,100,73977422,,,,,,,,,,,,,,,,,,,,,,,,,,,,,,,,,,,,,,,,,,,,,,,,,,,,,,,,,5.22714853287,0.070000000298,1.21400010586,0,1,0,0,0,,,,,,,,,,,,,,,,,,,,,,,,,,,,,,,,,,,,,,,,,,,,,,,,,,,,,,,,,,,,,,,,,,,,,,,,,,,,,,,,,,,,,,,,,,,,,,,,,,,170624,0.0,168532,0.0,1500.0,1500.0,0.0,0.0,0.0,0.0,0.0,0.0,74028586,PX4FMU_V2,c17f0b6885b5678d25510dd57a90f80b05115e37,test,305419904.0
-0.0202596075833,-0.238688036799,-1.15041327477,-0.060915209353,0.0165211837739,0.028531819582,-2.22408342361,0.101252876222,-9.61899375916,0.0,-0.0,0.0,0.0,-2.22408342361,0.101252876222,-9.61899375916,-0.0601685605943,0.0176882538944,0.0300034675747,0.173721194267,0.154993012547,0.411597281694,-2.22408342361,0.101252876222,-9.61899375916,-0.0681437924504,0.0349317006767,0.0405644848943,0.0,0.0,0.0,,,,,,,,,,995.149963379,151.768325806,43.969997406,0.0,0.0,33.2965621948,0.0,-10.0,0.0,0.0,0.0,0.0,0.0,0.0,0.0,0.0,63,0,1,1.0,1.0,,,,,,,,,,,,,,,,,,,,,,,,0,2,0,0.467809200287,0,0,0.0,0.0,0.0,0.670391082764,-1.0,-0.800000011921,-1.0,0.0,7,0,0.0,0.0,0.0,0.0,0.0,0.0,0.0,0.0,,,,0.0,0.0,0.0,,,,,,,,0.0,0.0,0.0,0.0,0.0,0.0,1.0,1.0,0.0,,,,,,,,,,,,,,,,,,,,,,0.0,0.0,0.0,11.3159999847,11.3228149414,0.0,3.83883833885,,,,147,150,33,34,0,0,100,73977422,,,,,,,,,,,,,,,,,,,,,,,,,,,,,,,,,,,,,,,,,,,,,,,,,,,,,,,,,5.23681640625,0.062000002712,1.49400007725,0,1,0,0,0,,,,,,,,,,,,,,,,,,,,,,,,,,,,,,,,,,,,,,,,,,,,,,,,,,,,,,,,,,,,,,,,,,,,,,,,,,,,,,,,,,,,,,,,,,,,,,,,,,,170624,0.0,168532,0.0,1500.0,1500.0,0.0,0.0,0.0,0.0,0.0,0.0,74034745,PX4FMU_V2,c17f0b6885b5678d25510dd57a90f80b05115e37,test,305419904.0
-0.0206025484949,-0.238581717014,-1.15023314953,-0.0618520081043,0.0180979259312,0.033729404211,-2.22538733482,0.123602852225,-9.62277603149,0.0,-0.0,0.0,0.0,-2.22538733482,0.123602852225,-9.62277603149,-0.0605799742043,0.0193581636995,0.0333751812577,0.173721194267,0.154993012547,0.411597281694,-2.22538733482,0.123602852225,-9.62277603149,-0.0670829936862,0.0417891703546,0.0409179516137,0.0,0.0,0.0,,,,,,,,,,995.149963379,151.768325806,43.969997406,0.0,0.0,33.2965621948,0.0,-10.0,0.0,0.0,0.0,0.0,0.0,0.0,0.0,0.0,63,0,1,1.0,1.0,,,,,,,,,,,,,,,,,,,,,,,,0,2,0,0.467809200287,0,0,0.0,0.0,0.0,0.522346377373,-1.0,-0.800000011921,-1.0,0.0,7,0,0.0,0.0,0.0,0.0,0.0,0.0,0.0,0.0,,,,0.0,0.0,0.0,,,,,,,,0.0,0.0,0.0,0.0,0.0,0.0,1.0,1.0,0.0,,,,,,,,,,,,,,,,,,,,,,0.0,0.0,0.0,11.2913999557,11.3227834702,0.0,3.83883833885,,,,147,150,33,34,0,0,100,73977422,,,,,,,,,,,,,,,,,,,,,,,,,,,,,,,,,,,,,,,,,,,,,,,,,,,,,,,,,5.23681640625,0.062000002712,1.49400007725,0,1,0,0,0,,,,,,,,,,,,,,,,,,,,,,,,,,,,,,,,,,,,,,,,,,,,,,,,,,,,,,,,,,,,,,,,,,,,,,,,,,,,,,,,,,,,,,,,,,,,,,,,,,,170624,0.0,168532,0.0,1500.0,1500.0,0.0,0.0,0.0,0.0,0.0,0.0,74041656,PX4FMU_V2,c17f0b6885b5678d25510dd57a90f80b05115e37,test,305419904.0
-0.0211257338524,-0.238391324878,-1.14986205101,-0.0620430186391,0.0209695901722,0.0382240153849,-2.19066858292,0.1562397331,-9.63916969299,0.0,-0.0,0.0,0.0,-2.19066858292,0.1562397331,-9.63916969299,-0.0600836798549,0.0221953392029,0.0343590714037,0.175081193447,0.153553009033,0.412157297134,-2.19066858292,0.1562397331,-9.63916969299,-0.0637297779322,0.0443549863994,0.0386301577091,0.0,0.0,0.0,,,,,,,,,,995.159973145,151.683853149,43.969997406,0.0,0.0,33.2965621948,0.0,-10.0,0.0,0.0,0.0,0.0,0.0,0.0,0.0,0.0,63,0,1,1.0,1.0,,,,,,,,,,,,,,,,,,,,,,,,0,2,0,0.467809200287,0,0,0.0,0.0,0.0,0.522346377373,-1.0,-0.800000011921,-1.0,0.0,7,0,0.0,0.0,0.0,0.0,0.0,0.0,0.0,0.0,,,,0.0,0.0,0.0,,,,,,,,0.0,0.0,0.0,0.0,0.0,0.0,1.0,1.0,0.0,,,,,,,,,,,,,,,,,,,,,,0.0,0.0,0.0,11.2913999557,11.3227834702,0.0,3.83883833885,,,,147,150,33,34,0,0,100,73977422,,,,,,,,,,,,,,,,,,,,,,,,,,,,,,,,,,,,,,,,,,,,,,,,,,,,,,,,,5.21909189224,0.062000002712,1.49400007725,0,1,0,0,0,,,,,,,,,,,,,,,,,,,,,,,,,,,,,,,,,,,,,,,,,,,,,,,,,,,,,,,,,,,,,,,,,,,,,,,,,,,,,,,,,,,,,,,,,,,,,,,,,,,170624,0.0,168532,0.0,1500.0,1500.0,0.0,0.0,0.0,0.0,0.0,0.0,74048294,PX4FMU_V2,c17f0b6885b5678d25510dd57a90f80b05115e37,test,305419904.0
-0.0213915966451,-0.238284006715,-1.14969456196,-0.0619269758463,0.0223133526742,0.038878146559,-2.16078472137,0.155549839139,-9.63953018188,0.0,-0.0,0.0,0.0,-2.16078472137,0.155549839139,-9.63953018188,-0.0599219463766,0.0232272055,0.0334184654057,0.175081193447,0.153553009033,0.412157297134,-2.16078472137,0.155549839139,-9.63953018188,-0.0637337863445,0.0454476177692,0.0346450582147,0.0,0.0,0.0,,,,,,,,,,995.159973145,151.683853149,43.969997406,0.0,0.0,33.2965621948,0.0,-10.0,0.0,0.0,0.0,0.0,0.0,0.0,0.0,0.0,63,0,1,1.0,1.0,,,,,,,,,,,,,,,,,,,,,,,,0,2,0,0.467809200287,0,0,0.0,0.0,0.0,0.522346377373,-1.0,-0.800000011921,-1.0,0.0,7,0,0.0,0.0,0.0,0.0,0.0,0.0,0.0,0.0,,,,0.0,0.0,0.0,,,,,,,,0.0,0.0,0.0,0.0,0.0,0.0,1.0,1.0,0.0,,,,,,,,,,,,,,,,,,,,,,0.0,0.0,0.0,11.332400322,11.3227930069,0.0,3.83883833885,,,,147,150,33,34,0,0,100,73977422,,,,,,,,,,,,,,,,,,,,,,,,,,,,,,,,,,,,,,,,,,,,,,,,,,,,,,,,,5.21909189224,0.062000002712,1.49400007725,0,1,0,0,0,,,,,,,,,,,,,,,,,,,,,,,,,,,,,,,,,,,,,,,,,,,,,,,,,,,,,,,,,,,,,,,,,,,,,,,,,,,,,,,,,,,,,,,,,,,,,,,,,,,170624,0.0,168532,0.0,1500.0,1500.0,0.0,0.0,0.0,0.0,0.0,0.0,74053710,PX4FMU_V2,c17f0b6885b5678d25510dd57a90f80b05115e37,test,305419904.0
-0.0219068136066,-0.238057762384,-1.14937901497,-0.0618069544435,0.024389911443,0.0370365604758,-2.11896181107,0.128757834435,-9.61148262024,0.0,-0.0,0.0,0.0,-2.11896181107,0.128757834435,-9.61148262024,-0.0602999255061,0.0245534516871,0.0291045755148,0.174361184239,0.154353007674,0.412397295237,-2.11896181107,0.128757834435,-9.61148262024,-0.0659569054842,0.0507458224893,0.0288252197206,0.0,0.0,0.0,,,,,,,,,,995.159973145,151.683853149,43.969997406,0.0,0.0,33.2965621948,0.0,-10.0,0.0,0.0,0.0,0.0,0.0,0.0,0.0,0.0,63,0,1,1.0,1.0,,,,,,,,,,,,,,,,,,,,,,,,0,2,0,0.467809200287,0,0,0.0,0.0,0.0,0.374301671982,-1.0,-0.800000011921,-1.0,0.0,7,0,0.0,0.0,0.0,0.0,0.0,0.0,0.0,0.0,,,,0.0,0.0,0.0,,,,,,,,0.0,0.0,0.0,0.0,0.0,0.0,1.0,1.0,0.0,,,,,,,,,,,,,,,,,,,,,,0.0,0.0,0.0,11.332400322,11.3227930069,0.0,3.83883833885,,,,147,150,33,34,0,0,100,73977422,,,,,,,,,,,,,,,,,,,,,,,,,,,,,,,,,,,,,,,,,,,,,,,,,,,,,,,,,5.220703125,0.070000000298,1.50200009346,0,1,0,0,0,,,,,,,,,,,,,,,,,,,,,,,,,,,,,,,,,,,,,,,,,,,,,,,,,,,,,,,,,,,,,,,,,,,,,,,,,,,,,,,,,,,,,,,,,,,,,,,,,,,170624,0.0,168532,0.0,1500.0,1500.0,0.0,0.0,0.0,0.0,0.0,0.0,74060130,PX4FMU_V2,c17f0b6885b5678d25510dd57a90f80b05115e37,test,305419904.0
-0.0221625939012,-0.237940594554,-1.1492279768,-0.0617873258889,0.0251926798373,0.0349027179182,-2.12059402466,0.120516568422,-9.58213424683,0.0,-0.0,0.0,0.0,-2.12059402466,0.120516568422,-9.58213424683,-0.0604053102434,0.0250478833914,0.0262695048004,0.174361184239,0.154353007674,0.412397295237,-2.12059402466,0.120516568422,-9.58213424683,-0.0640802383423,0.0514133535326,0.0266997087747,0.0,0.0,0.0,,,,,,,,,,995.159973145,151.683853149,43.969997406,0.0,0.0,33.2965621948,0.0,-10.0,0.0,0.0,0.0,0.0,0.0,0.0,0.0,0.0,63,0,1,1.0,1.0,,,,,,,,,,,,,,,,,,,,,,,,0,2,0,0.467809200287,0,0,0.0,0.0,0.0,0.374301671982,-1.0,-0.800000011921,-1.0,0.0,7,0,0.0,0.0,0.0,0.0,0.0,0.0,0.0,0.0,,,,0.0,0.0,0.0,,,,,,,,0.0,0.0,0.0,0.0,0.0,0.0,1.0,1.0,0.0,,,,,,,,,,,,,,,,,,,,,,0.0,0.0,0.0,11.2913999557,11.3227615356,0.0,3.83883833885,,,,147,150,33,34,0,0,100,73977422,,,,,,,,,,,,,,,,,,,,,,,,,,,,,,,,,,,,,,,,,,,,,,,,,,,,,,,,,5.220703125,0.070000000298,1.50200009346,0,1,0,0,0,,,,,,,,,,,,,,,,,,,,,,,,,,,,,,,,,,,,,,,,,,,,,,,,,,,,,,,,,,,,,,,,,,,,,,,,,,,,,,,,,,,,,,,,,,,,,,,,,,,170624,0.0,168532,0.0,1500.0,1500.0,0.0,0.0,0.0,0.0,0.0,0.0,74065773,PX4FMU_V2,c17f0b6885b5678d25510dd57a90f80b05115e37,test,305419904.0
-0.0226633884013,-0.237703979015,-1.1489893198,-0.0616890713573,0.0265363380313,0.028188476339,-2.13722276688,0.10691870749,-9.53158569336,0.0,-0.0,0.0,0.0,-2.13722276688,0.10691870749,-9.53158569336,-0.0603982955217,0.0261666271836,0.018145468086,0.174841195345,0.155393019319,0.412397295237,-2.13722276688,0.10691870749,-9.53158569336,-0.0573892705142,0.0504224933684,0.0171517767012,0.0,0.0,0.0,,,,,,,,,,995.159973145,151.683853149,43.9599990845,0.0,0.0,33.2965621948,0.0,-10.0,0.0,0.0,0.0,0.0,0.0,0.0,0.0,0.0,63,0,1,1.0,1.0,,,,,,,,,,,,,,,,,,,,,,,,0,2,0,0.467809200287,0,0,0.0,0.0,0.0,0.374301671982,-1.0,-0.800000011921,-1.0,0.0,7,0,0.0,0.0,0.0,0.0,0.0,0.0,0.0,0.0,,,,0.0,0.0,0.0,,,,,,,,0.0,0.0,0.0,0.0,0.0,0.0,1.0,1.0,0.0,,,,,,,,,,,,,,,,,,,,,,0.0,0.0,0.0,11.2913999557,11.3227615356,0.0,3.83883833885,,,,147,150,33,34,0,0,100,73977422,,,,,,,,,,,,,,,,,,,,,,,,,,,,,,,,,,,,,,,,,,,,,,,,,,,,,,,,,5.220703125,0.070000000298,1.50200009346,0,1,0,0,0,,,,,,,,,,,,,,,,,,,,,,,,,,,,,,,,,,,,,,,,,,,,,,,,,,,,,,,,,,,,,,,,,,,,,,,,,,,,,,,,,,,,,,,,,,,,,,,,,,,170624,0.0,168532,0.0,1500.0,1500.0,0.0,0.0,0.0,0.0,0.0,0.0,74072764,PX4FMU_V2,c17f0b6885b5678d25510dd57a90f80b05115e37,test,305419904.0
-0.0229090750217,-0.237582415342,-1.1488878727,-0.0613975524902,0.0272912569344,0.0236062407494,-2.14434790611,0.110707595944,-9.51026821136,0.0,-0.0,0.0,0.0,-2.14434790611,0.110707595944,-9.51026821136,-0.0598619580269,0.0271186660975,0.0130344638601,0.175001189113,0.154433012009,0.413357287645,-2.14434790611,0.110707595944,-9.51026821136,-0.0533259250224,0.0519650094211,0.011019449681,0.0,0.0,0.0,,,,,,,,,,995.159973145,151.683853149,43.9599990845,0.0,0.0,33.2965621948,0.0,-10.0,0.0,0.0,0.0,0.0,0.0,0.0,0.0,0.0,63,0,1,1.0,1.0,,,,,,,,,,,,,,,,,,,,,,,,0,2,0,0.467809200287,0,0,0.0,0.0,0.0,0.374301671982,-1.0,-0.800000011921,-1.0,0.0,7,0,0.0,0.0,0.0,0.0,0.0,0.0,0.0,0.0,,,,0.0,0.0,0.0,,,,,,,,0.0,0.0,0.0,0.0,0.0,0.0,1.0,1.0,0.0,,,,,,,,,,,,,,,,,,,,,,0.0,0.0,0.0,11.258600235,11.3226976395,0.0,3.83883833885,,,,147,150,33,34,0,0,100,73977422,,,,,,,,,,,,,,,,,,,,,,,,,,,,,,,,,,,,,,,,,,,,,,,,,,,,,,,,,5.220703125,0.070000000298,1.50200009346,0,1,0,0,0,,,,,,,,,,,,,,,,,,,,,,,,,,,,,,,,,,,,,,,,,,,,,,,,,,,,,,,,,,,,,,,,,,,,,,,,,,,,,,,,,,,,,,,,,,,,,,,,,,,170624,0.0,168532,0.0,1500.0,1500.0,0.0,0.0,0.0,0.0,0.0,0.0,74078839,PX4FMU_V2,c17f0b6885b5678d25510dd57a90f80b05115e37,test,305419904.0
-0.0240165088326,-0.236915066838,-1.14886391163,-0.0600701980293,0.0333545729518,-0.00643038004637,-2.11809635162,0.0470759160817,-9.43884372711,0.0,-0.0,0.0,0.0,-2.12865447998,0.070971801877,-9.45422935486,-0.0593594275415,0.0327519252896,-0.00978695508093,0.173561185598,0.152993008494,0.412557303905,-2.12865447998,0.070971801877,-9.45422935486,-0.0688975602388,0.051939945668,-0.0104885678738,0.0,0.0,0.0,,,,,,,,,,995.159973145,151.683853149,43.9599990845,0.0,0.0,33.2965621948,0.0,-10.0,0.0,0.0,0.0,0.0,0.0,0.0,0.0,0.0,63,0,1,1.0,1.0,,,,,,,,,,,,,,,,,,,,,,,,0,2,0,0.467809200287,0,0,0.0,0.0,0.0,0.243016764522,-1.0,-0.800000011921,-1.0,0.0,7,0,0.0,0.0,0.0,0.0,0.0,0.0,0.0,0.0,,,,0.0,0.0,0.0,,,,,,,,0.0,0.0,0.0,0.0,0.0,0.0,1.0,1.0,0.0,,,,,,,,,,,,,,,,,,,,,,0.0,0.0,0.0,11.2749996185,11.3226499557,0.0124000003561,3.83887982368,,,,150,149,33,24,0,0,96,73977422,,,,,,,,,,,,,,,,,,,,,,,,,,,,,,,,,,,,,,,,,,,,,,,,,,,,,,,,,5.20620107651,0.070000000298,1.50400006771,0,1,0,0,0,,,,,,,,,,,,,,,,,,,,,,,,,,,,,,,,,,,,,,,,,,,,,,,,,,,,,,,,,,,,,,,,,,,,,,,,,,,,,,,,,,,,,,,,,,,,,,,,,,,170624,0.0,168532,0.0,1500.0,1500.0,0.0,0.0,0.0,0.0,0.0,0.0,74092590,PX4FMU_V2,c17f0b6885b5678d25510dd57a90f80b05115e37,test,305419904.0
-0.024217247963,-0.236765578389,-1.14889550209,-0.0603335313499,0.0347475968301,-0.0133943045512,-2.09870147705,0.0217707566917,-9.4324464798,0.0,-0.0,0.0,0.0,-2.09870147705,0.0217707566917,-9.4324464798,-0.060387738049,0.0354761406779,-0.0227768458426,0.172761186957,0.154433012009,0.41303730011,-2.09870147705,0.0217707566917,-9.4324464798,-0.0706212893128,0.0512280873954,-0.0270955823362,0.0,0.0,0.0,,,,,,,,,,995.119995117,152.021728516,43.9599990845,0.0,0.0,33.2965621948,0.0,-10.0,0.0,0.0,0.0,0.0,0.0,0.0,0.0,0.0,63,0,1,1.0,1.0,,,,,,,,,,,,,,,,,,,,,,,,0,2,0,0.467809200287,0,0,0.0,0.0,0.0,0.243016764522,-1.0,-0.800000011921,-1.0,0.0,7,0,0.0,0.0,0.0,0.0,0.0,0.0,0.0,0.0,,,,0.0,0.0,0.0,,,,,,,,0.0,0.0,0.0,0.0,0.0,0.0,1.0,1.0,0.0,,,,,,,,,,,,,,,,,,,,,,0.0,0.0,0.0,11.2913999557,11.3226184845,0.0496000014246,3.83904647827,,,,150,149,33,24,0,0,96,73977422,,,,,,,,,,,,,,,,,,,,,,,,,,,,,,,,,,,,,,,,,,,,,,,,,,,,,,,,,5.19492197037,0.0670000016689,1.50900006294,0,1,0,0,0,,,,,,,,,,,,,,,,,,,,,,,,,,,,,,,,,,,,,,,,,,,,,,,,,,,,,,,,,,,,,,,,,,,,,,,,,,,,,,,,,,,,,,,,,,,,,,,,,,,170624,0.0,168532,0.0,1500.0,1500.0,0.0,0.0,0.0,0.0,0.0,0.0,74103118,PX4FMU_V2,c17f0b6885b5678d25510dd57a90f80b05115e37,test,305419904.0
-0.0248626228422,-0.236248850822,-1.1492651701,-0.0623215772212,0.0381735414267,-0.0417966991663,-2.0898001194,0.0444205366075,-9.4610118866,0.0,-0.0,0.0,0.0,-2.08983182907,0.0343572385609,-9.44513034821,-0.062152415514,0.0373287647963,-0.0428826883435,0.172841191292,0.150993019342,0.413197308779,-2.08983182907,0.0343572385609,-9.44513034821,-0.0723695158958,0.0528468079865,-0.0473027937114,0.0,0.0,0.0,,,,,,,,,,995.119995117,152.021728516,43.9599990845,0.0,0.0,33.2965621948,0.0,-10.0,0.0,0.0,0.0,0.0,0.0,0.0,0.0,0.0,63,0,1,1.0,1.0,,,,,,,,,,,,,,,,,,,,,,,,0,2,0,0.467809200287,0,0,0.0,0.0,0.0,0.120111733675,-1.0,-0.800000011921,-1.0,0.0,7,0,0.0,0.0,0.0,0.0,0.0,0.0,0.0,0.0,,,,0.0,0.0,0.0,,,,,,,,0.0,0.0,0.0,0.0,0.0,0.0,1.0,1.0,0.0,,,,,,,,,,,,,,,,,,,,,,0.0,0.0,0.0,11.307800293,11.3226032257,0.111600004137,3.83942008018,,,,150,149,33,24,0,0,96,73977422,,,,,,,,,,,,,,,,,,,,,,,,,,,,,,,,,,,,,,,,,,,,,,,,,,,,,,,,,5.19492197037,0.0670000016689,1.50900006294,0,1,0,0,0,,,,,,,,,,,,,,,,,,,,,,,,,,,,,,,,,,,,,,,,,,,,,,,,,,,,,,,,,,,,,,,,,,,,,,,,,,,,,,,,,,,,,,,,,,,,,,,,,,,170624,0.0,168532,0.0,1500.0,1500.0,0.0,0.0,0.0,0.0,0.0,0.0,74111090,PX4FMU_V2,c17f0b6885b5678d25510dd57a90f80b05115e37,test,305419904.0
-0.0250396169722,-0.236088991165,-1.14950251579,-0.0631959438324,0.038821067661,-0.0522593557835,-2.07946825027,0.0538173057139,-9.48154640198,0.0,-0.0,0.0,0.0,-2.07946825027,0.0538173057139,-9.48154640198,-0.0641475841403,0.0381973721087,-0.0639222934842,0.172281190753,0.151873007417,0.41303730011,-2.07946825027,0.0538173057139,-9.48154640198,-0.0685214102268,0.0624046325684,-0.0717905163765,0.0,0.0,0.0,,,,,,,,,,995.119995117,152.021728516,43.9599990845,0.0,0.0,33.2965621948,0.0,-10.0,0.0,0.0,0.0,0.0,0.0,0.0,0.0,0.0,63,0,1,1.0,1.0,,,,,,,,,,,,,,,,,,,,,,,,0,2,0,0.467809200287,0,0,0.0,0.0,0.0,0.120111733675,-1.0,-0.800000011921,-1.0,0.0,7,0,0.0,0.0,0.0,0.0,0.0,0.0,0.0,0.0,,,,0.0,0.0,0.0,,,,,,,,0.0,0.0,0.0,0.0,0.0,0.0,1.0,1.0,0.0,,,,,,,,,,,,,,,,,,,,,,0.0,0.0,0.0,11.307800293,11.3226032257,0.111600004137,3.83942008018,,,,150,149,33,24,0,0,96,73977422,,,,,,,,,,,,,,,,,,,,,,,,,,,,,,,,,,,,,,,,,,,,,,,,,,,,,,,,,5.21748018265,0.0670000016689,1.50900006294,0,1,0,0,0,,,,,,,,,,,,,,,,,,,,,,,,,,,,,,,,,,,,,,,,,,,,,,,,,,,,,,,,,,,,,,,,,,,,,,,,,,,,,,,,,,,,,,,,,,,,,,,,,,,170624,0.0,168532,0.0,1500.0,1500.0,0.0,0.0,0.0,0.0,0.0,0.0,74118481,PX4FMU_V2,c17f0b6885b5678d25510dd57a90f80b05115e37,test,305419904.0
-0.0253810994327,-0.235755652189,-1.14998912811,-0.0646740868688,0.0398306436837,-0.0742147415876,-2.03752326965,0.0884722843766,-9.53458595276,0.0,-0.0,0.0,0.0,-2.03752326965,0.0884722843766,-9.53458595276,-0.0650815144181,0.0390093326569,-0.0849647372961,0.172281190753,0.151873007417,0.41303730011,-2.03752326965,0.0884722843766,-9.53458595276,-0.0659146681428,0.0634157955647,-0.0953604206443,0.0,0.0,0.0,,,,,,,,,,995.16998291,151.599395752,43.9599990845,0.0,0.0,33.2965621948,0.0,-10.0,0.0,0.0,0.0,0.0,0.0,0.0,0.0,0.0,63,0,1,1.0,1.0,,,,,,,,,,,,,,,,,,,,,,,,0,2,0,0.467809200287,0,0,0.0,0.0,0.0,0.120111733675,-1.0,-0.800000011921,-1.0,0.0,7,0,0.0,0.0,0.0,0.0,0.0,0.0,0.0,0.0,,,,0.0,0.0,0.0,,,,,,,,0.0,0.0,0.0,0.0,0.0,0.0,1.0,1.0,0.0,,,,,,,,,,,,,,,,,,,,,,0.0,0.0,0.0,11.283200264,11.3225641251,0.0372000001371,3.83954453468,,,,150,149,33,24,0,0,96,73977422,,,,,,,,,,,,,,,,,,,,,,,,,,,,,,,,,,,,,,,,,,,,,,,,,,,,,,,,,5.22392559052,0.0670000016689,1.50900006294,0,1,0,0,0,,,,,,,,,,,,,,,,,,,,,,,,,,,,,,,,,,,,,,,,,,,,,,,,,,,,,,,,,,,,,,,,,,,,,,,,,,,,,,,,,,,,,,,,,,,,,,,,,,,170624,0.0,168532,0.0,1500.0,1500.0,0.0,0.0,0.0,0.0,0.0,0.0,74124971,PX4FMU_V2,c17f0b6885b5678d25510dd57a90f80b05115e37,test,305419904.0
-0.0257025342435,-0.235415846109,-1.15072703362,-0.0654502213001,0.040548466146,-0.0955493077636,-2.05449199677,0.147072166204,-9.59685611725,0.0,-0.0,0.0,0.0,-2.03761601448,0.115287542343,-9.56212329865,-0.0651847049594,0.0393199436367,-0.0947123989463,0.170921191573,0.151233017445,0.413357287645,-2.03761601448,0.115287542343,-9.56212329865,-0.0646069869399,0.0659181326628,-0.105326734483,0.0,0.0,0.0,,,,,,,,,,995.16998291,151.599395752,43.9599990845,0.0,0.0,33.2965621948,0.0,-10.0,0.0,0.0,0.0,0.0,0.0,0.0,0.0,0.0,63,0,1,1.0,1.0,,,,,,,,,,,,,,,,,,,,,,,,0,2,0,0.467809200287,0,0,0.0,0.0,0.0,0.0279329605401,-1.0,-0.800000011921,-1.0,0.0,7,0,0.0,0.0,0.0,0.0,0.0,0.0,0.0,0.0,,,,0.0,0.0,0.0,,,,,,,,0.0,0.0,0.0,0.0,0.0,0.0,1.0,1.0,0.0,,,,,,,,,,,,,,,,,,,,,,0.0,0.0,0.0,11.283200264,11.3225641251,0.0372000001371,3.83954453468,,,,150,149,33,24,0,0,96,73977422,,,,,,,,,,,,,,,,,,,,,,,,,,,,,,,,,,,,,,,,,,,,,,,,,,,,,,,,,5.22392559052,0.0670000016689,1.50900006294,0,1,0,0,0,,,,,,,,,,,,,,,,,,,,,,,,,,,,,,,,,,,,,,,,,,,,,,,,,,,,,,,,,,,,,,,,,,,,,,,,,,,,,,,,,,,,,,,,,,,,,,,,,,,170624,0.0,168532,0.0,1500.0,1500.0,0.0,0.0,0.0,0.0,0.0,0.0,74131187,PX4FMU_V2,c17f0b6885b5678d25510dd57a90f80b05115e37,test,305419904.0
-0.0258543696254,-0.235247269273,-1.1512169838,-0.0655991062522,0.0410058610141,-0.105068981647,-2.07333278656,0.180080279708,-9.63011074066,0.0,-0.0,0.0,0.0,-2.07333278656,0.180080279708,-9.63011074066,-0.0651066303253,0.0403795614839,-0.110760442913,0.1702811867,0.151632994413,0.412877291441,-2.07333278656,0.180080279708,-9.63011074066,-0.0687300860882,0.0667430311441,-0.120248943567,0.0,0.0,0.0,,,,,,,,,,995.16998291,151.599395752,43.9599990845,0.0,0.0,33.2965621948,0.0,-10.0,0.0,0.0,0.0,0.0,0.0,0.0,0.0,0.0,63,0,1,1.0,1.0,,,,,,,,,,,,,,,,,,,,,,,,0,2,0,0.467809200287,0,0,0.0,0.0,0.0,0.0279329605401,-1.0,-0.800000011921,-1.0,0.0,7,0,0.0,0.0,0.0,0.0,0.0,0.0,0.0,0.0,,,,0.0,0.0,0.0,,,,,,,,0.0,0.0,0.0,0.0,0.0,0.0,1.0,1.0,0.0,,,,,,,,,,,,,,,,,,,,,,0.0,0.0,0.0,11.2749996185,11.3225164413,0.124000005424,3.83995890617,,,,150,149,33,24,0,0,96,73977422,,,,,,,,,,,,,,,,,,,,,,,,,,,,,,,,,,,,,,,,,,,,,,,,,,,,,,,,,5.21586894989,0.070000000298,1.22200000286,0,1,0,0,0,,,,,,,,,,,,,,,,,,,,,,,,,,,,,,,,,,,,,,,,,,,,,,,,,,,,,,,,,,,,,,,,,,,,,,,,,,,,,,,,,,,,,,,,,,,,,,,,,,,170624,0.0,168532,0.0,1500.0,1500.0,0.0,0.0,0.0,0.0,0.0,0.0,74138183,PX4FMU_V2,c17f0b6885b5678d25510dd57a90f80b05115e37,test,305419904.0
-0.0261358451098,-0.234907999635,-1.15205979347,-0.0651382058859,0.0421914421022,-0.122758470476,-2.10509729385,0.204003453255,-9.66572761536,0.0,-0.0,0.0,0.0,-2.10509729385,0.204003453255,-9.66572761536,-0.0638364702463,0.0419003590941,-0.126137942076,0.1702811867,0.151632994413,0.412877291441,-2.10509729385,0.204003453255,-9.66572761536,-0.0698403641582,0.065955542028,-0.132719561458,0.0,0.0,0.0,,,,,,,,,,995.130004883,151.937255859,43.9599990845,0.0,0.0,33.2965621948,0.0,-10.0,0.0,0.0,0.0,0.0,0.0,0.0,0.0,0.0,63,0,1,1.0,1.0,,,,,,,,,,,,,,,,,,,,,,,,0,2,0,0.467809200287,0,0,0.0,0.0,0.0,0.0279329605401,-1.0,-0.800000011921,-1.0,0.0,7,0,0.0,0.0,0.0,0.0,0.0,0.0,0.0,0.0,,,,0.0,0.0,0.0,,,,,,,,0.0,0.0,0.0,0.0,0.0,0.0,1.0,1.0,0.0,,,,,,,,,,,,,,,,,,,,,,0.0,0.0,0.0,11.2749996185,11.3225164413,0.124000005424,3.83995890617,,,,150,149,33,24,0,0,96,73977422,,,,,,,,,,,,,,,,,,,,,,,,,,,,,,,,,,,,,,,,,,,,,,,,,,,,,,,,,5.220703125,0.070000000298,1.22200000286,0,1,0,0,0,,,,,,,,,,,,,,,,,,,,,,,,,,,,,,,,,,,,,,,,,,,,,,,,,,,,,,,,,,,,,,,,,,,,,,,,,,,,,,,,,,,,,,,,,,,,,,,,,,,170624,0.0,168532,0.0,1500.0,1500.0,0.0,0.0,0.0,0.0,0.0,0.0,74144864,PX4FMU_V2,c17f0b6885b5678d25510dd57a90f80b05115e37,test,305419904.0
-0.0262614153326,-0.234736591578,-1.15279960632,-0.0644972249866,0.0427042283118,-0.131304293871,-2.11015033722,0.197593301535,-9.68204021454,0.0,-0.0,0.0,0.0,-2.11015033722,0.197593301535,-9.68204021454,-0.0628344491124,0.0422752387822,-0.134049504995,0.16756118834,0.152113005519,0.413517296314,-2.11015033722,0.197593301535,-9.68204021454,-0.0671376809478,0.0674430802464,-0.136955469847,0.0,0.0,0.0,,,,,,,,,,995.130004883,151.937255859,43.9599990845,0.0,0.0,33.2965621948,0.0,-10.0,0.0,0.0,0.0,0.0,0.0,0.0,0.0,0.0,63,0,1,1.0,1.0,,,,,,,,,,,,,,,,,,,,,,,,0,2,0,0.467809200287,0,0,0.0,0.0,0.0,0.0279329605401,-1.0,-0.800000011921,-1.0,0.0,7,0,0.0,0.0,0.0,0.0,0.0,0.0,0.0,0.0,,,,0.0,0.0,0.0,,,,,,,,0.0,0.0,0.0,0.0,0.0,0.0,1.0,1.0,0.0,,,,,,,,,,,,,,,,,,,,,,0.0,0.0,0.0,11.3652000427,11.3225593567,0.062000002712,3.84016656876,,,,150,149,33,24,0,0,96,73977422,,,,,,,,,,,,,,,,,,,,,,,,,,,,,,,,,,,,,,,,,,,,,,,,,,,,,,,,,5.220703125,0.070000000298,1.22200000286,0,1,0,0,0,,,,,,,,,,,,,,,,,,,,,,,,,,,,,,,,,,,,,,,,,,,,,,,,,,,,,,,,,,,,,,,,,,,,,,,,,,,,,,,,,,,,,,,,,,,,,,,,,,,170624,0.0,168532,0.0,1500.0,1500.0,0.0,0.0,0.0,0.0,0.0,0.0,74150340,PX4FMU_V2,c17f0b6885b5678d25510dd57a90f80b05115e37,test,305419904.0
-0.0264826472849,-0.234393164515,-1.1539529562,-0.0629374161363,0.0433581545949,-0.147316411138,-2.11388134956,0.196348235011,-9.67443466187,0.0,-0.0,0.0,0.0,-2.11388134956,0.196348235011,-9.67443466187,-0.061293900013,0.0426147207618,-0.148114144802,0.170361191034,0.152512997389,0.414717286825,-2.11388134956,0.196348235011,-9.67443466187,-0.0674780830741,0.0650767832994,-0.151316672564,0.0,0.0,0.0,,,,,,,,,,995.130004883,151.937255859,43.9599990845,0.0,0.0,33.2965621948,0.0,-10.0,0.0,0.0,0.0,0.0,0.0,0.0,0.0,0.0,63,0,1,1.0,1.0,,,,,,,,,,,,,,,,,,,,,,,,0,2,0,0.467809200287,0,0,0.0,0.0,0.0,-0.0,-1.0,-0.800000011921,-1.0,0.0,7,0,0.0,0.0,0.0,0.0,0.0,0.0,0.0,0.0,,,,0.0,0.0,0.0,,,,,,,,0.0,0.0,0.0,0.0,0.0,0.0,1.0,1.0,0.0,,,,,,,,,,,,,,,,,,,,,,0.0,0.0,0.0,11.3652000427,11.3225593567,0.062000002712,3.84016656876,,,,150,149,33,24,0,0,96,73977422,,,,,,,,,,,,,,,,,,,,,,,,,,,,,,,,,,,,,,,,,,,,,,,,,,,,,,,,,5.22875976562,0.0670000016689,1.22000002861,0,1,0,0,0,,,,,,,,,,,,,,,,,,,,,,,,,,,,,,,,,,,,,,,,,,,,,,,,,,,,,,,,,,,,,,,,,,,,,,,,,,,,,,,,,,,,,,,,,,,,,,,,,,,170624,0.0,168532,0.0,1500.0,1500.0,0.0,0.0,0.0,0.0,0.0,0.0,74156848,PX4FMU_V2,c17f0b6885b5678d25510dd57a90f80b05115e37,test,305419904.0
-0.026665719226,-0.234049901366,-1.15508079529,-0.0608818680048,0.0443025678396,-0.16078928113,-2.11788749695,0.2120295614,-9.66166400909,0.0,-0.0,0.0,0.0,-2.11788749695,0.2120295614,-9.66166400909,-0.0589529760182,0.0442151241004,-0.159649401903,0.170361191034,0.152512997389,0.414717286825,-2.11788749695,0.2120295614,-9.66166400909,-0.0621350370347,0.0704632848501,-0.164763614535,0.0,0.0,0.0,,,,,,,,,,995.130004883,151.937255859,43.9599990845,0.0,0.0,33.2965621948,0.0,-10.0,0.0,0.0,0.0,0.0,0.0,0.0,0.0,0.0,63,0,1,1.0,1.0,,,,,,,,,,,,,,,,,,,,,,,,0,2,0,0.467809200287,0,0,0.0,0.0,0.0,-0.0,-1.0,-0.800000011921,-1.0,0.0,7,0,0.0,0.0,0.0,0.0,0.0,0.0,0.0,0.0,,,,0.0,0.0,0.0,,,,,,,,0.0,0.0,0.0,0.0,0.0,0.0,1.0,1.0,0.0,,,,,,,,,,,,,,,,,,,,,,0.0,0.0,0.0,11.3241996765,11.322561264,0.0248000007123,3.8402493,,,,150,149,33,24,0,0,96,73977422,,,,,,,,,,,,,,,,,,,,,,,,,,,,,,,,,,,,,,,,,,,,,,,,,,,,,,,,,5.24487304688,0.0670000016689,1.22000002861,0,1,0,0,0,,,,,,,,,,,,,,,,,,,,,,,,,,,,,,,,,,,,,,,,,,,,,,,,,,,,,,,,,,,,,,,,,,,,,,,,,,,,,,,,,,,,,,,,,,,,,,,,,,,170624,0.0,168532,0.0,1500.0,1500.0,0.0,0.0,0.0,0.0,0.0,0.0,74165275,PX4FMU_V2,c17f0b6885b5678d25510dd57a90f80b05115e37,test,305419904.0
-0.0268097575754,-0.233696728945,-1.15652000904,-0.0582228973508,0.0459047853947,-0.171689704061,-2.13002610207,0.200917541981,-9.65990447998,0.0,-0.0,0.0,0.0,-2.13002610207,0.200917541981,-9.65990447998,-0.0562352277339,0.0462068095803,-0.167922064662,0.168041184545,0.153232991695,0.41383728385,-2.13002610207,0.200917541981,-9.65990447998,-0.0653604790568,0.0676937550306,-0.167949616909,0.0,0.0,0.0,,,,,,,,,,995.179992676,151.514938354,43.9599990845,0.0,0.0,33.2965621948,0.0,-10.0,0.0,0.0,0.0,0.0,0.0,0.0,0.0,0.0,63,0,1,1.0,1.0,,,,,,,,,,,,,,,,,,,,,,,,0,2,0,0.467809200287,0,0,0.0,0.0,0.0,-0.0,-1.0,-0.800000011921,-1.0,0.0,7,0,0.0,0.0,0.0,0.0,0.0,0.0,0.0,0.0,,,,0.0,0.0,0.0,,,,,,,,0.0,0.0,0.0,0.0,0.0,0.0,1.0,1.0,0.0,,,,,,,,,,,,,,,,,,,,,,0.0,0.0,0.0,11.3652000427,11.3226041794,0.0496000014246,3.84041619301,,,,150,149,33,24,0,0,96,73977422,,,,,,,,,,,,,,,,,,,,,,,,,,,,,,,,,,,,,,,,,,,,,,,,,,,,,,,,,5.24487304688,0.0670000016689,1.22000002861,0,1,0,0,0,,,,,,,,,,,,,,,,,,,,,,,,,,,,,,,,,,,,,,,,,,,,,,,,,,,,,,,,,,,,,,,,,,,,,,,,,,,,,,,,,,,,,,,,,,,,,,,,,,,170624,0.0,168532,0.0,1500.0,1500.0,0.0,0.0,0.0,0.0,0.0,0.0,74172827,PX4FMU_V2,c17f0b6885b5678d25510dd57a90f80b05115e37,test,305419904.0
-0.0268683247268,-0.233514845371,-1.15729415417,-0.0570442266762,0.0465925335884,-0.175517842174,-2.10289335251,0.179057359695,-9.64779853821,0.0,-0.0,0.0,0.0,-2.10289335251,0.179057359695,-9.64779853821,-0.0555427446961,0.0466361790895,-0.170125454664,0.169321194291,0.154192999005,0.414237290621,-2.10289335251,0.179057359695,-9.64779853821,-0.0635944679379,0.0676153451204,-0.169141724706,0.0,0.0,0.0,,,,,,,,,,995.179992676,151.514938354,43.9599990845,0.0,0.0,33.2965621948,0.0,-10.0,0.0,0.0,0.0,0.0,0.0,0.0,0.0,0.0,63,0,1,1.0,1.0,,,,,,,,,,,,,,,,,,,,,,,,0,2,0,0.467809200287,0,0,0.0,0.0,0.0,-0.0,-1.0,-0.800000011921,-1.0,0.0,7,0,0.0,0.0,0.0,0.0,0.0,0.0,0.0,0.0,,,,0.0,0.0,0.0,,,,,,,,0.0,0.0,0.0,0.0,0.0,0.0,1.0,1.0,0.0,,,,,,,,,,,,,,,,,,,,,,0.0,0.0,0.0,11.3652000427,11.3226041794,0.0496000014246,3.84041619301,,,,150,149,33,24,0,0,96,73977422,,,,,,,,,,,,,,,,,,,,,,,,,,,,,,,,,,,,,,,,,,,,,,,,,,,,,,,,,5.22714853287,0.070000000298,1.21400010586,0,1,0,0,0,,,,,,,,,,,,,,,,,,,,,,,,,,,,,,,,,,,,,,,,,,,,,,,,,,,,,,,,,,,,,,,,,,,,,,,,,,,,,,,,,,,,,,,,,,,,,,,,,,,170624,0.0,168532,0.0,1500.0,1500.0,0.0,0.0,0.0,0.0,0.0,0.0,74178618,PX4FMU_V2,c17f0b6885b5678d25510dd57a90f80b05115e37,test,305419904.0
-0.0269929822534,-0.233094409108,-1.15878939629,-0.0553955733776,0.0472780689597,-0.181482389569,-2.1046257019,0.172642424703,-9.62580680847,0.0,-0.0,0.0,0.0,-2.1046257019,0.172642424703,-9.62580680847,-0.0550274886191,0.0464843101799,-0.173664718866,0.169321194291,0.154192999005,0.414237290621,-2.1046257019,0.172642424703,-9.62580680847,-0.0540433302522,0.0608083866537,-0.169452786446,0.0,0.0,0.0,,,,,,,,,,995.149963379,151.768325806,43.9599990845,0.0,0.0,33.2965621948,0.0,-10.0,0.0,0.0,0.0,0.0,0.0,0.0,0.0,0.0,63,0,1,1.0,1.0,,,,,,,,,,,,,,,,,,,,,,,,0,2,0,0.467751592398,0,0,0.0,0.0,0.0,-0.0,-1.0,-0.800000011921,-1.0,0.0,7,0,0.0,0.0,0.0,0.0,0.0,0.0,0.0,0.0,,,,0.0,0.0,0.0,,,,,,,,0.0,0.0,0.0,0.0,0.0,0.0,1.0,1.0,0.0,,,,,,,,,,,,,,,,,,,,,,0.0,0.0,0.0,11.307800293,11.3225889206,0.0496000014246,3.84058213234,,,,150,149,33,24,0,0,96,73977422,,,,,,,,,,,,,,,,,,,,,,,,,,,,,,,,,,,,,,,,,,,,,,,,,,,,,,,,,5.23842763901,0.070000000298,1.21400010586,0,1,0,0,0,,,,,,,,,,,,,,,,,,,,,,,,,,,,,,,,,,,,,,,,,,,,,,,,,,,,,,,,,,,,,,,,,,,,,,,,,,,,,,,,,,,,,,,,,,,,,,,,,,,170624,0.0,168532,0.0,1500.0,1500.0,0.0,0.0,0.0,0.0,0.0,0.0,74185738,PX4FMU_V2,c17f0b6885b5678d25510dd57a90f80b05115e37,test,305419904.0
-0.0270909257233,-0.232736319304,-1.16020691395,-0.0550416968763,0.0478037856519,-0.182323396206,-2.15948057175,0.181566387415,-9.65092563629,0.0,-0.0,0.0,0.0,-2.15948057175,0.181566387415,-9.65092563629,-0.0557708255947,0.0474189408123,-0.172626942396,0.169561192393,0.154352992773,0.41575729847,-2.15948057175,0.181566387415,-9.65092563629,-0.0538718886673,0.068127810955,-0.164898276329,0.0,0.0,0.0,,,,,,,,,,995.119995117,152.021728516,43.9599990845,0.0,0.0,33.2965621948,0.0,-10.0,0.0,0.0,0.0,0.0,0.0,0.0,0.0,0.0,63,0,1,1.0,1.0,,,,,,,,,,,,,,,,,,,,,,,,0,2,0,0.467751592398,0,0,0.0,0.0,0.0,-0.0,-1.0,-0.800000011921,-1.0,0.0,7,0,0.0,0.0,0.0,0.0,0.0,0.0,0.0,0.0,,,,0.0,0.0,0.0,,,,,,,,0.0,0.0,0.0,0.0,0.0,0.0,1.0,1.0,0.0,,,,,,,,,,,,,,,,,,,,,,0.0,0.0,0.0,11.307800293,11.3225889206,0.0496000014246,3.84058213234,,,,150,149,33,24,0,0,96,73977422,,,,,,,,,,,,,,,,,,,,,,,,,,,,,,,,,,,,,,,,,,,,,,,,,,,,,,,,,5.23842763901,0.070000000298,1.21400010586,0,1,0,0,0,,,,,,,,,,,,,,,,,,,,,,,,,,,,,,,,,,,,,,,,,,,,,,,,,,,,,,,,,,,,,,,,,,,,,,,,,,,,,,,,,,,,,,,,,,,,,,,,,,,170624,0.0,168532,0.0,1500.0,1500.0,0.0,0.0,0.0,0.0,0.0,0.0,74193146,PX4FMU_V2,c17f0b6885b5678d25510dd57a90f80b05115e37,test,305419904.0
-0.0271438099444,-0.232556149364,-1.16088247299,-0.0552098490298,0.0482156835496,-0.180691584945,-2.16096258163,0.191092222929,-9.68316173553,0.0,-0.0,0.0,0.0,-2.16096258163,0.191092222929,-9.68316173553,-0.056224886328,0.048007722944,-0.169281110168,0.16892118752,0.15195299685,0.413517296314,-2.16096258163,0.191092222929,-9.68316173553,-0.0574534498155,0.0723196864128,-0.162929937243,0.0,0.0,0.0,,,,,,,,,,995.119995117,152.021728516,43.9599990845,0.0,0.0,33.2965621948,0.0,-10.0,0.0,0.0,0.0,0.0,0.0,0.0,0.0,0.0,63,0,1,1.0,1.0,,,,,,,,,,,,,,,,,,,,,,,,0,2,0,0.467751592398,0,0,0.0,0.0,0.0,-0.0,-1.0,-0.800000011921,-1.0,0.0,7,0,0.0,0.0,0.0,0.0,0.0,0.0,0.0,0.0,,,,0.0,0.0,0.0,,,,,,,,0.0,0.0,0.0,0.0,0.0,0.0,1.0,1.0,0.0,,,,,,,,,,,,,,,,,,,,,,0.0,0.0,0.0,11.332400322,11.3225984573,0.0,3.84058213234,,,,150,149,33,24,0,0,96,73977422,,,,,,,,,,,,,,,,,,,,,,,,,,,,,,,,,,,,,,,,,,,,,,,,,,,,,,,,,5.20458984375,0.0670000016689,1.23000001907,0,1,0,0,0,,,,,,,,,,,,,,,,,,,,,,,,,,,,,,,,,,,,,,,,,,,,,,,,,,,,,,,,,,,,,,,,,,,,,,,,,,,,,,,,,,,,,,,,,,,,,,,,,,,170624,0.0,168532,0.0,1500.0,1500.0,0.0,0.0,0.0,0.0,0.0,0.0,74198622,PX4FMU_V2,c17f0b6885b5678d25510dd57a90f80b05115e37,test,305419904.0
-0.0272649638355,-0.232184424996,-1.16210722923,-0.0556806474924,0.0487630479038,-0.174175322056,-2.14248919487,0.215486824512,-9.71206569672,0.0,-0.0,0.0,0.0,-2.14248919487,0.215486824512,-9.71206569672,-0.0566277615726,0.0482820793986,-0.161025851965,0.16892118752,0.15195299685,0.413517296314,-2.14248919487,0.215486824512,-9.71206569672,-0.0633681714535,0.0726701244712,-0.152334421873,0.0,0.0,0.0,,,,,,,,,,995.119995117,152.021728516,43.9599990845,0.0,0.0,33.2965621948,0.0,-10.0,0.0,0.0,0.0,0.0,0.0,0.0,0.0,0.0,63,0,1,1.0,1.0,,,,,,,,,,,,,,,,,,,,,,,,0,2,0,0.467751592398,0,0,0.0,0.0,0.0,-0.00775193795562,-1.0,-0.800000011921,-1.0,0.0,7,0,0.0,0.0,0.0,0.0,0.0,0.0,0.0,0.0,,,,0.0,0.0,0.0,,,,,,,,0.0,0.0,0.0,0.0,0.0,0.0,1.0,1.0,0.0,,,,,,,,,,,,,,,,,,,,,,0.0,0.0,0.0,11.332400322,11.3225984573,0.0,3.84058213234,,,,150,149,33,24,0,0,96,73977422,,,,,,,,,,,,,,,,,,,,,,,,,,,,,,,,,,,,,,,,,,,,,,,,,,,,,,,,,5.22392559052,0.0670000016689,1.23000001907,0,1,0,0,0,,,,,,,,,,,,,,,,,,,,,,,,,,,,,,,,,,,,,,,,,,,,,,,,,,,,,,,,,,,,,,,,,,,,,,,,,,,,,,,,,,,,,,,,,,,,,,,,,,,170624,0.0,168532,0.0,1500.0,1500.0,0.0,0.0,0.0,0.0,0.0,0.0,74205089,PX4FMU_V2,c17f0b6885b5678d25510dd57a90f80b05115e37,test,305419904.0
