ATT_Roll,ATT_Pitch,ATT_Yaw,ATT_RollRate,ATT_PitchRate,ATT_YawRate,ATT_GX,ATT_GY,ATT_GZ,ATSP_RollSP,ATSP_PitchSP,ATSP_YawSP,ATSP_ThrustSP,IMU_AccX,IMU_AccY,IMU_AccZ,IMU_GyroX,IMU_GyroY,IMU_GyroZ,IMU_MagX,IMU_MagY,IMU_MagZ,IMU1_AccX,IMU1_AccY,IMU1_AccZ,IMU1_GyroX,IMU1_GyroY,IMU1_GyroZ,IMU1_MagX,IMU1_MagY,IMU1_MagZ,IMU2_AccX,IMU2_AccY,IMU2_AccZ,IMU2_GyroX,IMU2_GyroY,IMU2_GyroZ,IMU2_MagX,IMU2_MagY,IMU2_MagZ,SENS_BaroPres,SENS_BaroAlt,SENS_BaroTemp,SENS_DiffPres,SENS_DiffPresFilt,LPOS_X,LPOS_Y,LPOS_Z,LPOS_Dist,LPOS_DistR,LPOS_VX,LPOS_VY,LPOS_VZ,LPOS_RLat,LPOS_RLon,LPOS_RAlt,LPOS_PFlg,LPOS_LFlg,LPOS_GFlg,LPOS_EPH,LPOS_EPV,LPSP_X,LPSP_Y,LPSP_Z,LPSP_Yaw,GPS_GPSTime,GPS_Fix,GPS_EPH,GPS_EPV,GPS_Lat,GPS_Lon,GPS_Alt,GPS_VelN,GPS_VelE,GPS_VelD,GPS_Cog,GPS_nSat,GPS_SNR,GPS_N,GPS_J,ATTC_Roll,ATTC_Pitch,ATTC_Yaw,ATTC_Thrust,STAT_MainState,STAT_ArmState,STAT_FailsafeState,STAT_BatRem,STAT_BatWarn,STAT_Landed,RC_Ch0,RC_Ch1,RC_Ch2,RC_Ch3,RC_Ch4,RC_Ch5,RC_Ch6,RC_Ch7,RC_Count,RC_SignalLost,OUT0_Out0,OUT0_Out1,OUT0_Out2,OUT0_Out3,OUT0_Out4,OUT0_Out5,OUT0_Out6,OUT0_Out7,AIRS_IndSpeed,AIRS_TrueSpeed,AIRS_AirTemp,ARSP_RollRateSP,ARSP_PitchRateSP,ARSP_YawRateSP,FLOW_RawX,FLOW_RawY,FLOW_CompX,FLOW_CompY,FLOW_Dist,FLOW_Q,FLOW_SensID,GPOS_Lat,GPOS_Lon,GPOS_Alt,GPOS_VelN,GPOS_VelE,GPOS_VelD,GPOS_EPH,GPOS_EPV,GPOS_TALT,GPSP_NavState,GPSP_Lat,GPSP_Lon,GPSP_Alt,GPSP_Yaw,GPSP_Type,GPSP_LoitR,GPSP_LoitDir,GPSP_PitMin,ESC_count,ESC_nESC,ESC_Conn,ESC_N,ESC_Ver,ESC_Adr,ESC_Volt,ESC_Amp,ESC_RPM,ESC_Temp,ESC_SetP,ESC_SetPRAW,GVSP_VX,GVSP_VY,GVSP_VZ,BATT_V,BATT_VFilt,BATT_C,BATT_Discharged,DIST_Bottom,DIST_BottomRate,DIST_Flags,TEL0_RSSI,TEL0_RemRSSI,TEL0_Noise,TEL0_RemNoise,TEL0_RXErr,TEL0_Fixed,TEL0_TXBuf,TEL0_HbTime,TEL1_RSSI,TEL1_RemRSSI,TEL1_Noise,TEL1_RemNoise,TEL1_RXErr,TEL1_Fixed,TEL1_TXBuf,TEL1_HbTime,TEL2_RSSI,TEL2_RemRSSI,TEL2_Noise,TEL2_RemNoise,TEL2_RXErr,TEL2_Fixed,TEL2_TXBuf,TEL2_HbTime,TEL3_RSSI,TEL3_RemRSSI,TEL3_Noise,TEL3_RemNoise,TEL3_RXErr,TEL3_Fixed,TEL3_TXBuf,TEL3_HbTime,EST0_s0,EST0_s1,EST0_s2,EST0_s3,EST0_s4,EST0_s5,EST0_s6,EST0_s7,EST0_s8,EST0_s9,EST0_s10,EST0_s11,EST0_nStat,EST0_fNaN,EST0_fHealth,EST0_fTOut,EST1_s12,EST1_s13,EST1_s14,EST1_s15,EST1_s16,EST1_s17,EST1_s18,EST1_s19,EST1_s20,EST1_s21,EST1_s22,EST1_s23,EST1_s24,EST1_s25,EST1_s26,EST1_s27,PWR_Periph5V,PWR_Servo5V,PWR_RSSI,PWR_UsbOk,PWR_BrickOk,PWR_ServoOk,PWR_PeriphOC,PWR_HipwrOC,VICN_X,VICN_Y,VICN_Z,VICN_Roll,VICN_Pitch,VICN_Yaw,VISN_X,VISN_Y,VISN_Z,VISN_VX,VISN_VY,VISN_VZ,VISN_QuatX,VISN_QuatY,VISN_QuatZ,VISN_QuatW,GS0A_s0,GS0A_s1,GS0A_s2,GS0A_s3,GS0A_s4,GS0A_s5,GS0A_s6,GS0A_s7,GS0A_s8,GS0A_s9,GS0A_s10,GS0A_s11,GS0A_s12,GS0A_s13,GS0A_s14,GS0A_s15,GS0B_s0,GS0B_s1,GS0B_s2,GS0B_s3,GS0B_s4,GS0B_s5,GS0B_s6,GS0B_s7,GS0B_s8,GS0B_s9,GS0B_s10,GS0B_s11,GS0B_s12,GS0B_s13,GS0B_s14,GS0B_s15,GS1A_s0,GS1A_s1,GS1A_s2,GS1A_s3,GS1A_s4,GS1A_s5,GS1A_s6,GS1A_s7,GS1A_s8,GS1A_s9,GS1A_s10,GS1A_s11,GS1A_s12,GS1A_s13,GS1A_s14,GS1A_s15,GS1B_s0,GS1B_s1,GS1B_s2,GS1B_s3,GS1B_s4,GS1B_s5,GS1B_s6,GS1B_s7,GS1B_s8,GS1B_s9,GS1B_s10,GS1B_s11,GS1B_s12,GS1B_s13,GS1B_s14,GS1B_s15,TECS_ASP,TECS_AF,TECS_FSP,TECS_F,TECS_FF,TECS_AsSP,TECS_AsF,TECS_AsDSP,TECS_AsD,TECS_TERSP,TECS_TER,TECS_EDRSP,TECS_EDR,TECS_M,WIND_X,WIND_Y,WIND_CovX,WIND_CovY,ENCD_cnt0,ENCD_vel0,ENCD_cnt1,ENCD_vel1,OUT1_Out0,OUT1_Out1,OUT1_Out2,OUT1_Out3,OUT1_Out4,OUT1_Out5,OUT1_Out6,OUT1_Out7,TIME_StartTime,VER_Arch,VER_FwGit,PARM_Name,PARM_Value
,,,,,,,,,,,,,,,,,,,,,,,,,,,,,,,,,,,,,,,,,,,,,,,,,,,,,,,,,,,,,,,,,,,,,,,,,,,,,,,,,,,,,,,,,,,,,,,,,,,,,,,,,,,,,,,,,,,,,,,,,,,,,,,,,,,,,,,,,,,,,,,,,,,,,,,,,,,,,,,,,,,,,,,,,,,,,,,,,,,,,,,,,,,,,,,,,,,,,,,,,,,,,,,,,,,,,,,,,,,,,,,,,,,,,,,,,,,,,,,,,,,,,,,,,,,,,,,,,,,,,,,,,,,,,,,,,,,,,,,,,,,,,,,,,,,,,,,,,,,,,,,,,,,,,,,,,,,,,,,,,,,,,,,,,,,,,,,,,,,,,,,,PX4FMU_V2,c17f0b6885b5678d25510dd57a90f80b05115e37,test,305419904.0
-0.00834497995675,-0.176838710904,-1.12238907814,-0.00970855727792,-0.000941292848438,0.00861917063594,-1.57074594498,0.114831887186,-9.76051616669,0.0,-0.0,0.0,0.0,-1.57074594498,0.114831887186,-9.76051616669,-0.00890918262303,-0.000961093232036,0.0081192785874,0.15140119195,0.15467299521,0.420957297087,-1.57074594498,0.114831887186,-9.76051616669,-0.0109234480187,0.0224342308939,0.0169131886214,0.0,0.0,0.0,,,,,,,,,,995.130004883,151.937255859,43.219997406,0.0,0.0,16.7229919434,0.0,-10.0,0.0,0.0,0.0,0.0,0.0,0.0,0.0,0.0,63,0,1,1.0,1.0,,,,,,,,,,,,,,,,,,,,,,,,0,2,0,0.470933675766,0,0,0.0,0.0,0.0,0.541899442673,-1.0,-0.800000011921,-1.0,0.0,7,0,0.0,0.0,0.0,0.0,0.0,0.0,0.0,0.0,,,,0.0,0.0,0.0,,,,,,,,0.0,0.0,0.0,0.0,0.0,0.0,1.0,1.0,0.0,,,,,,,,,,,,,,,,,,,,,,0.0,0.0,0.0,11.307800293,11.3296508789,0.0248000007123,2.01780414581,,,,162,167,32,35,0,0,100,45828009,,,,,,,,,,,,,,,,,,,,,,,,,,,,,,,,,,,,,,,,,,,,,,,,,,,,,,,,,5.22875976562,0.0670000016689,1.21500003338,0,1,0,0,0,,,,,,,,,,,,,,,,,,,,,,,,,,,,,,,,,,,,,,,,,,,,,,,,,,,,,,,,,,,,,,,,,,,,,,,,,,,,,,,,,,,,,,,,,,,,,,,,,,,85716,0.0,84623,0.0,1500.0,1500.0,0.0,0.0,0.0,0.0,0.0,0.0,46867434,PX4FMU_V2,c17f0b6885b5678d25510dd57a90f80b05115e37,test,305419904.0
-0.00842876918614,-0.176813095808,-1.12223660946,-0.00962657667696,-0.00129271263722,0.0120472228155,-1.57367968559,0.0707766264677,-9.78042697906,0.0,-0.0,0.0,0.0,-1.57367968559,0.0707766264677,-9.78042697906,-0.00895538367331,-0.00121690321248,0.0130669651553,0.15140119195,0.15467299521,0.420957297087,-1.57367968559,0.0707766264677,-9.78042697906,-0.00898452941328,0.0246838219464,0.0178295858204,0.0,0.0,0.0,,,,,,,,,,995.130004883,151.937255859,43.219997406,0.0,0.0,16.7229919434,0.0,-10.0,0.0,0.0,0.0,0.0,0.0,0.0,0.0,0.0,63,0,1,1.0,1.0,,,,,,,,,,,,,,,,,,,,,,,,0,2,0,0.470736593008,0,0,0.0,0.0,0.0,0.418994426727,-1.0,-0.800000011921,-1.0,0.0,7,0,0.0,0.0,0.0,0.0,0.0,0.0,0.0,0.0,,,,0.0,0.0,0.0,,,,,,,,0.0,0.0,0.0,0.0,0.0,0.0,1.0,1.0,0.0,,,,,,,,,,,,,,,,,,,,,,0.0,0.0,0.0,11.357000351,11.3296785355,0.0,2.01780414581,,,,162,167,32,35,0,0,100,45828009,,,,,,,,,,,,,,,,,,,,,,,,,,,,,,,,,,,,,,,,,,,,,,,,,,,,,,,,,5.22875976562,0.0670000016689,1.21500003338,0,1,0,0,0,,,,,,,,,,,,,,,,,,,,,,,,,,,,,,,,,,,,,,,,,,,,,,,,,,,,,,,,,,,,,,,,,,,,,,,,,,,,,,,,,,,,,,,,,,,,,,,,,,,85716,0.0,84623,0.0,1500.0,1500.0,0.0,0.0,0.0,0.0,0.0,0.0,46874188,PX4FMU_V2,c17f0b6885b5678d25510dd57a90f80b05115e37,test,305419904.0
-0.00847261026502,-0.176799833775,-1.12209546566,-0.00973695982248,-0.00151126657147,0.0135085349903,-1.55912947655,0.070285178721,-9.78716373444,0.0,-0.0,0.0,0.0,-1.55912947655,0.070285178721,-9.78716373444,-0.00932294130325,-0.00153554370627,0.0137517321855,0.153561189771,0.155393004417,0.420637309551,-1.55912947655,0.070285178721,-9.78716373444,-0.00783061143011,0.0283569153398,0.0171262528747,0.0,0.0,0.0,,,,,,,,,,995.119995117,152.021728516,43.219997406,0.0,0.0,16.7229919434,0.0,-10.0,0.0,0.0,0.0,0.0,0.0,0.0,0.0,0.0,63,0,1,1.0,1.0,,,,,,,,,,,,,,,,,,,,,,,,0,2,0,0.470736593008,0,0,0.0,0.0,0.0,0.418994426727,-1.0,-0.800000011921,-1.0,0.0,7,0,0.0,0.0,0.0,0.0,0.0,0.0,0.0,0.0,,,,0.0,0.0,0.0,,,,,,,,0.0,0.0,0.0,0.0,0.0,0.0,1.0,1.0,0.0,,,,,,,,,,,,,,,,,,,,,,0.0,0.0,0.0,11.357000351,11.3296785355,0.0,2.01780414581,,,,162,167,32,35,0,0,100,45828009,,,,,,,,,,,,,,,,,,,,,,,,,,,,,,,,,,,,,,,,,,,,,,,,,,,,,,,,,5.23198223114,0.0670000016689,1.21500003338,0,1,0,0,0,,,,,,,,,,,,,,,,,,,,,,,,,,,,,,,,,,,,,,,,,,,,,,,,,,,,,,,,,,,,,,,,,,,,,,,,,,,,,,,,,,,,,,,,,,,,,,,,,,,85716,0.0,84623,0.0,1500.0,1500.0,0.0,0.0,0.0,0.0,0.0,0.0,46879533,PX4FMU_V2,c17f0b6885b5678d25510dd57a90f80b05115e37,test,305419904.0
-0.00856366474181,-0.176773995161,-1.12192845345,-0.0102186240256,-0.00198107329197,0.0129271810874,-1.54806625843,0.079189427197,-9.79314613342,0.0,-0.0,0.0,0.0,-1.54806625843,0.079189427197,-9.79314613342,-0.0101767918095,-0.00198576366529,0.00907445512712,0.152601197362,0.15563300252,0.42103728652,-1.54806625843,0.079189427197,-9.79314613342,-0.0118979299441,0.0292675532401,0.00902083795518,0.0,0.0,0.0,,,,,,,,,,995.119995117,152.021728516,43.219997406,0.0,0.0,16.7229919434,0.0,-10.0,0.0,0.0,0.0,0.0,0.0,0.0,0.0,0.0,63,0,1,1.0,1.0,,,,,,,,,,,,,,,,,,,,,,,,0,2,0,0.470736593008,0,0,0.0,0.0,0.0,0.418994426727,-1.0,-0.800000011921,-1.0,0.0,7,0,0.0,0.0,0.0,0.0,0.0,0.0,0.0,0.0,,,,0.0,0.0,0.0,,,,,,,,0.0,0.0,0.0,0.0,0.0,0.0,1.0,1.0,0.0,,,,,,,,,,,,,,,,,,,,,,0.0,0.0,0.0,11.307800293,11.329656601,0.0,2.01780414581,,,,162,167,32,35,0,0,100,45828009,,,,,,,,,,,,,,,,,,,,,,,,,,,,,,,,,,,,,,,,,,,,,,,,,,,,,,,,,5.22875976562,0.0670000016689,1.21500003338,0,1,0,0,0,,,,,,,,,,,,,,,,,,,,,,,,,,,,,,,,,,,,,,,,,,,,,,,,,,,,,,,,,,,,,,,,,,,,,,,,,,,,,,,,,,,,,,,,,,,,,,,,,,,85716,0.0,84623,0.0,1500.0,1500.0,0.0,0.0,0.0,0.0,0.0,0.0,46886284,PX4FMU_V2,c17f0b6885b5678d25510dd57a90f80b05115e37,test,305419904.0
-0.00865289755166,-0.176754429936,-1.12177538872,-0.0106306709349,-0.00272839306854,0.00883875135332,-1.54793047905,0.0861673355103,-9.79079437256,0.0,-0.0,0.0,0.0,-1.54793047905,0.0861673355103,-9.79079437256,-0.0103947948664,-0.00312149198726,0.00356160663068,0.152601197362,0.15563300252,0.42103728652,-1.54793047905,0.0861673355103,-9.79079437256,-0.00884483382106,0.0212500542402,0.00529152434319,0.0,0.0,0.0,,,,,,,,,,995.119995117,152.021728516,43.219997406,0.0,0.0,16.7229919434,0.0,-10.0,0.0,0.0,0.0,0.0,0.0,0.0,0.0,0.0,63,0,1,1.0,1.0,,,,,,,,,,,,,,,,,,,,,,,,0,2,0,0.470736593008,0,0,0.0,0.0,0.0,0.298882693052,-1.0,-0.800000011921,-1.0,0.0,7,0,0.0,0.0,0.0,0.0,0.0,0.0,0.0,0.0,,,,0.0,0.0,0.0,,,,,,,,0.0,0.0,0.0,0.0,0.0,0.0,1.0,1.0,0.0,,,,,,,,,,,,,,,,,,,,,,0.0,0.0,0.0,11.307800293,11.329656601,0.0,2.01780414581,,,,162,167,32,35,0,0,100,46892609,,,,,,,,,,,,,,,,,,,,,,,,,,,,,,,,,,,,,,,,,,,,,,,,,,,,,,,,,5.23681640625,0.0650000050664,1.21400010586,0,1,0,0,0,,,,,,,,,,,,,,,,,,,,,,,,,,,,,,,,,,,,,,,,,,,,,,,,,,,,,,,,,,,,,,,,,,,,,,,,,,,,,,,,,,,,,,,,,,,,,,,,,,,85716,0.0,84623,0.0,1500.0,1500.0,0.0,0.0,0.0,0.0,0.0,0.0,46894770,PX4FMU_V2,c17f0b6885b5678d25510dd57a90f80b05115e37,test,305419904.0
-0.00869718939066,-0.176749378443,-1.12174129486,-0.0108042759821,-0.00328976637684,0.00684307795018,-1.55947494507,0.0858942940831,-9.78600788116,0.0,-0.0,0.0,0.0,-1.55947494507,0.0858942940831,-9.78600788116,-0.0105933267623,-0.00385948782787,0.00236871466041,0.152201190591,0.155393004417,0.420557290316,-1.55947494507,0.0858942940831,-9.78600788116,-0.00851527787745,0.0198832079768,0.00640457868576,0.0,0.0,0.0,,,,,,,,,,995.119995117,152.021728516,43.219997406,0.0,0.0,16.7229919434,0.0,-10.0,0.0,0.0,0.0,0.0,0.0,0.0,0.0,0.0,63,0,1,1.0,1.0,,,,,,,,,,,,,,,,,,,,,,,,0,2,0,0.470736593008,0,0,0.0,0.0,0.0,0.298882693052,-1.0,-0.800000011921,-1.0,0.0,7,0,0.0,0.0,0.0,0.0,0.0,0.0,0.0,0.0,,,,0.0,0.0,0.0,,,,,,,,0.0,0.0,0.0,0.0,0.0,0.0,1.0,1.0,0.0,,,,,,,,,,,,,,,,,,,,,,0.0,0.0,0.0,11.3652000427,11.3296918869,0.0,2.01780414581,,,,162,167,32,35,0,0,100,46892609,,,,,,,,,,,,,,,,,,,,,,,,,,,,,,,,,,,,,,,,,,,,,,,,,,,,,,,,,5.23681640625,0.0650000050664,1.21400010586,0,1,0,0,0,,,,,,,,,,,,,,,,,,,,,,,,,,,,,,,,,,,,,,,,,,,,,,,,,,,,,,,,,,,,,,,,,,,,,,,,,,,,,,,,,,,,,,,,,,,,,,,,,,,85716,0.0,84623,0.0,1500.0,1500.0,0.0,0.0,0.0,0.0,0.0,0.0,46900583,PX4FMU_V2,c17f0b6885b5678d25510dd57a90f80b05115e37,test,305419904.0
-0.00879944674671,-0.176757290959,-1.12175488472,-0.0112962340936,-0.00479090586305,0.00431205052882,-1.57966458797,0.0609175637364,-9.73302268982,0.0,-0.0,0.0,0.0,-1.57966458797,0.0609175637364,-9.73302268982,-0.0111150797457,-0.00535487569869,0.0024210314732,0.151481196284,0.157952994108,0.419517308474,-1.57966458797,0.0609175637364,-9.73302268982,-0.0175366718322,0.0186926778406,0.00708007579669,0.0,0.0,0.0,,,,,,,,,,995.16998291,151.599395752,43.219997406,0.0,0.0,16.7229919434,0.0,-10.0,0.0,0.0,0.0,0.0,0.0,0.0,0.0,0.0,63,0,1,1.0,1.0,,,,,,,,,,,,,,,,,,,,,,,,0,2,0,0.470736593008,0,0,0.0,0.0,0.0,0.298882693052,-1.0,-0.800000011921,-1.0,0.0,7,0,0.0,0.0,0.0,0.0,0.0,0.0,0.0,0.0,,,,0.0,0.0,0.0,,,,,,,,0.0,0.0,0.0,0.0,0.0,0.0,1.0,1.0,0.0,,,,,,,,,,,,,,,,,,,,,,0.0,0.0,0.0,11.3652000427,11.3296918869,0.0,2.01780414581,,,,162,167,32,35,0,0,100,46892609,,,,,,,,,,,,,,,,,,,,,,,,,,,,,,,,,,,,,,,,,,,,,,,,,,,,,,,,,5.22714853287,0.0650000050664,1.21400010586,0,1,0,0,0,,,,,,,,,,,,,,,,,,,,,,,,,,,,,,,,,,,,,,,,,,,,,,,,,,,,,,,,,,,,,,,,,,,,,,,,,,,,,,,,,,,,,,,,,,,,,,,,,,,85716,0.0,84623,0.0,1500.0,1500.0,0.0,0.0,0.0,0.0,0.0,0.0,46906732,PX4FMU_V2,c17f0b6885b5678d25510dd57a90f80b05115e37,test,305419904.0
-0.00884248130023,-0.176762133837,-1.12170338631,-0.0114481132478,-0.0052503910847,0.00399468187243,-1.58021903038,0.0522120334208,-9.7155380249,0.0,-0.0,0.0,0.0,-1.58021903038,0.0522120334208,-9.7155380249,-0.011246625334,-0.00545422686264,0.00337307946756,0.151481196284,0.157952994108,0.419517308474,-1.58021903038,0.0522120334208,-9.7155380249,-0.0172732304782,0.017378795892,0.00607751915231,0.0,0.0,0.0,,,,,,,,,,995.16998291,151.599395752,43.219997406,0.0,0.0,16.7229919434,0.0,-10.0,0.0,0.0,0.0,0.0,0.0,0.0,0.0,0.0,63,0,1,1.0,1.0,,,,,,,,,,,,,,,,,,,,,,,,0,2,0,0.470736593008,0,0,0.0,0.0,0.0,0.298882693052,-1.0,-0.800000011921,-1.0,0.0,7,0,0.0,0.0,0.0,0.0,0.0,0.0,0.0,0.0,,,,0.0,0.0,0.0,,,,,,,,0.0,0.0,0.0,0.0,0.0,0.0,1.0,1.0,0.0,,,,,,,,,,,,,,,,,,,,,,0.0,0.0,0.0,11.3652000427,11.3297271729,0.0,2.01780414581,,,,162,167,32,35,0,0,100,46892609,,,,,,,,,,,,,,,,,,,,,,,,,,,,,,,,,,,,,,,,,,,,,,,,,,,,,,,,,5.22714853287,0.0650000050664,1.21400010586,0,1,0,0,0,,,,,,,,,,,,,,,,,,,,,,,,,,,,,,,,,,,,,,,,,,,,,,,,,,,,,,,,,,,,,,,,,,,,,,,,,,,,,,,,,,,,,,,,,,,,,,,,,,,85716,0.0,84623,0.0,1500.0,1500.0,0.0,0.0,0.0,0.0,0.0,0.0,46912801,PX4FMU_V2,c17f0b6885b5678d25510dd57a90f80b05115e37,test,305419904.0
-0.00893213227391,-0.176772415638,-1.12170541286,-0.0120501704514,-0.00592024577782,0.00400652363896,-1.56096303463,0.0444514043629,-9.71452331543,0.0,-0.0,0.0,0.0,-1.56096303463,0.0444514043629,-9.71452331543,-0.0122130280361,-0.00587241537869,0.0038979947567,0.151001185179,0.155472993851,0.42159730196,-1.56096303463,0.0444514043629,-9.71452331543,-0.0130578130484,0.015308004804,0.00738631375134,0.0,0.0,0.0,,,,,,,,,,995.139953613,151.852783203,43.219997406,0.0,0.0,16.7229919434,0.0,-10.0,0.0,0.0,0.0,0.0,0.0,0.0,0.0,0.0,63,0,1,1.0,1.0,,,,,,,,,,,,,,,,,,,,,,,,0,2,0,0.470736593008,0,0,0.0,0.0,0.0,0.175977647305,-1.0,-0.800000011921,-1.0,0.0,7,0,0.0,0.0,0.0,0.0,0.0,0.0,0.0,0.0,,,,0.0,0.0,0.0,,,,,,,,0.0,0.0,0.0,0.0,0.0,0.0,1.0,1.0,0.0,,,,,,,,,,,,,,,,,,,,,,0.0,0.0,0.0,11.3652000427,11.3297271729,0.0,2.01780414581,,,,162,167,32,35,0,0,100,46892609,,,,,,,,,,,,,,,,,,,,,,,,,,,,,,,,,,,,,,,,,,,,,,,,,,,,,,,,,5.24165010452,0.070000000298,1.22900009155,0,1,0,0,0,,,,,,,,,,,,,,,,,,,,,,,,,,,,,,,,,,,,,,,,,,,,,,,,,,,,,,,,,,,,,,,,,,,,,,,,,,,,,,,,,,,,,,,,,,,,,,,,,,,85716,0.0,84623,0.0,1500.0,1500.0,0.0,0.0,0.0,0.0,0.0,0.0,46918665,PX4FMU_V2,c17f0b6885b5678d25510dd57a90f80b05115e37,test,305419904.0
-0.00897907838225,-0.176777243614,-1.12164759636,-0.0124387033284,-0.0061370562762,0.00383281847462,-1.55240380764,0.0457719154656,-9.71690273285,0.0,-0.0,0.0,0.0,-1.55240380764,0.0457719154656,-9.71690273285,-0.0126558057964,-0.00590415671468,0.00350951845758,0.151001185179,0.155472993851,0.42159730196,-1.55240380764,0.0457719154656,-9.71690273285,-0.0146226184443,0.0160928349942,0.00828472804278,0.0,0.0,0.0,,,,,,,,,,995.139953613,151.852783203,43.219997406,0.0,0.0,16.7229919434,0.0,-10.0,0.0,0.0,0.0,0.0,0.0,0.0,0.0,0.0,63,0,1,1.0,1.0,,,,,,,,,,,,,,,,,,,,,,,,0,2,0,0.470736593008,0,0,0.0,0.0,0.0,0.175977647305,-1.0,-0.800000011921,-1.0,0.0,7,0,0.0,0.0,0.0,0.0,0.0,0.0,0.0,0.0,,,,0.0,0.0,0.0,,,,,,,,0.0,0.0,0.0,0.0,0.0,0.0,1.0,1.0,0.0,,,,,,,,,,,,,,,,,,,,,,0.0,0.0,0.0,11.3652000427,11.3297624588,0.0,2.01780414581,,,,162,167,32,35,0,0,100,46892609,,,,,,,,,,,,,,,,,,,,,,,,,,,,,,,,,,,,,,,,,,,,,,,,,,,,,,,,,5.22714853287,0.070000000298,1.22900009155,0,1,0,0,0,,,,,,,,,,,,,,,,,,,,,,,,,,,,,,,,,,,,,,,,,,,,,,,,,,,,,,,,,,,,,,,,,,,,,,,,,,,,,,,,,,,,,,,,,,,,,,,,,,,85716,0.0,84623,0.0,1500.0,1500.0,0.0,0.0,0.0,0.0,0.0,0.0,46924733,PX4FMU_V2,c17f0b6885b5678d25510dd57a90f80b05115e37,test,305419904.0
-0.00907719694078,-0.176789283752,-1.12174415588,-0.0132469804958,-0.00620392849669,0.00365745695308,-1.56976544857,0.0413929596543,-9.69909095764,0.0,-0.0,0.0,0.0,-1.56976544857,0.0413929596543,-9.69909095764,-0.0134848840535,-0.00559479463845,0.00365123944357,0.149801194668,0.156193003058,0.422237306833,-1.56976544857,0.0413929596543,-9.69909095764,-0.0182190407068,0.019342334941,0.00486642867327,0.0,0.0,0.0,,,,,,,,,,995.139953613,151.852783203,43.219997406,0.0,0.0,16.7229919434,0.0,-10.0,0.0,0.0,0.0,0.0,0.0,0.0,0.0,0.0,63,0,1,1.0,1.0,,,,,,,,,,,,,,,,,,,,,,,,0,2,0,0.470736593008,0,0,0.0,0.0,0.0,0.175977647305,-1.0,-0.800000011921,-1.0,0.0,7,0,0.0,0.0,0.0,0.0,0.0,0.0,0.0,0.0,,,,0.0,0.0,0.0,,,,,,,,0.0,0.0,0.0,0.0,0.0,0.0,1.0,1.0,0.0,,,,,,,,,,,,,,,,,,,,,,0.0,0.0,0.0,11.3652000427,11.3297624588,0.0,2.01780414581,,,,162,167,32,35,0,0,100,46892609,,,,,,,,,,,,,,,,,,,,,,,,,,,,,,,,,,,,,,,,,,,,,,,,,,,,,,,,,5.22714853287,0.070000000298,1.22900009155,0,1,0,0,0,,,,,,,,,,,,,,,,,,,,,,,,,,,,,,,,,,,,,,,,,,,,,,,,,,,,,,,,,,,,,,,,,,,,,,,,,,,,,,,,,,,,,,,,,,,,,,,,,,,85716,0.0,84623,0.0,1500.0,1500.0,0.0,0.0,0.0,0.0,0.0,0.0,46931052,PX4FMU_V2,c17f0b6885b5678d25510dd57a90f80b05115e37,test,305419904.0
-0.00912864599377,-0.176796287298,-1.12169086933,-0.01386341732,-0.00612511578947,0.00383831118234,-1.57674360275,0.030630948022,-9.6849565506,0.0,-0.0,0.0,0.0,-1.57674360275,0.030630948022,-9.6849565506,-0.0144303692505,-0.0054800263606,0.00419140653685,0.149801194668,0.156193003058,0.422237306833,-1.57674360275,0.030630948022,-9.6849565506,-0.019974604249,0.0190730467439,0.00659349514171,0.0,0.0,0.0,,,,,,,,,,995.139953613,151.852783203,43.219997406,0.0,0.0,16.7229919434,0.0,-10.0,0.0,0.0,0.0,0.0,0.0,0.0,0.0,0.0,63,0,1,1.0,1.0,,,,,,,,,,,,,,,,,,,,,,,,0,2,0,0.470736593008,0,0,0.0,0.0,0.0,0.175977647305,-1.0,-0.800000011921,-1.0,0.0,7,0,0.0,0.0,0.0,0.0,0.0,0.0,0.0,0.0,,,,0.0,0.0,0.0,,,,,,,,0.0,0.0,0.0,0.0,0.0,0.0,1.0,1.0,0.0,,,,,,,,,,,,,,,,,,,,,,0.0,0.0,0.0,11.357000351,11.3297901154,0.0,2.01780414581,,,,162,167,32,35,0,0,100,46892609,,,,,,,,,,,,,,,,,,,,,,,,,,,,,,,,,,,,,,,,,,,,,,,,,,,,,,,,,5.23520517349,0.062000002712,1.49400007725,0,1,0,0,0,,,,,,,,,,,,,,,,,,,,,,,,,,,,,,,,,,,,,,,,,,,,,,,,,,,,,,,,,,,,,,,,,,,,,,,,,,,,,,,,,,,,,,,,,,,,,,,,,,,85716,0.0,84623,0.0,1500.0,1500.0,0.0,0.0,0.0,0.0,0.0,0.0,46936785,PX4FMU_V2,c17f0b6885b5678d25510dd57a90f80b05115e37,test,305419904.0
-0.00923770759255,-0.17681248486,-1.12169706821,-0.0157780051231,-0.00599741470069,0.00431666057557,-1.58741736412,-0.0159689541906,-9.66427707672,0.0,-0.0,0.0,0.0,-1.58741736412,-0.0159689541906,-9.66427707672,-0.0170203484595,-0.00550280325115,0.00469766929746,0.150921195745,0.155712991953,0.420717298985,-1.58741736412,-0.0159689541906,-9.66427707672,-0.018945004791,0.0192999076098,0.00988174416125,0.0,0.0,0.0,,,,,,,,,,995.139953613,151.852783203,43.219997406,0.0,0.0,16.7229919434,0.0,-10.0,0.0,0.0,0.0,0.0,0.0,0.0,0.0,0.0,63,0,1,1.0,1.0,,,,,,,,,,,,,,,,,,,,,,,,0,2,0,0.470736593008,0,0,0.0,0.0,0.0,0.0558659210801,-1.0,-0.800000011921,-1.0,0.0,7,0,0.0,0.0,0.0,0.0,0.0,0.0,0.0,0.0,,,,0.0,0.0,0.0,,,,,,,,0.0,0.0,0.0,0.0,0.0,0.0,1.0,1.0,0.0,,,,,,,,,,,,,,,,,,,,,,0.0,0.0,0.0,11.357000351,11.3297901154,0.0,2.01780414581,,,,162,167,32,35,0,0,100,46892609,,,,,,,,,,,,,,,,,,,,,,,,,,,,,,,,,,,,,,,,,,,,,,,,,,,,,,,,,5.23520517349,0.062000002712,1.49400007725,0,1,0,0,0,,,,,,,,,,,,,,,,,,,,,,,,,,,,,,,,,,,,,,,,,,,,,,,,,,,,,,,,,,,,,,,,,,,,,,,,,,,,,,,,,,,,,,,,,,,,,,,,,,,85716,0.0,84623,0.0,1500.0,1500.0,0.0,0.0,0.0,0.0,0.0,0.0,46942884,PX4FMU_V2,c17f0b6885b5678d25510dd57a90f80b05115e37,test,305419904.0
-0.00929777603596,-0.176821768284,-1.12159955502,-0.0171431917697,-0.00604889495298,0.00461987871677,-1.58645689487,-0.0333883017302,-9.65334320068,0.0,-0.0,0.0,0.0,-1.58645689487,-0.0333883017302,-9.65334320068,-0.0187947433442,-0.0057806679979,0.00508835213259,0.153401196003,0.154352992773,0.422317296267,-1.58645689487,-0.0333883017302,-9.65334320068,-0.0193778276443,0.0180343259126,0.011774783954,0.0,0.0,0.0,,,,,,,,,,995.139953613,151.852783203,43.219997406,0.0,0.0,16.7229919434,0.0,-10.0,0.0,0.0,0.0,0.0,0.0,0.0,0.0,0.0,63,0,1,1.0,1.0,,,,,,,,,,,,,,,,,,,,,,,,0,2,0,0.470736593008,0,0,0.0,0.0,0.0,0.0558659210801,-1.0,-0.800000011921,-1.0,0.0,7,0,0.0,0.0,0.0,0.0,0.0,0.0,0.0,0.0,,,,0.0,0.0,0.0,,,,,,,,0.0,0.0,0.0,0.0,0.0,0.0,1.0,1.0,0.0,,,,,,,,,,,,,,,,,,,,,,0.0,0.0,0.0,11.307800293,11.3297681808,0.0,2.01780414581,,,,162,167,32,35,0,0,100,46892609,,,,,,,,,,,,,,,,,,,,,,,,,,,,,,,,,,,,,,,,,,,,,,,,,,,,,,,,,5.23681640625,0.062000002712,1.49400007725,0,1,0,0,0,,,,,,,,,,,,,,,,,,,,,,,,,,,,,,,,,,,,,,,,,,,,,,,,,,,,,,,,,,,,,,,,,,,,,,,,,,,,,,,,,,,,,,,,,,,,,,,,,,,85716,0.0,84623,0.0,1500.0,1500.0,0.0,0.0,0.0,0.0,0.0,0.0,46948925,PX4FMU_V2,c17f0b6885b5678d25510dd57a90f80b05115e37,test,305419904.0
-0.00943501200527,-0.176840573549,-1.1214812994,-0.0202146545053,-0.00613706326112,0.00447760242969,-1.58285081387,-0.0237424615771,-9.64876747131,0.0,-0.0,0.0,0.0,-1.58285081387,-0.0237424615771,-9.64876747131,-0.0219618584961,-0.00578664569184,0.00381068070419,0.153401196003,0.154352992773,0.422317296267,-1.58285081387,-0.0237424615771,-9.64876747131,-0.0200679767877,0.0179046019912,0.00725930742919,0.0,0.0,0.0,,,,,,,,,,995.16998291,151.599395752,43.219997406,0.0,0.0,16.7229919434,0.0,-10.0,0.0,0.0,0.0,0.0,0.0,0.0,0.0,0.0,63,0,1,1.0,1.0,,,,,,,,,,,,,,,,,,,,,,,,0,2,0,0.470736593008,0,0,0.0,0.0,0.0,0.0558659210801,-1.0,-0.800000011921,-1.0,0.0,7,0,0.0,0.0,0.0,0.0,0.0,0.0,0.0,0.0,,,,0.0,0.0,0.0,,,,,,,,0.0,0.0,0.0,0.0,0.0,0.0,1.0,1.0,0.0,,,,,,,,,,,,,,,,,,,,,,0.0,0.0,0.0,11.307800293,11.3297681808,0.0,2.01780414581,,,,162,167,32,35,0,0,100,46892609,,,,,,,,,,,,,,,,,,,,,,,,,,,,,,,,,,,,,,,,,,,,,,,,,,,,,,,,,5.23520517349,0.062000002712,1.49400007725,0,1,0,0,0,,,,,,,,,,,,,,,,,,,,,,,,,,,,,,,,,,,,,,,,,,,,,,,,,,,,,,,,,,,,,,,,,,,,,,,,,,,,,,,,,,,,,,,,,,,,,,,,,,,85716,0.0,84623,0.0,1500.0,1500.0,0.0,0.0,0.0,0.0,0.0,0.0,46955971,PX4FMU_V2,c17f0b6885b5678d25510dd57a90f80b05115e37,test,305419904.0
-0.00960271246731,-0.176859378815,-1.12150585651,-0.0233680810779,-0.00584912579507,0.00283752614632,-1.60214579105,0.031731557101,-9.67050552368,0.0,-0.0,0.0,0.0,-1.60214579105,0.031731557101,-9.67050552368,-0.0246267169714,-0.00535241235048,0.00146388495341,0.151961192489,0.157472997904,0.42103728652,-1.60214579105,0.031731557101,-9.67050552368,-0.0239340122789,0.0169903878123,0.00388366659172,0.0,0.0,0.0,,,,,,,,,,995.149963379,151.768325806,43.219997406,0.0,0.0,16.7229919434,0.0,-10.0,0.0,0.0,0.0,0.0,0.0,0.0,0.0,0.0,63,0,1,1.0,1.0,,,,,,,,,,,,,,,,,,,,,,,,0,2,0,0.470736593008,0,0,0.0,0.0,0.0,-0.0,-1.0,-0.800000011921,-1.0,0.0,7,0,0.0,0.0,0.0,0.0,0.0,0.0,0.0,0.0,,,,0.0,0.0,0.0,,,,,,,,0.0,0.0,0.0,0.0,0.0,0.0,1.0,1.0,0.0,,,,,,,,,,,,,,,,,,,,,,0.0,0.0,0.0,11.2913999557,11.3297300339,0.0,2.01780414581,,,,162,167,32,35,0,0,100,46892609,,,,,,,,,,,,,,,,,,,,,,,,,,,,,,,,,,,,,,,,,,,,,,,,,,,,,,,,,5.23520517349,0.062000002712,1.49400007725,0,1,0,0,0,,,,,,,,,,,,,,,,,,,,,,,,,,,,,,,,,,,,,,,,,,,,,,,,,,,,,,,,,,,,,,,,,,,,,,,,,,,,,,,,,,,,,,,,,,,,,,,,,,,85716,0.0,84623,0.0,1500.0,1500.0,0.0,0.0,0.0,0.0,0.0,0.0,46962509,PX4FMU_V2,c17f0b6885b5678d25510dd57a90f80b05115e37,test,305419904.0
-0.00969507079571,-0.176868900657,-1.12159729004,-0.0246137678623,-0.00567622436211,0.00263476092368,-1.60968780518,0.0501429773867,-9.67458057404,0.0,-0.0,0.0,0.0,-1.60968780518,0.0501429773867,-9.67458057404,-0.0253560226411,-0.00517105124891,0.00246153888293,0.151161193848,0.156352996826,0.420877307653,-1.60968780518,0.0501429773867,-9.67458057404,-0.028369102627,0.0156262423843,0.00855258479714,0.0,0.0,0.0,,,,,,,,,,995.149963379,151.768325806,43.219997406,0.0,0.0,16.7229919434,0.0,-10.0,0.0,0.0,0.0,0.0,0.0,0.0,0.0,0.0,63,0,1,1.0,1.0,,,,,,,,,,,,,,,,,,,,,,,,0,2,0,0.470736593008,0,0,0.0,0.0,0.0,-0.0,-1.0,-0.800000011921,-1.0,0.0,7,0,0.0,0.0,0.0,0.0,0.0,0.0,0.0,0.0,,,,0.0,0.0,0.0,,,,,,,,0.0,0.0,0.0,0.0,0.0,0.0,1.0,1.0,0.0,,,,,,,,,,,,,,,,,,,,,,0.0,0.0,0.0,11.2913999557,11.3297300339,0.0,2.01780414581,,,,162,167,32,35,0,0,100,46892609,,,,,,,,,,,,,,,,,,,,,,,,,,,,,,,,,,,,,,,,,,,,,,,,,,,,,,,,,5.24003887177,0.062000002712,1.49300003052,0,1,0,0,0,,,,,,,,,,,,,,,,,,,,,,,,,,,,,,,,,,,,,,,,,,,,,,,,,,,,,,,,,,,,,,,,,,,,,,,,,,,,,,,,,,,,,,,,,,,,,,,,,,,85716,0.0,84623,0.0,1500.0,1500.0,0.0,0.0,0.0,0.0,0.0,0.0,46967974,PX4FMU_V2,c17f0b6885b5678d25510dd57a90f80b05115e37,test,305419904.0
-0.00989225041121,-0.176884412766,-1.12150812149,-0.0262706186622,-0.00475791376084,0.0051199849695,-1.62926256657,0.0553939975798,-9.67606830597,0.0,-0.0,0.0,0.0,-1.62926256657,0.0553939975798,-9.67606830597,-0.0259891077876,-0.0036952837836,0.00820638798177,0.151161193848,0.156352996826,0.420877307653,-1.62926256657,0.0553939975798,-9.67606830597,-0.0256629996002,0.019480323419,0.023013619706,0.0,0.0,0.0,,,,,,,,,,995.139953613,151.852783203,43.219997406,0.0,0.0,16.7229919434,0.0,-10.0,0.0,0.0,0.0,0.0,0.0,0.0,0.0,0.0,63,0,1,1.0,1.0,,,,,,,,,,,,,,,,,,,,,,,,0,2,0,0.470736593008,0,0,0.0,0.0,0.0,-0.0,-1.0,-0.800000011921,-1.0,0.0,7,0,0.0,0.0,0.0,0.0,0.0,0.0,0.0,0.0,,,,0.0,0.0,0.0,,,,,,,,0.0,0.0,0.0,0.0,0.0,0.0,1.0,1.0,0.0,,,,,,,,,,,,,,,,,,,,,,0.0,0.0,0.0,11.3733997345,11.3297739029,0.0,2.01780414581,,,,162,167,32,35,0,0,100,46892609,,,,,,,,,,,,,,,,,,,,,,,,,,,,,,,,,,,,,,,,,,,,,,,,,,,,,,,,,5.23037099838,0.062000002712,1.49300003052,0,1,0,0,0,,,,,,,,,,,,,,,,,,,,,,,,,,,,,,,,,,,,,,,,,,,,,,,,,,,,,,,,,,,,,,,,,,,,,,,,,,,,,,,,,,,,,,,,,,,,,,,,,,,85716,0.0,84623,0.0,1500.0,1500.0,0.0,0.0,0.0,0.0,0.0,0.0,46974470,PX4FMU_V2,c17f0b6885b5678d25510dd57a90f80b05115e37,test,305419904.0
-0.00999569706619,-0.176889672875,-1.12152004242,-0.026928037405,-0.00406493293121,0.00740579841658,-1.64395070076,0.0474661253393,-9.68502426147,0.0,-0.0,0.0,0.0,-1.64395070076,0.0474661253393,-9.68502426147,-0.0265796314925,-0.00284787314013,0.0112314019352,0.152521193027,0.156433001161,0.421277284622,-1.64395070076,0.0474661253393,-9.68502426147,-0.0248660426587,0.0223257429898,0.0268380604684,0.0,0.0,0.0,,,,,,,,,,995.139953613,151.852783203,43.219997406,0.0,0.0,16.7229919434,0.0,-10.0,0.0,0.0,0.0,0.0,0.0,0.0,0.0,0.0,63,0,1,1.0,1.0,,,,,,,,,,,,,,,,,,,,,,,,0,2,0,0.470736593008,0,0,0.0,0.0,0.0,-0.0,-1.0,-0.800000011921,-1.0,0.0,7,0,0.0,0.0,0.0,0.0,0.0,0.0,0.0,0.0,,,,0.0,0.0,0.0,,,,,,,,0.0,0.0,0.0,0.0,0.0,0.0,1.0,1.0,0.0,,,,,,,,,,,,,,,,,,,,,,0.0,0.0,0.0,11.3733997345,11.3297739029,0.0,2.01780414581,,,,162,167,32,35,0,0,100,46892609,,,,,,,,,,,,,,,,,,,,,,,,,,,,,,,,,,,,,,,,,,,,,,,,,,,,,,,,,5.23037099838,0.062000002712,1.49300003052,0,1,0,0,0,,,,,,,,,,,,,,,,,,,,,,,,,,,,,,,,,,,,,,,,,,,,,,,,,,,,,,,,,,,,,,,,,,,,,,,,,,,,,,,,,,,,,,,,,,,,,,,,,,,85716,0.0,84623,0.0,1500.0,1500.0,0.0,0.0,0.0,0.0,0.0,0.0,46980884,PX4FMU_V2,c17f0b6885b5678d25510dd57a90f80b05115e37,test,305419904.0
-0.0102527420968,-0.176895320415,-1.12150967121,-0.0286928061396,-0.00241188076325,0.0115664592013,-1.64253926277,0.0388500280678,-9.7052488327,0.0,-0.0,0.0,0.0,-1.64253926277,0.0388500280678,-9.7052488327,-0.0286374352872,-0.00134337623604,0.0133840264753,0.150841191411,0.156193003058,0.419117301702,-1.64253926277,0.0388500280678,-9.7052488327,-0.0286145787686,0.0244101379067,0.0243879929185,0.0,0.0,0.0,,,,,,,,,,995.139953613,151.852783203,43.219997406,0.0,0.0,16.7229919434,0.0,-10.0,0.0,0.0,0.0,0.0,0.0,0.0,0.0,0.0,63,0,1,1.0,1.0,,,,,,,,,,,,,,,,,,,,,,,,0,2,0,0.470736593008,0,0,0.0,0.0,0.0,-0.0,-1.0,-0.800000011921,-1.0,0.0,7,0,0.0,0.0,0.0,0.0,0.0,0.0,0.0,0.0,,,,0.0,0.0,0.0,,,,,,,,0.0,0.0,0.0,0.0,0.0,0.0,1.0,1.0,0.0,,,,,,,,,,,,,,,,,,,,,,0.0,0.0,0.0,11.2749996185,11.3297195435,0.0,2.01780414581,,,,162,167,32,35,0,0,100,46892609,,,,,,,,,,,,,,,,,,,,,,,,,,,,,,,,,,,,,,,,,,,,,,,,,,,,,,,,,5.21103525162,0.0650000050664,1.50300002098,0,1,0,0,0,,,,,,,,,,,,,,,,,,,,,,,,,,,,,,,,,,,,,,,,,,,,,,,,,,,,,,,,,,,,,,,,,,,,,,,,,,,,,,,,,,,,,,,,,,,,,,,,,,,85716,0.0,84623,0.0,1500.0,1500.0,0.0,0.0,0.0,0.0,0.0,0.0,46988402,PX4FMU_V2,c17f0b6885b5678d25510dd57a90f80b05115e37,test,305419904.0
-0.010490196757,-0.176877960563,-1.12136280537,-0.0305075608194,-0.00107832218055,0.0105783008039,-1.58704614639,0.0765510573983,-9.73597431183,0.0,-0.0,0.0,0.0,-1.58704614639,0.0765510573983,-9.73597431183,-0.030607547611,-0.000377251795726,0.00760193634778,0.150841191411,0.156193003058,0.419117301702,-1.58704614639,0.0765510573983,-9.73597431183,-0.026361271739,0.0244970265776,0.0138872424141,0.0,0.0,0.0,,,,,,,,,,995.139953613,151.852783203,43.219997406,0.0,0.0,16.7229919434,0.0,-10.0,0.0,0.0,0.0,0.0,0.0,0.0,0.0,0.0,63,0,1,1.0,1.0,,,,,,,,,,,,,,,,,,,,,,,,0,2,0,0.470736593008,0,0,0.0,0.0,0.0,-0.0,-1.0,-0.800000011921,-1.0,0.0,7,0,0.0,0.0,0.0,0.0,0.0,0.0,0.0,0.0,,,,0.0,0.0,0.0,,,,,,,,0.0,0.0,0.0,0.0,0.0,0.0,1.0,1.0,0.0,,,,,,,,,,,,,,,,,,,,,,0.0,0.0,0.0,11.234000206,11.329624176,0.0,2.01780414581,,,,162,167,32,35,0,0,100,46892609,,,,,,,,,,,,,,,,,,,,,,,,,,,,,,,,,,,,,,,,,,,,,,,,,,,,,,,,,5.22392559052,0.0650000050664,1.50300002098,0,1,0,0,0,,,,,,,,,,,,,,,,,,,,,,,,,,,,,,,,,,,,,,,,,,,,,,,,,,,,,,,,,,,,,,,,,,,,,,,,,,,,,,,,,,,,,,,,,,,,,,,,,,,85716,0.0,84623,0.0,1500.0,1500.0,0.0,0.0,0.0,0.0,0.0,0.0,46994576,PX4FMU_V2,c17f0b6885b5678d25510dd57a90f80b05115e37,test,305419904.0
-0.0106139611453,-0.176864489913,-1.1212939024,-0.0310815740377,-0.00053948443383,0.00842818431556,-1.57723402977,0.0999086871743,-9.74217987061,0.0,-0.0,0.0,0.0,-1.57723402977,0.0999086871743,-9.74217987061,-0.0306018665433,-7.3444978625e-05,0.00392141565681,0.152841195464,0.15427300334,0.42103728652,-1.57723402977,0.0999086871743,-9.74217987061,-0.0274195186794,0.0245494227856,0.00991713348776,0.0,0.0,0.0,,,,,,,,,,995.159973145,151.683853149,43.219997406,0.0,0.0,16.7229919434,0.0,-10.0,0.0,0.0,0.0,0.0,0.0,0.0,0.0,0.0,63,0,1,1.0,1.0,,,,,,,,,,,,,,,,,,,,,,,,0,2,0,0.470736593008,0,0,0.0,0.0,0.0,-0.0,-1.0,-0.800000011921,-1.0,0.0,7,0,0.0,0.0,0.0,0.0,0.0,0.0,0.0,0.0,,,,0.0,0.0,0.0,,,,,,,,0.0,0.0,0.0,0.0,0.0,0.0,1.0,1.0,0.0,,,,,,,,,,,,,,,,,,,,,,0.0,0.0,0.0,11.234000206,11.329624176,0.0,2.01780414581,,,,162,167,32,35,0,0,100,46892609,,,,,,,,,,,,,,,,,,,,,,,,,,,,,,,,,,,,,,,,,,,,,,,,,,,,,,,,,5.22392559052,0.0650000050664,1.50300002098,0,1,0,0,0,,,,,,,,,,,,,,,,,,,,,,,,,,,,,,,,,,,,,,,,,,,,,,,,,,,,,,,,,,,,,,,,,,,,,,,,,,,,,,,,,,,,,,,,,,,,,,,,,,,85716,0.0,84623,0.0,1500.0,1500.0,0.0,0.0,0.0,0.0,0.0,0.0,47000196,PX4FMU_V2,c17f0b6885b5678d25510dd57a90f80b05115e37,test,305419904.0
-0.0108502674848,-0.176838591695,-1.1213299036,-0.0308353826404,0.000435444177128,0.00294109550305,-1.61917686462,0.118894137442,-9.72187900543,0.0,-0.0,0.0,0.0,-1.61917686462,0.118894137442,-9.72187900543,-0.0288963709027,0.000752133957576,-0.00181295489892,0.150841191411,0.154432997108,0.421357303858,-1.61917686462,0.118894137442,-9.72187900543,-0.0330964662135,0.0256413184106,0.00576379522681,0.0,0.0,0.0,,,,,,,,,,995.159973145,151.683853149,43.219997406,0.0,0.0,16.7229919434,0.0,-10.0,0.0,0.0,0.0,0.0,0.0,0.0,0.0,0.0,63,0,1,1.0,1.0,,,,,,,,,,,,,,,,,,,,,,,,0,2,0,0.470736593008,0,0,0.0,0.0,0.0,-0.0,-1.0,-0.800000011921,-1.0,0.0,7,0,0.0,0.0,0.0,0.0,0.0,0.0,0.0,0.0,,,,0.0,0.0,0.0,,,,,,,,0.0,0.0,0.0,0.0,0.0,0.0,1.0,1.0,0.0,,,,,,,,,,,,,,,,,,,,,,0.0,0.0,0.0,11.3406000137,11.3296356201,0.0744000002742,2.01805329323,,,,162,167,32,35,0,0,100,46892609,,,,,,,,,,,,,,,,,,,,,,,,,,,,,,,,,,,,,,,,,,,,,,,,,,,,,,,,,5.21425771713,0.0670000016689,1.22000002861,0,1,0,0,0,,,,,,,,,,,,,,,,,,,,,,,,,,,,,,,,,,,,,,,,,,,,,,,,,,,,,,,,,,,,,,,,,,,,,,,,,,,,,,,,,,,,,,,,,,,,,,,,,,,85716,0.0,84623,0.0,1500.0,1500.0,0.0,0.0,0.0,0.0,0.0,0.0,47006883,PX4FMU_V2,c17f0b6885b5678d25510dd57a90f80b05115e37,test,305419904.0
-0.0109646581113,-0.176826447248,-1.12131106853,-0.030190968886,0.00099744356703,0.000641701975837,-1.64421880245,0.120587810874,-9.71804332733,0.0,-0.0,0.0,0.0,-1.64421880245,0.120587810874,-9.71804332733,-0.0278780832887,0.0014113667421,-0.00290875625797,0.150841191411,0.154432997108,0.421357303858,-1.64421880245,0.120587810874,-9.71804332733,-0.0356428809464,0.0272361207753,0.00521353073418,0.0,0.0,0.0,,,,,,,,,,995.139953613,151.852783203,43.219997406,0.0,0.0,16.7229919434,0.0,-10.0,0.0,0.0,0.0,0.0,0.0,0.0,0.0,0.0,63,0,1,1.0,1.0,,,,,,,,,,,,,,,,,,,,,,,,0,2,0,0.470736593008,0,0,0.0,0.0,0.0,-0.0,-1.0,-0.800000011921,-1.0,0.0,7,0,0.0,0.0,0.0,0.0,0.0,0.0,0.0,0.0,,,,0.0,0.0,0.0,,,,,,,,0.0,0.0,0.0,0.0,0.0,0.0,1.0,1.0,0.0,,,,,,,,,,,,,,,,,,,,,,0.0,0.0,0.0,11.3406000137,11.3296356201,0.0744000002742,2.01805329323,,,,162,167,32,35,0,0,100,46892609,,,,,,,,,,,,,,,,,,,,,,,,,,,,,,,,,,,,,,,,,,,,,,,,,,,,,,,,,5.21425771713,0.0670000016689,1.22000002861,0,1,0,0,0,,,,,,,,,,,,,,,,,,,,,,,,,,,,,,,,,,,,,,,,,,,,,,,,,,,,,,,,,,,,,,,,,,,,,,,,,,,,,,,,,,,,,,,,,,,,,,,,,,,85716,0.0,84623,0.0,1500.0,1500.0,0.0,0.0,0.0,0.0,0.0,0.0,47013247,PX4FMU_V2,c17f0b6885b5678d25510dd57a90f80b05115e37,test,305419904.0
-0.0111832702532,-0.176791265607,-1.12127482891,-0.0286369752139,0.00252251583152,-0.00243088440038,-1.63001024723,0.140546813607,-9.72774505615,0.0,-0.0,0.0,0.0,-1.63001024723,0.140546813607,-9.72774505615,-0.0264594573528,0.00324786221609,-0.00378542416729,0.152841195464,0.154192999005,0.420157283545,-1.63001024723,0.140546813607,-9.72774505615,-0.0322346538305,0.0241969879717,0.00463216472417,0.0,0.0,0.0,,,,,,,,,,995.139953613,151.852783203,43.219997406,0.0,0.0,16.7229919434,0.0,-10.0,0.0,0.0,0.0,0.0,0.0,0.0,0.0,0.0,63,0,1,1.0,1.0,,,,,,,,,,,,,,,,,,,,,,,,0,2,0,0.470681369305,0,0,0.0,0.0,0.0,-0.0,-1.0,-0.800000011921,-1.0,0.0,7,0,0.0,0.0,0.0,0.0,0.0,0.0,0.0,0.0,,,,0.0,0.0,0.0,,,,,,,,0.0,0.0,0.0,0.0,0.0,0.0,1.0,1.0,0.0,,,,,,,,,,,,,,,,,,,,,,0.0,0.0,0.0,11.332400322,11.3296384811,0.111600004137,2.01842808723,,,,162,167,32,35,0,0,100,46892609,,,,,,,,,,,,,,,,,,,,,,,,,,,,,,,,,,,,,,,,,,,,,,,,,,,,,,,,,5.20620107651,0.0670000016689,1.22000002861,0,1,0,0,0,,,,,,,,,,,,,,,,,,,,,,,,,,,,,,,,,,,,,,,,,,,,,,,,,,,,,,,,,,,,,,,,,,,,,,,,,,,,,,,,,,,,,,,,,,,,,,,,,,,85716,0.0,84623,0.0,1500.0,1500.0,0.0,0.0,0.0,0.0,0.0,0.0,47019532,PX4FMU_V2,c17f0b6885b5678d25510dd57a90f80b05115e37,test,305419904.0
-0.0112909646705,-0.176766812801,-1.12126350403,-0.0278607159853,0.00315466406755,-0.0037121810019,-1.60339403152,0.159602537751,-9.74555206299,0.0,-0.0,0.0,0.0,-1.60339403152,0.159602537751,-9.74555206299,-0.0259053651243,0.00353934499435,-0.00485404813662,0.152841195464,0.154192999005,0.420157283545,-1.60339403152,0.159602537751,-9.74555206299,-0.0254223365337,0.0255000237375,0.00263326847926,0.0,0.0,0.0,,,,,,,,,,995.130004883,151.937255859,43.219997406,0.0,0.0,16.7229919434,0.0,-10.0,0.0,0.0,0.0,0.0,0.0,0.0,0.0,0.0,63,0,1,1.0,1.0,,,,,,,,,,,,,,,,,,,,,,,,0,2,0,0.470681369305,0,0,0.0,0.0,0.0,-0.00775193795562,-1.0,-0.800000011921,-1.0,0.0,7,0,0.0,0.0,0.0,0.0,0.0,0.0,0.0,0.0,,,,0.0,0.0,0.0,,,,,,,,0.0,0.0,0.0,0.0,0.0,0.0,1.0,1.0,0.0,,,,,,,,,,,,,,,,,,,,,,0.0,0.0,0.0,11.332400322,11.3296384811,0.111600004137,2.01842808723,,,,162,167,32,35,0,0,100,46892609,,,,,,,,,,,,,,,,,,,,,,,,,,,,,,,,,,,,,,,,,,,,,,,,,,,,,,,,,5.23198223114,0.070000000298,1.22100007534,0,1,0,0,0,,,,,,,,,,,,,,,,,,,,,,,,,,,,,,,,,,,,,,,,,,,,,,,,,,,,,,,,,,,,,,,,,,,,,,,,,,,,,,,,,,,,,,,,,,,,,,,,,,,85716,0.0,84623,0.0,1500.0,1500.0,0.0,0.0,0.0,0.0,0.0,0.0,47025318,PX4FMU_V2,c17f0b6885b5678d25510dd57a90f80b05115e37,test,305419904.0
-0.0115011492744,-0.176706045866,-1.12132024765,-0.0264489352703,0.00403308868408,-0.00747331185266,-1.55485355854,0.189081713557,-9.77367401123,0.0,-0.0,0.0,0.0,-1.55485355854,0.189081713557,-9.77367401123,-0.0249768774956,0.00392826832831,-0.00991332344711,0.15044118464,0.152192994952,0.420477300882,-1.55485355854,0.189081713557,-9.77367401123,-0.025833863765,0.0323324277997,-0.00697015458718,0.0,0.0,0.0,,,,,,,,,,995.130004883,151.937255859,43.219997406,0.0,0.0,16.7229919434,0.0,-10.0,0.0,0.0,0.0,0.0,0.0,0.0,0.0,0.0,63,0,1,1.0,1.0,,,,,,,,,,,,,,,,,,,,,,,,0,2,0,0.470681369305,0,0,0.0,0.0,0.0,-0.00775193795562,-1.0,-0.800000011921,-1.0,0.0,7,0,0.0,0.0,0.0,0.0,0.0,0.0,0.0,0.0,,,,0.0,0.0,0.0,,,,,,,,0.0,0.0,0.0,0.0,0.0,0.0,1.0,1.0,0.0,,,,,,,,,,,,,,,,,,,,,,0.0,0.0,0.0,11.2258005142,11.3295345306,0.136399999261,2.0188806057,,,,166,168,28,23,0,0,100,46892609,,,,,,,,,,,,,,,,,,,,,,,,,,,,,,,,,,,,,,,,,,,,,,,,,,,,,,,,,5.23198223114,0.070000000298,1.22100007534,0,1,0,0,0,,,,,,,,,,,,,,,,,,,,,,,,,,,,,,,,,,,,,,,,,,,,,,,,,,,,,,,,,,,,,,,,,,,,,,,,,,,,,,,,,,,,,,,,,,,,,,,,,,,85716,0.0,84623,0.0,1500.0,1500.0,0.0,0.0,0.0,0.0,0.0,0.0,47032495,PX4FMU_V2,c17f0b6885b5678d25510dd57a90f80b05115e37,test,305419904.0
-0.0116932205856,-0.1766397506,-1.12156713009,-0.0250342451036,0.00449220975861,-0.0131975430995,-1.54915201664,0.185103520751,-9.77645111084,0.0,-0.0,0.0,0.0,-1.54915201664,0.185103520751,-9.77645111084,-0.0237216092646,0.00414160080254,-0.0166135765612,0.147961184382,0.152272999287,0.421837300062,-1.54915201664,0.185103520751,-9.77645111084,-0.0262991674244,0.0312649160624,-0.0132884029299,0.0,0.0,0.0,,,,,,,,,,995.130004883,151.937255859,43.219997406,0.0,0.0,16.7229919434,0.0,-10.0,0.0,0.0,0.0,0.0,0.0,0.0,0.0,0.0,63,0,1,1.0,1.0,,,,,,,,,,,,,,,,,,,,,,,,0,2,0,0.470681369305,0,0,0.0,0.0,0.0,-0.00775193795562,-1.0,-0.800000011921,-1.0,0.0,7,0,0.0,0.0,0.0,0.0,0.0,0.0,0.0,0.0,,,,0.0,0.0,0.0,,,,,,,,0.0,0.0,0.0,0.0,0.0,0.0,1.0,1.0,0.0,,,,,,,,,,,,,,,,,,,,,,0.0,0.0,0.0,11.2258005142,11.3295345306,0.136399999261,2.0188806057,,,,166,168,28,23,0,0,100,46892609,,,,,,,,,,,,,,,,,,,,,,,,,,,,,,,,,,,,,,,,,,,,,,,,,,,,,,,,,5.21748018265,0.070000000298,1.22100007534,0,1,0,0,0,,,,,,,,,,,,,,,,,,,,,,,,,,,,,,,,,,,,,,,,,,,,,,,,,,,,,,,,,,,,,,,,,,,,,,,,,,,,,,,,,,,,,,,,,,,,,,,,,,,85716,0.0,84623,0.0,1500.0,1500.0,0.0,0.0,0.0,0.0,0.0,0.0,47038746,PX4FMU_V2,c17f0b6885b5678d25510dd57a90f80b05115e37,test,305419904.0
-0.0117808766663,-0.176605939865,-1.1215929985,-0.0242128148675,0.00473577389494,-0.015804996714,-1.55738580227,0.162673220038,-9.77472114563,0.0,-0.0,0.0,0.0,-1.55738580227,0.162673220038,-9.77472114563,-0.0228563081473,0.00445601344109,-0.0182392671704,0.147961184382,0.152272999287,0.421837300062,-1.55738580227,0.162673220038,-9.77472114563,-0.0288722291589,0.0301129836589,-0.0142243299633,0.0,0.0,0.0,,,,,,,,,,995.130004883,151.937255859,43.219997406,0.0,0.0,16.7229919434,0.0,-10.0,0.0,0.0,0.0,0.0,0.0,0.0,0.0,0.0,63,0,1,1.0,1.0,,,,,,,,,,,,,,,,,,,,,,,,0,2,0,0.470681369305,0,0,0.0,0.0,0.0,-0.00775193795562,-1.0,-0.800000011921,-1.0,0.0,7,0,0.0,0.0,0.0,0.0,0.0,0.0,0.0,0.0,,,,0.0,0.0,0.0,,,,,,,,0.0,0.0,0.0,0.0,0.0,0.0,1.0,1.0,0.0,,,,,,,,,,,,,,,,,,,,,,0.0,0.0,0.0,11.2667999268,11.3294715881,0.173600003123,2.0194644928,,,,166,168,28,23,0,0,100,46892609,,,,,,,,,,,,,,,,,,,,,,,,,,,,,,,,,,,,,,,,,,,,,,,,,,,,,,,,,5.22714853287,0.070000000298,1.22100007534,0,1,0,0,0,,,,,,,,,,,,,,,,,,,,,,,,,,,,,,,,,,,,,,,,,,,,,,,,,,,,,,,,,,,,,,,,,,,,,,,,,,,,,,,,,,,,,,,,,,,,,,,,,,,85716,0.0,84623,0.0,1500.0,1500.0,0.0,0.0,0.0,0.0,0.0,0.0,47044584,PX4FMU_V2,c17f0b6885b5678d25510dd57a90f80b05115e37,test,305419904.0
-0.0119312228635,-0.176537692547,-1.12169098854,-0.0221556574106,0.00523051945493,-0.0190487932414,-1.56590294838,0.099990233779,-9.73647594452,0.0,-0.0,0.0,0.0,-1.56590294838,0.099990233779,-9.73647594452,-0.0205837395042,0.00498891668394,-0.0189308021218,0.152281194925,0.15467299521,0.420717298985,-1.56590294838,0.099990233779,-9.73647594452,-0.031345911324,0.0266059692949,-0.0193319320679,0.0,0.0,0.0,,,,,,,,,,995.149963379,151.768325806,43.2299995422,0.0,0.0,16.7229919434,0.0,-10.0,0.0,0.0,0.0,0.0,0.0,0.0,0.0,0.0,63,0,1,1.0,1.0,,,,,,,,,,,,,,,,,,,,,,,,0,2,0,0.470681369305,0,0,0.0,0.0,0.0,-0.0103359175846,-1.0,-0.800000011921,-1.0,0.0,7,0,0.0,0.0,0.0,0.0,0.0,0.0,0.0,0.0,,,,0.0,0.0,0.0,,,,,,,,0.0,0.0,0.0,0.0,0.0,0.0,1.0,1.0,0.0,,,,,,,,,,,,,,,,,,,,,,0.0,0.0,0.0,11.2667999268,11.3294715881,0.173600003123,2.0194644928,,,,166,168,28,23,0,0,100,46892609,,,,,,,,,,,,,,,,,,,,,,,,,,,,,,,,,,,,,,,,,,,,,,,,,,,,,,,,,5.22714853287,0.070000000298,1.22100007534,0,1,0,0,0,,,,,,,,,,,,,,,,,,,,,,,,,,,,,,,,,,,,,,,,,,,,,,,,,,,,,,,,,,,,,,,,,,,,,,,,,,,,,,,,,,,,,,,,,,,,,,,,,,,85716,0.0,84623,0.0,1500.0,1500.0,0.0,0.0,0.0,0.0,0.0,0.0,47050818,PX4FMU_V2,c17f0b6885b5678d25510dd57a90f80b05115e37,test,305419904.0
-0.0119959479198,-0.176504507661,-1.12172758579,-0.0211566947401,0.00541321467608,-0.0199035145342,-1.57553291321,0.0685053691268,-9.69311714172,0.0,-0.0,0.0,0.0,-1.57553291321,0.0685053691268,-9.69311714172,-0.0198694821447,0.00509642623365,-0.0189774334431,0.152281194925,0.15467299521,0.420717298985,-1.57553291321,0.0685053691268,-9.69311714172,-0.027770081535,0.0252608116716,-0.0205664243549,0.0,0.0,0.0,,,,,,,,,,995.149963379,151.768325806,43.2299995422,0.0,0.0,16.7229919434,0.0,-10.0,0.0,0.0,0.0,0.0,0.0,0.0,0.0,0.0,63,0,1,1.0,1.0,,,,,,,,,,,,,,,,,,,,,,,,0,2,0,0.470681369305,0,0,0.0,0.0,0.0,-0.0103359175846,-1.0,-0.800000011921,-1.0,0.0,7,0,0.0,0.0,0.0,0.0,0.0,0.0,0.0,0.0,,,,0.0,0.0,0.0,,,,,,,,0.0,0.0,0.0,0.0,0.0,0.0,1.0,1.0,0.0,,,,,,,,,,,,,,,,,,,,,,0.0,0.0,0.0,11.3159999847,11.3294582367,0.148800000548,2.01996421814,,,,166,168,28,23,0,0,100,46892609,,,,,,,,,,,,,,,,,,,,,,,,,,,,,,,,,,,,,,,,,,,,,,,,,,,,,,,,,5.22392559052,0.062000002712,1.50200009346,0,1,0,0,0,,,,,,,,,,,,,,,,,,,,,,,,,,,,,,,,,,,,,,,,,,,,,,,,,,,,,,,,,,,,,,,,,,,,,,,,,,,,,,,,,,,,,,,,,,,,,,,,,,,85716,0.0,84623,0.0,1500.0,1500.0,0.0,0.0,0.0,0.0,0.0,0.0,47057488,PX4FMU_V2,c17f0b6885b5678d25510dd57a90f80b05115e37,test,305419904.0
-0.0121455257758,-0.176432549953,-1.12183332443,-0.0202092286199,0.00567576242611,-0.0208829902112,-1.5820991993,0.0589736029506,-9.65554618835,0.0,-0.0,0.0,0.0,-1.5820991993,0.0589736029506,-9.65554618835,-0.0203922037035,0.00524758407846,-0.0191183369607,0.153001189232,0.15467299521,0.421357303858,-1.5820991993,0.0589736029506,-9.65554618835,-0.023505974561,0.0253121685237,-0.0227686204016,0.0,0.0,0.0,,,,,,,,,,995.119995117,152.021728516,43.2299995422,0.0,0.0,16.7229919434,0.0,-10.0,0.0,0.0,0.0,0.0,0.0,0.0,0.0,0.0,63,0,1,1.0,1.0,,,,,,,,,,,,,,,,,,,,,,,,0,2,0,0.470681369305,0,0,0.0,0.0,0.0,-0.0103359175846,-1.0,-0.800000011921,-1.0,0.0,7,0,0.0,0.0,0.0,0.0,0.0,0.0,0.0,0.0,,,,0.0,0.0,0.0,,,,,,,,0.0,0.0,0.0,0.0,0.0,0.0,1.0,1.0,0.0,,,,,,,,,,,,,,,,,,,,,,0.0,0.0,0.0,11.3159999847,11.3294582367,0.148800000548,2.01996421814,,,,166,168,28,23,0,0,100,46892609,,,,,,,,,,,,,,,,,,,,,,,,,,,,,,,,,,,,,,,,,,,,,,,,,,,,,,,,,5.22714853287,0.062000002712,1.50200009346,0,1,0,0,0,,,,,,,,,,,,,,,,,,,,,,,,,,,,,,,,,,,,,,,,,,,,,,,,,,,,,,,,,,,,,,,,,,,,,,,,,,,,,,,,,,,,,,,,,,,,,,,,,,,85716,0.0,84623,0.0,1500.0,1500.0,0.0,0.0,0.0,0.0,0.0,0.0,47064520,PX4FMU_V2,c17f0b6885b5678d25510dd57a90f80b05115e37,test,305419904.0
-0.012276371941,-0.17636205256,-1.12188076973,-0.020763611421,0.00609896983951,-0.0217113215476,-1.57006132603,0.0778972357512,-9.66879558563,0.0,-0.0,0.0,0.0,-1.57006132603,0.0778972357512,-9.66879558563,-0.0220612045377,0.00603918358684,-0.0207275822759,0.153641194105,0.154833003879,0.420637309551,-1.57006132603,0.0778972357512,-9.66879558563,-0.0243050213903,0.0328474491835,-0.0198125094175,0.0,0.0,0.0,,,,,,,,,,995.149963379,151.768325806,43.2299995422,0.0,0.0,16.7229919434,0.0,-10.0,0.0,0.0,0.0,0.0,0.0,0.0,0.0,0.0,63,0,1,1.0,1.0,,,,,,,,,,,,,,,,,,,,,,,,0,2,0,0.470681369305,0,0,0.0,0.0,0.0,-0.0103359175846,-1.0,-0.800000011921,-1.0,0.0,7,0,0.0,0.0,0.0,0.0,0.0,0.0,0.0,0.0,,,,0.0,0.0,0.0,,,,,,,,0.0,0.0,0.0,0.0,0.0,0.0,1.0,1.0,0.0,,,,,,,,,,,,,,,,,,,,,,0.0,0.0,0.0,11.3241996765,11.3294525146,0.0,2.01996421814,,,,166,168,28,23,0,0,100,46892609,,,,,,,,,,,,,,,,,,,,,,,,,,,,,,,,,,,,,,,,,,,,,,,,,,,,,,,,,5.22714853287,0.062000002712,1.50200009346,0,1,0,0,0,,,,,,,,,,,,,,,,,,,,,,,,,,,,,,,,,,,,,,,,,,,,,,,,,,,,,,,,,,,,,,,,,,,,,,,,,,,,,,,,,,,,,,,,,,,,,,,,,,,85716,0.0,84623,0.0,1500.0,1500.0,0.0,0.0,0.0,0.0,0.0,0.0,47071266,PX4FMU_V2,c17f0b6885b5678d25510dd57a90f80b05115e37,test,305419904.0
-0.0123459370807,-0.176324918866,-1.12193179131,-0.0212840531021,0.00639206403866,-0.0223507415503,-1.57613873482,0.0893186256289,-9.67347335815,0.0,-0.0,0.0,0.0,-1.57613873482,0.0893186256289,-9.67347335815,-0.0226258486509,0.00640479195863,-0.0216619335115,0.153641194105,0.154833003879,0.420637309551,-1.57613873482,0.0893186256289,-9.67347335815,-0.0275236386806,0.035368822515,-0.0189156327397,0.0,0.0,0.0,,,,,,,,,,995.149963379,151.768325806,43.2299995422,0.0,0.0,16.7229919434,0.0,-10.0,0.0,0.0,0.0,0.0,0.0,0.0,0.0,0.0,63,0,1,1.0,1.0,,,,,,,,,,,,,,,,,,,,,,,,0,2,0,0.470681369305,0,0,0.0,0.0,0.0,-0.0129198962823,-1.0,-0.800000011921,-1.0,0.0,7,0,0.0,0.0,0.0,0.0,0.0,0.0,0.0,0.0,,,,0.0,0.0,0.0,,,,,,,,0.0,0.0,0.0,0.0,0.0,0.0,1.0,1.0,0.0,,,,,,,,,,,,,,,,,,,,,,0.0,0.0,0.0,11.3241996765,11.3294525146,0.0,2.01996421814,,,,166,168,28,23,0,0,100,46892609,,,,,,,,,,,,,,,,,,,,,,,,,,,,,,,,,,,,,,,,,,,,,,,,,,,,,,,,,5.22392559052,0.070000000298,1.50400006771,0,1,0,0,0,,,,,,,,,,,,,,,,,,,,,,,,,,,,,,,,,,,,,,,,,,,,,,,,,,,,,,,,,,,,,,,,,,,,,,,,,,,,,,,,,,,,,,,,,,,,,,,,,,,85716,0.0,84623,0.0,1500.0,1500.0,0.0,0.0,0.0,0.0,0.0,0.0,47076672,PX4FMU_V2,c17f0b6885b5678d25510dd57a90f80b05115e37,test,305419904.0
-0.0124853886664,-0.176253631711,-1.12196791172,-0.022228596732,0.00686241174117,-0.0228650365025,-1.6125856638,0.0592446811497,-9.66359233856,0.0,-0.0,0.0,0.0,-1.6125856638,0.0592446811497,-9.66359233856,-0.0231705978513,0.0067701684311,-0.0212317053229,0.15412119031,0.154192999005,0.421517282724,-1.6125856638,0.0592446811497,-9.66359233856,-0.0283543150872,0.0314590930939,-0.0135637382045,0.0,0.0,0.0,,,,,,,,,,995.149963379,151.768325806,43.2299995422,0.0,0.0,16.7229919434,0.0,-10.0,0.0,0.0,0.0,0.0,0.0,0.0,0.0,0.0,63,0,1,1.0,1.0,,,,,,,,,,,,,,,,,,,,,,,,0,2,0,0.470681369305,0,0,0.0,0.0,0.0,-0.0129198962823,-1.0,-0.800000011921,-1.0,0.0,7,0,0.0,0.0,0.0,0.0,0.0,0.0,0.0,0.0,,,,0.0,0.0,0.0,,,,,,,,0.0,0.0,0.0,0.0,0.0,0.0,1.0,1.0,0.0,,,,,,,,,,,,,,,,,,,,,,0.0,0.0,0.0,11.283200264,11.3294067383,0.0,2.01996421814,,,,166,168,28,23,0,0,100,46892609,,,,,,,,,,,,,,,,,,,,,,,,,,,,,,,,,,,,,,,,,,,,,,,,,,,,,,,,,5.22392559052,0.070000000298,1.50400006771,0,1,0,0,0,,,,,,,,,,,,,,,,,,,,,,,,,,,,,,,,,,,,,,,,,,,,,,,,,,,,,,,,,,,,,,,,,,,,,,,,,,,,,,,,,,,,,,,,,,,,,,,,,,,85716,0.0,84623,0.0,1500.0,1500.0,0.0,0.0,0.0,0.0,0.0,0.0,47082957,PX4FMU_V2,c17f0b6885b5678d25510dd57a90f80b05115e37,test,305419904.0
-0.0125511586666,-0.176219567657,-1.12197732925,-0.0225046016276,0.00705822231248,-0.0223281551152,-1.62878262997,0.0194353554398,-9.65339851379,0.0,-0.0,0.0,0.0,-1.62878262997,0.0194353554398,-9.65339851379,-0.0231188517064,0.00691285915673,-0.0198328290135,0.153241187334,0.154192999005,0.419917285442,-1.62878262997,0.0194353554398,-9.65339851379,-0.0323683470488,0.030193304643,-0.0110807335004,0.0,0.0,0.0,,,,,,,,,,995.149963379,151.768325806,43.2299995422,0.0,0.0,16.7229919434,0.0,-10.0,0.0,0.0,0.0,0.0,0.0,0.0,0.0,0.0,63,0,1,1.0,1.0,,,,,,,,,,,,,,,,,,,,,,,,0,2,0,0.470681369305,0,0,0.0,0.0,0.0,-0.0129198962823,-1.0,-0.800000011921,-1.0,0.0,7,0,0.0,0.0,0.0,0.0,0.0,0.0,0.0,0.0,,,,0.0,0.0,0.0,,,,,,,,0.0,0.0,0.0,0.0,0.0,0.0,1.0,1.0,0.0,,,,,,,,,,,,,,,,,,,,,,0.0,0.0,0.0,11.283200264,11.3294067383,0.0,2.01996421814,,,,166,168,28,23,0,0,100,46892609,,,,,,,,,,,,,,,,,,,,,,,,,,,,,,,,,,,,,,,,,,,,,,,,,,,,,,,,,5.22231435776,0.070000000298,1.50400006771,0,1,0,0,0,,,,,,,,,,,,,,,,,,,,,,,,,,,,,,,,,,,,,,,,,,,,,,,,,,,,,,,,,,,,,,,,,,,,,,,,,,,,,,,,,,,,,,,,,,,,,,,,,,,85716,0.0,84623,0.0,1500.0,1500.0,0.0,0.0,0.0,0.0,0.0,0.0,47089045,PX4FMU_V2,c17f0b6885b5678d25510dd57a90f80b05115e37,test,305419904.0
-0.012678803876,-0.176148608327,-1.12206852436,-0.0229931101203,0.00765979336575,-0.0196499619633,-1.63263833523,-0.0430827923119,-9.62899398804,0.0,-0.0,0.0,0.0,-1.63263833523,-0.0430827923119,-9.62899398804,-0.0235979147255,0.00777600565925,-0.015785459429,0.153241187334,0.154192999005,0.419917285442,-1.63263833523,-0.0430827923119,-9.62899398804,-0.0331590436399,0.0277751013637,-0.0107259247452,0.0,0.0,0.0,,,,,,,,,,995.159973145,151.683853149,43.219997406,0.0,0.0,16.7229919434,0.0,-10.0,0.0,0.0,0.0,0.0,0.0,0.0,0.0,0.0,63,0,1,1.0,1.0,,,,,,,,,,,,,,,,,,,,,,,,0,2,0,0.470681369305,0,0,0.0,0.0,0.0,-0.0129198962823,-1.0,-0.800000011921,-1.0,0.0,7,0,0.0,0.0,0.0,0.0,0.0,0.0,0.0,0.0,,,,0.0,0.0,0.0,,,,,,,,0.0,0.0,0.0,0.0,0.0,0.0,1.0,1.0,0.0,,,,,,,,,,,,,,,,,,,,,,0.0,0.0,0.0,11.307800293,11.3293991089,0.0248000007123,2.02029752731,,,,166,168,28,23,0,0,100,46892609,,,,,,,,,,,,,,,,,,,,,,,,,,,,,,,,,,,,,,,,,,,,,,,,,,,,,,,,,5.22553682327,0.0670000016689,1.52000010014,0,1,0,0,0,,,,,,,,,,,,,,,,,,,,,,,,,,,,,,,,,,,,,,,,,,,,,,,,,,,,,,,,,,,,,,,,,,,,,,,,,,,,,,,,,,,,,,,,,,,,,,,,,,,85716,0.0,84623,0.0,1500.0,1500.0,0.0,0.0,0.0,0.0,0.0,0.0,47095603,PX4FMU_V2,c17f0b6885b5678d25510dd57a90f80b05115e37,test,305419904.0
-0.0132797611877,-0.175792112947,-1.12250328064,-0.0284706894308,0.0121675459668,-0.00925831496716,-1.59291005135,0.0255790743977,-9.56590270996,0.0,-0.0,0.0,0.0,-1.59291005135,0.0255790743977,-9.56590270996,-0.0289193354547,0.0128933256492,-0.00745756970719,0.151081189513,0.154112994671,0.422157287598,-1.59291005135,0.0255790743977,-9.56590270996,-0.034842081368,0.0344017036259,-0.0060637332499,0.0,0.0,0.0,,,,,,,,,,995.149963379,151.768325806,43.219997406,0.0,0.0,16.7229919434,0.0,-10.0,0.0,0.0,0.0,0.0,0.0,0.0,0.0,0.0,63,0,1,1.0,1.0,,,,,,,,,,,,,,,,,,,,,,,,0,2,0,0.470681369305,0,0,0.0,0.0,0.0,-0.0129198962823,-1.0,-0.800000011921,-1.0,0.0,7,0,0.0,0.0,0.0,0.0,0.0,0.0,0.0,0.0,,,,0.0,0.0,0.0,,,,,,,,0.0,0.0,0.0,0.0,0.0,0.0,1.0,1.0,0.0,,,,,,,,,,,,,,,,,,,,,,0.0,0.0,0.0,11.307800293,11.3293991089,0.0248000007123,2.02029752731,,,,166,168,28,23,0,0,100,46892609,,,,,,,,,,,,,,,,,,,,,,,,,,,,,,,,,,,,,,,,,,,,,,,,,,,,,,,,,5.22875976562,0.0670000016689,1.52000010014,0,1,0,0,0,,,,,,,,,,,,,,,,,,,,,,,,,,,,,,,,,,,,,,,,,,,,,,,,,,,,,,,,,,,,,,,,,,,,,,,,,,,,,,,,,,,,,,,,,,,,,,,,,,,85716,0.0,84623,0.0,1500.0,1500.0,0.0,0.0,0.0,0.0,0.0,0.0,47124818,PX4FMU_V2,c17f0b6885b5678d25510dd57a90f80b05115e37,test,305419904.0
-0.013478435576,-0.175666421652,-1.1224848032,-0.0300337467343,0.0137068880722,-0.00745515199378,-1.57118952274,-0.00516004348174,-9.56036567688,0.0,-0.0,0.0,0.0,-1.57118952274,-0.00516004348174,-9.56036567688,-0.0308787077665,0.014119268395,-0.00726712774485,0.153161197901,0.154432997108,0.423037290573,-1.57118952274,-0.00516004348174,-9.56036567688,-0.0329146906734,0.0367707908154,-0.00310127832927,0.0,0.0,0.0,,,,,,,,,,995.149963379,151.768325806,43.219997406,0.0,0.0,16.7229919434,0.0,-10.0,0.0,0.0,0.0,0.0,0.0,0.0,0.0,0.0,63,0,1,1.0,1.0,,,,,,,,,,,,,,,,,,,,,,,,0,2,0,0.470681369305,0,0,0.0,0.0,0.0,-0.0129198962823,-1.0,-0.800000011921,-1.0,0.0,7,0,0.0,0.0,0.0,0.0,0.0,0.0,0.0,0.0,,,,0.0,0.0,0.0,,,,,,,,0.0,0.0,0.0,0.0,0.0,0.0,1.0,1.0,0.0,,,,,,,,,,,,,,,,,,,,,,0.0,0.0,0.0,11.3898000717,11.3294591904,0.0,2.02029752731,,,,166,168,28,23,0,0,100,46892609,,,,,,,,,,,,,,,,,,,,,,,,,,,,,,,,,,,,,,,,,,,,,,,,,,,,,,,,,5.22875976562,0.0670000016689,1.52000010014,0,1,0,0,0,,,,,,,,,,,,,,,,,,,,,,,,,,,,,,,,,,,,,,,,,,,,,,,,,,,,,,,,,,,,,,,,,,,,,,,,,,,,,,,,,,,,,,,,,,,,,,,,,,,85716,0.0,84623,0.0,1500.0,1500.0,0.0,0.0,0.0,0.0,0.0,0.0,47131779,PX4FMU_V2,c17f0b6885b5678d25510dd57a90f80b05115e37,test,305419904.0
-0.013688724488,-0.175529658794,-1.12249457836,-0.0323761552572,0.0145006170496,-0.00768108572811,-1.53455209732,-0.00682605989277,-9.58674716949,0.0,-0.0,0.0,0.0,-1.53455209732,-0.00682605989277,-9.58674716949,-0.0336347296834,0.0141203124076,-0.00912948139012,0.151961192489,0.154992997646,0.419517308474,-1.53455209732,-0.00682605989277,-9.58674716949,-0.0359868481755,0.0351280495524,0.00250041065738,0.0,0.0,0.0,,,,,,,,,,995.149963379,151.768325806,43.219997406,0.0,0.0,16.7229919434,0.0,-10.0,0.0,0.0,0.0,0.0,0.0,0.0,0.0,0.0,63,0,1,1.0,1.0,,,,,,,,,,,,,,,,,,,,,,,,0,2,0,0.470681369305,0,0,0.0,0.0,0.0,-0.0129198962823,-1.0,-0.800000011921,-1.0,0.0,7,0,0.0,0.0,0.0,0.0,0.0,0.0,0.0,0.0,,,,0.0,0.0,0.0,,,,,,,,0.0,0.0,0.0,0.0,0.0,0.0,1.0,1.0,0.0,,,,,,,,,,,,,,,,,,,,,,0.0,0.0,0.0,11.2749996185,11.3294048309,0.0,2.02029752731,,,,166,168,28,23,0,0,100,46892609,,,,,,,,,,,,,,,,,,,,,,,,,,,,,,,,,,,,,,,,,,,,,,,,,,,,,,,,,5.2335934639,0.070000000298,1.51900005341,0,1,0,0,0,,,,,,,,,,,,,,,,,,,,,,,,,,,,,,,,,,,,,,,,,,,,,,,,,,,,,,,,,,,,,,,,,,,,,,,,,,,,,,,,,,,,,,,,,,,,,,,,,,,85716,0.0,84623,0.0,1500.0,1500.0,0.0,0.0,0.0,0.0,0.0,0.0,47139555,PX4FMU_V2,c17f0b6885b5678d25510dd57a90f80b05115e37,test,305419904.0
-0.01380137261,-0.175458744168,-1.12248528004,-0.0333336219192,0.014618081972,-0.0082877445966,-1.52576696873,0.0192958079278,-9.6032743454,0.0,-0.0,0.0,0.0,-1.52576696873,0.0192958079278,-9.6032743454,-0.0340460725129,0.013963971287,-0.0101107740775,0.151961192489,0.154992997646,0.419517308474,-1.52576696873,0.0192958079278,-9.6032743454,-0.0363266766071,0.0345399007201,0.00156906840857,0.0,0.0,0.0,,,,,,,,,,995.130004883,151.937255859,43.219997406,0.0,0.0,16.7229919434,0.0,-10.0,0.0,0.0,0.0,0.0,0.0,0.0,0.0,0.0,63,0,1,1.0,1.0,,,,,,,,,,,,,,,,,,,,,,,,0,2,0,0.470681369305,0,0,0.0,0.0,0.0,-0.0129198962823,-1.0,-0.800000011921,-1.0,0.0,7,0,0.0,0.0,0.0,0.0,0.0,0.0,0.0,0.0,,,,0.0,0.0,0.0,,,,,,,,0.0,0.0,0.0,0.0,0.0,0.0,1.0,1.0,0.0,,,,,,,,,,,,,,,,,,,,,,0.0,0.0,0.0,11.2749996185,11.3294048309,0.0,2.02029752731,,,,166,168,28,23,0,0,100,46892609,,,,,,,,,,,,,,,,,,,,,,,,,,,,,,,,,,,,,,,,,,,,,,,,,,,,,,,,,5.24165010452,0.070000000298,1.51900005341,0,1,0,0,0,,,,,,,,,,,,,,,,,,,,,,,,,,,,,,,,,,,,,,,,,,,,,,,,,,,,,,,,,,,,,,,,,,,,,,,,,,,,,,,,,,,,,,,,,,,,,,,,,,,85716,0.0,84623,0.0,1500.0,1500.0,0.0,0.0,0.0,0.0,0.0,0.0,47144926,PX4FMU_V2,c17f0b6885b5678d25510dd57a90f80b05115e37,test,305419904.0
-0.0140355918556,-0.175319388509,-1.12260508537,-0.0341745652258,0.0148385800421,-0.010324918665,-1.55967283249,0.0814406648278,-9.62075614929,0.0,-0.0,0.0,0.0,-1.55967283249,0.0814406648278,-9.62075614929,-0.033486135304,0.0143438577652,-0.0127914771438,0.150521188974,0.154033005238,0.421917289495,-1.55967283249,0.0814406648278,-9.62075614929,-0.0331782214344,0.0387984067202,-0.0082224868238,0.0,0.0,0.0,,,,,,,,,,995.130004883,151.937255859,43.219997406,0.0,0.0,16.7229919434,0.0,-10.0,0.0,0.0,0.0,0.0,0.0,0.0,0.0,0.0,63,0,1,1.0,1.0,,,,,,,,,,,,,,,,,,,,,,,,0,2,0,0.470681369305,0,0,0.0,0.0,0.0,-0.0129198962823,-1.0,-0.800000011921,-1.0,0.0,7,0,0.0,0.0,0.0,0.0,0.0,0.0,0.0,0.0,,,,0.0,0.0,0.0,,,,,,,,0.0,0.0,0.0,0.0,0.0,0.0,1.0,1.0,0.0,,,,,,,,,,,,,,,,,,,,,,0.0,0.0,0.0,11.357000351,11.3294324875,0.0,2.02029752731,,,,166,168,28,23,0,0,100,46892609,,,,,,,,,,,,,,,,,,,,,,,,,,,,,,,,,,,,,,,,,,,,,,,,,,,,,,,,,5.24165010452,0.070000000298,1.51900005341,0,1,0,0,0,,,,,,,,,,,,,,,,,,,,,,,,,,,,,,,,,,,,,,,,,,,,,,,,,,,,,,,,,,,,,,,,,,,,,,,,,,,,,,,,,,,,,,,,,,,,,,,,,,,85716,0.0,84623,0.0,1500.0,1500.0,0.0,0.0,0.0,0.0,0.0,0.0,47151883,PX4FMU_V2,c17f0b6885b5678d25510dd57a90f80b05115e37,test,305419904.0
-0.01415138226,-0.175251156092,-1.12262701988,-0.033844422549,0.0150016564876,-0.011682129465,-1.57884907722,0.0993422493339,-9.63073348999,0.0,-0.0,0.0,0.0,-1.57884907722,0.0993422493339,-9.63073348999,-0.03227192536,0.0145829161629,-0.014284376055,0.150521188974,0.154033005238,0.421917289495,-1.57884907722,0.0993422493339,-9.63073348999,-0.0316768437624,0.0398762226105,-0.0132893389091,0.0,0.0,0.0,,,,,,,,,,995.119995117,152.021728516,43.219997406,0.0,0.0,16.7229919434,0.0,-10.0,0.0,0.0,0.0,0.0,0.0,0.0,0.0,0.0,63,0,1,1.0,1.0,,,,,,,,,,,,,,,,,,,,,,,,0,2,0,0.470681369305,0,0,0.0,0.0,0.0,-0.0129198962823,-1.0,-0.800000011921,-1.0,0.0,7,0,0.0,0.0,0.0,0.0,0.0,0.0,0.0,0.0,,,,0.0,0.0,0.0,,,,,,,,0.0,0.0,0.0,0.0,0.0,0.0,1.0,1.0,0.0,,,,,,,,,,,,,,,,,,,,,,0.0,0.0,0.0,11.357000351,11.3294324875,0.0,2.02029752731,,,,166,168,28,23,0,0,100,46892609,,,,,,,,,,,,,,,,,,,,,,,,,,,,,,,,,,,,,,,,,,,,,,,,,,,,,,,,,5.24003887177,0.070000000298,1.51900005341,0,1,0,0,0,,,,,,,,,,,,,,,,,,,,,,,,,,,,,,,,,,,,,,,,,,,,,,,,,,,,,,,,,,,,,,,,,,,,,,,,,,,,,,,,,,,,,,,,,,,,,,,,,,,85716,0.0,84623,0.0,1500.0,1500.0,0.0,0.0,0.0,0.0,0.0,0.0,47158038,PX4FMU_V2,c17f0b6885b5678d25510dd57a90f80b05115e37,test,305419904.0
-0.0143704460934,-0.175109401345,-1.12279605865,-0.0323068834841,0.0154329761863,-0.0154173439369,-1.55702328682,0.106744624674,-9.64356899261,0.0,-0.0,0.0,0.0,-1.55702328682,0.106744624674,-9.64356899261,-0.0301154591143,0.0151938730851,-0.0188108738512,0.150121197104,0.153232991695,0.422077298164,-1.55702328682,0.106744624674,-9.64356899261,-0.0353503338993,0.0398532301188,-0.0160840656608,0.0,0.0,0.0,,,,,,,,,,995.119995117,152.021728516,43.219997406,0.0,0.0,16.7229919434,0.0,-10.0,0.0,0.0,0.0,0.0,0.0,0.0,0.0,0.0,63,0,1,1.0,1.0,,,,,,,,,,,,,,,,,,,,,,,,0,2,0,0.470681369305,0,0,0.0,0.0,0.0,-0.0129198962823,-1.0,-0.800000011921,-1.0,0.0,7,0,0.0,0.0,0.0,0.0,0.0,0.0,0.0,0.0,,,,0.0,0.0,0.0,,,,,,,,0.0,0.0,0.0,0.0,0.0,0.0,1.0,1.0,0.0,,,,,,,,,,,,,,,,,,,,,,0.0,0.0,0.0,11.2995996475,11.3294029236,0.0,2.02029752731,,,,166,168,28,23,0,0,100,46892609,,,,,,,,,,,,,,,,,,,,,,,,,,,,,,,,,,,,,,,,,,,,,,,,,,,,,,,,,5.23681640625,0.0670000016689,1.52100002766,0,1,0,0,0,,,,,,,,,,,,,,,,,,,,,,,,,,,,,,,,,,,,,,,,,,,,,,,,,,,,,,,,,,,,,,,,,,,,,,,,,,,,,,,,,,,,,,,,,,,,,,,,,,,85716,0.0,84623,0.0,1500.0,1500.0,0.0,0.0,0.0,0.0,0.0,0.0,47164458,PX4FMU_V2,c17f0b6885b5678d25510dd57a90f80b05115e37,test,305419904.0
-0.0145729146898,-0.174958750606,-1.12298309803,-0.0306473374367,0.0157605241984,-0.0208408273757,-1.53000998497,0.118257284164,-9.66133785248,0.0,-0.0,0.0,0.0,-1.53000998497,0.118257284164,-9.66133785248,-0.0289486460388,0.0154359247535,-0.0251161940396,0.150601193309,0.15427300334,0.421437293291,-1.53000998497,0.118257284164,-9.66133785248,-0.0370830930769,0.0399828031659,-0.0271034184843,0.0,0.0,0.0,,,,,,,,,,995.109985352,152.106185913,43.219997406,0.0,0.0,16.7229919434,0.0,-10.0,0.0,0.0,0.0,0.0,0.0,0.0,0.0,0.0,63,0,1,1.0,1.0,,,,,,,,,,,,,,,,,,,,,,,,0,2,0,0.470681369305,0,0,0.0,0.0,0.0,-0.0129198962823,-1.0,-0.800000011921,-1.0,0.0,7,0,0.0,0.0,0.0,0.0,0.0,0.0,0.0,0.0,,,,0.0,0.0,0.0,,,,,,,,0.0,0.0,0.0,0.0,0.0,0.0,1.0,1.0,0.0,,,,,,,,,,,,,,,,,,,,,,0.0,0.0,0.0,11.2995996475,11.3294029236,0.0,2.02029752731,,,,166,168,28,23,0,0,100,46892609,,,,,,,,,,,,,,,,,,,,,,,,,,,,,,,,,,,,,,,,,,,,,,,,,,,,,,,,,5.23681640625,0.0670000016689,1.52100002766,0,1,0,0,0,,,,,,,,,,,,,,,,,,,,,,,,,,,,,,,,,,,,,,,,,,,,,,,,,,,,,,,,,,,,,,,,,,,,,,,,,,,,,,,,,,,,,,,,,,,,,,,,,,,85716,0.0,84623,0.0,1500.0,1500.0,0.0,0.0,0.0,0.0,0.0,0.0,47172406,PX4FMU_V2,c17f0b6885b5678d25510dd57a90f80b05115e37,test,305419904.0
-0.0146680679172,-0.174882903695,-1.12304639816,-0.029784373939,0.0159245803952,-0.0239690486342,-1.5368065834,0.127045020461,-9.66238117218,0.0,-0.0,0.0,0.0,-1.5368065834,0.127045020461,-9.66238117218,-0.028096742928,0.0156470015645,-0.0282243676484,0.150601193309,0.15427300334,0.421437293291,-1.5368065834,0.127045020461,-9.66238117218,-0.034567207098,0.0414258167148,-0.033882740885,0.0,0.0,0.0,,,,,,,,,,995.109985352,152.106185913,43.219997406,0.0,0.0,16.7229919434,0.0,-10.0,0.0,0.0,0.0,0.0,0.0,0.0,0.0,0.0,63,0,1,1.0,1.0,,,,,,,,,,,,,,,,,,,,,,,,0,2,0,0.470681369305,0,0,0.0,0.0,0.0,-0.0129198962823,-1.0,-0.800000011921,-1.0,0.0,7,0,0.0,0.0,0.0,0.0,0.0,0.0,0.0,0.0,,,,0.0,0.0,0.0,,,,,,,,0.0,0.0,0.0,0.0,0.0,0.0,1.0,1.0,0.0,,,,,,,,,,,,,,,,,,,,,,0.0,0.0,0.0,11.357000351,11.3294305801,0.0,2.02029752731,,,,166,168,28,23,0,0,100,46892609,,,,,,,,,,,,,,,,,,,,,,,,,,,,,,,,,,,,,,,,,,,,,,,,,,,,,,,,,5.23520517349,0.0670000016689,1.52100002766,0,1,0,0,0,,,,,,,,,,,,,,,,,,,,,,,,,,,,,,,,,,,,,,,,,,,,,,,,,,,,,,,,,,,,,,,,,,,,,,,,,,,,,,,,,,,,,,,,,,,,,,,,,,,85716,0.0,84623,0.0,1500.0,1500.0,0.0,0.0,0.0,0.0,0.0,0.0,47178176,PX4FMU_V2,c17f0b6885b5678d25510dd57a90f80b05115e37,test,305419904.0
-0.0148432254791,-0.174730181694,-1.12332975864,-0.0277833733708,0.0166837126017,-0.0301471445709,-1.56159353256,0.135647341609,-9.64668273926,0.0,-0.0,0.0,0.0,-1.56159353256,0.135647341609,-9.64668273926,-0.0261173006147,0.0169488079846,-0.0335584953427,0.150521188974,0.154192999005,0.423117309809,-1.56159353256,0.135647341609,-9.64668273926,-0.025857180357,0.0394888296723,-0.038863170892,0.0,0.0,0.0,,,,,,,,,,995.109985352,152.106185913,43.219997406,0.0,0.0,16.7229919434,0.0,-10.0,0.0,0.0,0.0,0.0,0.0,0.0,0.0,0.0,63,0,1,1.0,1.0,,,,,,,,,,,,,,,,,,,,,,,,0,2,0,0.470681369305,0,0,0.0,0.0,0.0,-0.0129198962823,-1.0,-0.800000011921,-1.0,0.0,7,0,0.0,0.0,0.0,0.0,0.0,0.0,0.0,0.0,,,,0.0,0.0,0.0,,,,,,,,0.0,0.0,0.0,0.0,0.0,0.0,1.0,1.0,0.0,,,,,,,,,,,,,,,,,,,,,,0.0,0.0,0.0,11.357000351,11.3294305801,0.0,2.02029752731,,,,166,168,28,23,0,0,100,46892609,,,,,,,,,,,,,,,,,,,,,,,,,,,,,,,,,,,,,,,,,,,,,,,,,,,,,,,,,5.23681640625,0.070000000298,1.24700009823,0,1,0,0,0,,,,,,,,,,,,,,,,,,,,,,,,,,,,,,,,,,,,,,,,,,,,,,,,,,,,,,,,,,,,,,,,,,,,,,,,,,,,,,,,,,,,,,,,,,,,,,,,,,,85716,0.0,84623,0.0,1500.0,1500.0,0.0,0.0,0.0,0.0,0.0,0.0,47185357,PX4FMU_V2,c17f0b6885b5678d25510dd57a90f80b05115e37,test,305419904.0
